~Version Information
 VERS.                 2.0: 
 WRAP.                  NO: 
 END.                PETRA:IHS Markit
~Well Information Block
#MNEM.UNIT       Data Type    Information
#---------    -------------   ---------------------------------
 STRT.F           3901.4922:
 STOP.F           7683.4846:
 STEP.F              0.5000:
 NULL.              -999.25:
 COMP.                           : COMPANY
 FLD.       CAYUGA               : FIELD
 LOC.                            : LOCATION
 DATE.      24-JUN-2024          : DATE
 WELL.                           : Well Name
 LABL.      42001004370000                   : Well Label
 APIN.      42001004370000       : API Number
 UWI.       42001004370000       : Unique Well Number
 NUMB.      6-B                  : Well Number
 OPER.      YOUNG MARSHALL R DRL : Operator Name
 LEAS.      L C BILLETT          : Lease Name
~Parameter Block
#MNEM.UNIT           VALUE            Description
#---------    --------------------   ---------------------------------
~Curve Information Block
#MNEM.UNIT      API CODE      Curve Description
#---------    -------------   ---------------------------------
 DEPT.F                   00 000 00 00: Depth (MD)
 IND.OHM.M                00 001 00 00: Induction Resistivity
 SN18.OHM.M               00 002 00 00: 18-in Short Normal
 SP.MV                    00 003 00 00: Spontaneous Potential
~A        DEPT         IND        SN18          SP
# ...
      4136.492       2.319       2.348     -53.404
      4136.992       2.320       2.391     -53.402
      4137.492       2.471       2.603     -54.427
      4137.992       2.572       2.628     -55.453
      4138.492       2.697       2.731     -56.680
      4138.992       2.824       2.858     -58.018
      4139.492       2.824       2.985     -58.016
      4139.992       2.950       2.987     -58.527
      4140.492       2.950       2.941     -58.524
      4140.992       2.951       2.738     -58.007
      4141.492       2.825       2.583     -58.005
      4141.992       2.700       2.239     -57.488
      4142.492       2.575       2.100     -57.485
      4142.992       2.575       1.865     -56.968
      4143.492       2.450       1.866     -56.965
      4143.992       2.451       1.742     -56.963
      4144.492       2.451       1.618     -56.959
      4144.992       2.326       1.655     -57.985
      4145.492       2.200       1.746     -58.707
      4145.992       2.201       2.019     -59.522
      4146.492       2.201       2.252     -59.657
      4146.992       2.202       2.253     -60.031
      4147.492       2.190       2.380     -59.514
      4147.992       2.077       2.381     -58.997
      4148.492       2.077       2.383     -58.995
      4148.992       2.329       2.385     -58.264
      4149.492       2.455       2.260     -57.961
      4149.992       2.581       2.387     -58.473
      4150.492       2.707       2.398     -58.983
      4150.992       2.707       2.580     -59.700
      4151.492       2.582       2.768     -69.775
      4151.992       2.583       3.117     -71.315
      4152.492       2.583       3.776     -73.072
      4152.992       2.583       4.186     -73.880
      4153.492       2.584       4.659     -74.906
      4153.992       2.584       4.911     -72.846
      4154.492       2.459       4.913     -71.815
      4154.992       2.334       4.914     -72.326
      4155.492       2.208       4.790     -73.352
      4155.992       2.209       4.792     -73.129
      4156.492       2.083       4.793     -72.319
      4156.992       2.210       4.795     -72.316
      4157.492       2.210       4.796     -72.827
      4157.992       2.390       4.798     -73.339
      4158.492       2.588       4.799     -75.392
      4158.992       2.714       4.800     -77.450
      4159.492       2.965       4.927     -79.211
      4159.992       3.118       5.223     -78.983
      4160.492       3.217       5.558     -70.527
      4160.992       3.218       5.506     -59.954
      4161.492       3.092       4.808     -57.815
      4161.992       3.093       4.296     -56.350
      4162.492       3.093       4.057     -55.826
      4162.992       2.968       3.807     -55.317
      4163.492       2.802       3.508     -55.828
      4163.992       2.592       3.307     -57.167
      4164.492       2.566       3.276     -59.421
      4164.992       2.341       3.184     -61.896
      4165.492       2.216       3.060     -67.128
      4165.992       2.217       3.187     -69.194
      4166.492       2.217       3.440     -71.468
      4166.992       2.217       3.928     -72.775
      4167.492       2.343       4.322     -73.287
      4167.992       2.510       4.362     -73.284
      4168.492       2.847       4.451     -73.281
      4168.992       3.098       4.326     -73.278
      4169.492       3.350       4.328     -73.790
      4169.992       3.476       4.329     -74.774
      4170.492       3.602       4.391     -77.898
      4170.992       3.602       4.583     -99.747
      4171.492       3.783       4.881    -109.254
      4171.992       3.854       5.340    -114.486
      4172.492       3.980       5.621    -116.447
      4172.992       4.106       5.846    -117.473
      4173.492       4.107       6.224    -117.470
      4173.992       4.107       6.351    -115.925
      4174.492       3.982       6.352    -113.531
      4174.992       3.731       6.228    -110.264
      4175.492       3.606       5.853    -105.386
      4175.992       3.300       5.444     -96.891
      4176.492       3.104       4.851     -67.513
      4176.992       2.938       4.566     -65.279
      4177.492       2.728       4.100     -63.464
      4177.992       2.603       3.849     -62.775
      4178.492       2.478       3.670     -61.401
      4178.992       2.339       3.476     -59.659
      4179.492       2.227       3.352     -58.825
      4179.992       2.227       3.353     -58.823
      4180.492       2.102       3.229     -59.581
      4180.992       2.103       3.231     -60.874
      4181.492       2.144       3.225     -61.386
      4181.992       2.229       3.108     -60.354
      4182.492       2.383       3.109     -59.221
      4182.992       2.481       3.111     -57.778
      4183.492       2.607       2.986     -57.261
      4183.992       2.733       2.959     -58.025
      4184.492       2.859       2.864     -58.798
      4184.992       3.041       2.727     -58.795
      4185.492       3.237       2.615     -58.278
      4185.992       3.405       2.491     -58.383
      4186.492       3.615       2.795     -59.301
      4186.992       3.615       3.373     -60.841
      4187.492       3.741       3.912     -61.094
      4187.992       3.867       4.256     -62.892
      4188.492       3.993       4.401     -62.890
      4188.992       3.993       4.510     -62.373
      4189.492       3.938       4.383     -61.342
      4189.992       3.617       4.021     -60.824
      4190.492       3.199       3.509     -59.756
      4190.992       2.864       3.178     -58.245
      4191.492       2.585       2.884     -60.302
      4191.992       2.362       2.484     -62.544
      4192.492       2.237       2.259     -64.924
      4192.992       2.238       2.009     -66.978
      4193.492       2.238       1.885     -66.461
      4193.992       2.294       1.886     -64.317
      4194.492       2.364       2.185     -62.080
      4194.992       2.490       2.517     -60.797
      4195.492       2.616       2.770     -59.062
      4195.992       2.617       2.897     -56.679
      4196.492       2.743       3.024     -55.648
      4196.992       2.869       3.026     -56.673
      4197.492       2.995       2.901     -57.278
      4197.992       3.121       2.903     -59.238
      4198.492       3.303       2.904     -60.264
      4198.992       3.499       3.157     -60.776
      4199.492       3.625       3.284     -60.259
      4199.992       3.625       3.556     -59.620
      4200.492       3.751       3.915     -58.711
      4200.992       4.003       4.168     -58.144
      4201.492       4.018       4.295     -57.163
      4201.992       4.129       4.296     -56.646
      4202.492       4.255       4.130     -55.931
      4202.992       4.255       3.796     -55.098
      4203.492       4.256       3.421     -54.970
      4203.992       4.131       3.046     -54.578
      4204.492       4.005       2.796     -54.062
      4204.992       3.823       2.608     -53.030
      4205.492       3.378       2.422     -53.028
      4205.992       3.112       2.297     -52.511
      4206.492       2.625       2.048     -52.508
      4206.992       2.500       1.923     -52.506
      4207.492       2.500       1.800     -51.989
      4207.992       2.375       1.801     -51.986
      4208.492       2.250       1.802     -51.469
      4208.992       2.250       1.804     -51.981
      4209.492       2.251       1.805     -51.978
      4209.992       2.251       1.807     -52.489
      4210.492       2.251       1.808     -52.487
      4210.992       2.252       1.810     -52.484
      4211.492       2.253       1.937     -51.967
      4211.992       2.378       2.064     -51.450
      4212.492       2.504       2.321     -50.933
      4212.992       2.548       2.502     -50.417
      4213.492       2.631       2.822     -58.640
      4213.992       2.911       3.117     -61.484
      4214.492       3.260       3.453     -63.776
