~Version Information
 VERS.                 2.0: 
 WRAP.                  NO: 
 END.                PETRA:IHS Markit
~Well Information Block
#MNEM.UNIT       Data Type    Information
#---------    -------------   ---------------------------------
 STRT.F           3901.4922:
 STOP.F           7683.4846:
 STEP.F              0.5000:
 NULL.              -999.25:
 COMP.                           : COMPANY
 FLD.       CAYUGA               : FIELD
 LOC.                            : LOCATION
 DATE.      24-JUN-2024          : DATE
 WELL.                           : Well Name
 LABL.      42001004370000                   : Well Label
 APIN.      42001004370000       : API Number
 UWI.       42001004370000       : Unique Well Number
 NUMB.      6-B                  : Well Number
 OPER.      YOUNG MARSHALL R DRL : Operator Name
 LEAS.      L C BILLETT          : Lease Name
~Parameter Block
#MNEM.UNIT           VALUE            Description
#---------    --------------------   ---------------------------------
~Curve Information Block
#MNEM.UNIT      API CODE      Curve Description
#---------    -------------   ---------------------------------
 DEPT.F                   00 000 00 00: Depth (MD)
 IND.OHM.M                00 001 00 00: Induction Resistivity
 SN18.OHM.M               00 002 00 00: 18-in Short Normal
 SP.MV                    00 003 00 00: Spontaneous Potential
~A        DEPT         IND        SN18          SP
# ...
      5392.492     -999.25      18.350     -64.814
      5392.992     -999.25      18.354     -64.293
      5393.492     -999.25      18.197     -63.770
      5393.992     -999.25      17.859     -63.761
      5394.492     -999.25      17.571     -63.754
      5394.992     -999.25      16.987     -64.259
      5395.492     -999.25      16.352     -64.251
      5395.992     -999.25      15.678     -64.756
      5396.492     -999.25      15.490     -65.263
      5396.992     -999.25      15.368     -65.770
      5397.492     -999.25      15.372     -66.274
      5397.992     -999.25      15.501     -66.424
      5398.492     -999.25      15.631     -66.772
      5398.992     -999.25      15.649     -67.278
      5399.492     -999.25      16.016     -67.784
      5399.992     -999.25      16.270     -67.775
      5400.492     -999.25      16.706     -68.283
      5400.992     -999.25      17.031     -68.787
      5401.492     -999.25      17.286     -69.294
      5401.992     -999.25      17.667     -69.798
      5402.492     -999.25      17.796     -69.162
      5402.992     -999.25      18.052     -68.239
      5403.492     -999.25      18.044     -67.717
      5403.992     -999.25      17.557     -67.193
      5404.492     -999.25      16.931     -66.672
      5404.992     -999.25      16.156     -65.945
      5405.492     -999.25      15.306     -65.113
      5405.992     -999.25      14.359     -63.939
      5406.492     -999.25      13.806     -62.011
      5406.992     -999.25      13.287     -62.004
      5407.492     -999.25      12.809     -61.480
      5407.992     -999.25      12.304     -60.955
      5408.492     -999.25      11.876     -60.436
      5408.992     -999.25      11.688     -60.941
      5409.492     -999.25      11.863     -61.449
      5409.992     -999.25      12.199     -61.954
      5410.492     -999.25      12.639     -63.069
      5410.992     -999.25      13.086     -62.450
      5411.492     -999.25      13.214     -60.844
      5411.992     -999.25      12.591     -59.613
      5412.492     -999.25      11.840     -58.827
      5412.992     -999.25      11.050     -57.606
      5413.492     -999.25      10.340     -57.267
      5413.992     -999.25      10.052     -56.746
      5414.492     -999.25       9.970     -56.222
      5414.992     -999.25       9.848     -55.701
      5415.492     -999.25       9.853     -55.177
      5415.992     -999.25       9.856     -55.170
      5416.492     -999.25       9.860     -54.648
      5416.992     -999.25       9.612     -54.125
      5417.492     -999.25       9.189     -53.603
      5417.992     -999.25       8.740     -53.079
      5418.492     -999.25       8.171     -53.072
      5418.992     -999.25       7.492     -52.548
      5419.492     -999.25       7.204     -52.534
      5419.992     -999.25       6.870     -52.019
      5420.492     -999.25       6.743     -51.496
      5420.992     -999.25       6.566     -51.652
      5421.492     -999.25       6.505     -51.994
      5421.992     -999.25       6.553     -51.471
      5422.492     -999.25       6.889     -51.976
      5422.992     -999.25       7.174     -51.969
      5423.492     -999.25       7.399     -51.961
      5423.992     -999.25       7.779     -52.466
      5424.492     -999.25       7.910     -52.646
      5424.992     -999.25       8.164     -52.964
      5425.492     -999.25       8.293     -52.712
      5425.992     -999.25       8.297     -51.918
      5426.492     -999.25       8.049     -51.398
      5426.992     -999.25       7.802     -50.874
      5427.492     -999.25       7.529     -50.353
      5427.992     -999.25       7.056     -50.346
      5428.492     -999.25       6.787     -50.338
      5428.992     -999.25       6.435     -50.330
      5429.492     -999.25       6.438     -50.322
      5429.992     -999.25       6.316     -50.314
      5430.492     -999.25       6.195     -50.306
      5430.992     -999.25       6.198     -50.299
      5431.492     -999.25       6.202     -50.289
      5431.992     -999.25       6.206     -50.271
      5432.492     -999.25       6.210     -49.761
      5432.992     -999.25       6.213     -49.239
      5433.492     -999.25       5.965     -49.047
      5433.992     -999.25       5.844     -48.709
      5434.492     -999.25       5.380     -48.701
      5434.992     -999.25       4.846     -48.693
      5435.492     -999.25       5.005     -49.200
      5435.992     -999.25       5.231     -49.191
      5436.492     -999.25       5.375     -49.714
      5436.992     -999.25       5.615     -50.450
      5437.492     -999.25       5.870     -50.711
      5437.992     -999.25       6.235     -50.703
      5438.492     -999.25       6.505     -50.695
      5438.992     -999.25       6.926     -50.688
      5439.492     -999.25       7.141     -50.679
      5439.992     -999.25       7.396     -50.672
      5440.492     -999.25       7.525     -50.663
      5440.992     -999.25       7.529     -50.142
      5441.492     -999.25       7.533     -50.134
      5441.992     -999.25       7.536     -50.126
      5442.492     -999.25       7.413     -49.928
      5442.992     -999.25       7.292     -49.596
      5443.492     -999.25       7.135     -50.104
      5443.992     -999.25       6.923     -50.094
      5444.492     -999.25       6.655     -50.166
      5444.992     -999.25       6.553     -50.593
      5445.492     -999.25       6.431     -50.586
      5445.992     -999.25       6.435     -51.093
      5446.492     -999.25       6.439     -51.084
      5446.992     -999.25       6.784     -51.592
      5447.492     -999.25       7.200     -52.097
      5447.992     -999.25       7.580     -52.089
      5448.492     -999.25       7.962     -52.080
      5448.992     -999.25       8.231     -52.073
      5449.492     -999.25       8.597     -52.064
      5449.992     -999.25       8.851     -52.058
      5450.492     -999.25       9.036     -52.050
      5450.992     -999.25       8.985     -51.528
      5451.492     -999.25       8.822     -51.520
      5451.992     -999.25       8.490     -51.512
      5452.492     -999.25       8.342     -50.990
      5452.992     -999.25       8.120     -50.981
      5453.492     -999.25       7.998     -50.974
      5453.992     -999.25       7.876     -50.965
      5454.492     -999.25       7.754     -50.959
      5454.992     -999.25       7.632     -50.951
      5455.492     -999.25       7.636     -50.943
      5455.992     -999.25       7.675     -50.935
      5456.492     -999.25       7.769     -50.927
      5456.992     -999.25       7.918     -50.920
      5457.492     -999.25       8.028     -50.911
      5457.992     -999.25       8.157     -50.904
      5458.492     -999.25       8.161     -50.895
      5458.992     -999.25       8.165     -50.888
      5459.492     -999.25       8.168     -50.366
      5459.992     -999.25       8.298     -50.358
      5460.492     -999.25       8.301     -50.351
      5460.992     -999.25       8.431     -50.342
      5461.492     -999.25       8.434     -50.335
      5461.992     -999.25       8.439     -50.326
      5462.492     -999.25       8.442     -50.319
      5462.992     -999.25       8.501     -50.310
      5463.492     -999.25       8.575     -50.338
      5463.992     -999.25       8.704     -50.810
      5464.492     -999.25       9.085     -51.830
      5464.992     -999.25       9.767     -52.338
      5465.492     -999.25      10.726     -52.328
      5465.992     -999.25      11.629     -52.321
      5466.492     -999.25      12.492     -51.798
      5466.992     -999.25      12.746     -51.791
      5467.492     -999.25      12.876     -51.268
      5467.992     -999.25      12.754     -51.261
      5468.492     -999.25      12.758     -51.252
      5468.992     -999.25      12.636     -51.246
      5469.492     -999.25      12.513     -51.753
      5469.992     -999.25      12.267     -51.744
      5470.492     -999.25      12.270     -51.736
