~Version Information
 VERS.                 2.0: 
 WRAP.                  NO: 
 END.                PETRA:IHS Markit
~Well Information Block
#MNEM.UNIT       Data Type    Information
#---------    -------------   ---------------------------------
 STRT.F           3901.4922:
 STOP.F           7683.4846:
 STEP.F              0.5000:
 NULL.              -999.25:
 COMP.                           : COMPANY
 FLD.       CAYUGA               : FIELD
 LOC.                            : LOCATION
 DATE.      24-JUN-2024          : DATE
 WELL.                           : Well Name
 LABL.      42001004370000                   : Well Label
 APIN.      42001004370000       : API Number
 UWI.       42001004370000       : Unique Well Number
 NUMB.      6-B                  : Well Number
 OPER.      YOUNG MARSHALL R DRL : Operator Name
 LEAS.      L C BILLETT          : Lease Name
~Parameter Block
#MNEM.UNIT           VALUE            Description
#---------    --------------------   ---------------------------------
~Curve Information Block
#MNEM.UNIT      API CODE      Curve Description
#---------    -------------   ---------------------------------
 DEPT.F                   00 000 00 00: Depth (MD)
 IND.OHM.M                00 001 00 00: Induction Resistivity
 SN18.OHM.M               00 002 00 00: 18-in Short Normal
 SP.MV                    00 003 00 00: Spontaneous Potential
~A        DEPT         IND        SN18          SP
# ...
      5627.992     -999.25       1.146     -46.729
      5628.492     -999.25       1.147     -46.724
      5628.992     -999.25       1.148     -46.719
      5629.492     -999.25       1.149     -46.713
      5629.992     -999.25       1.150     -46.709
      5630.492     -999.25       1.215     -46.704
      5630.992     -999.25       1.278     -46.698
      5631.492     -999.25       1.279     -46.694
      5631.992     -999.25       1.280     -46.174
      5632.492     -999.25       1.282     -46.169
      5632.992     -999.25       1.283     -46.163
      5633.492     -999.25       1.158     -46.159
      5633.992     -999.25       1.159     -46.154
      5634.492     -999.25       1.161     -46.149
      5634.992     -999.25       1.162     -46.144
      5635.492     -999.25       1.163     -46.652
      5635.992     -999.25       1.289     -46.648
      5636.492     -999.25       1.291     -46.642
      5636.992     -999.25       1.417     -46.638
      5637.492     -999.25       1.544     -46.633
      5637.992     -999.25       1.545     -46.627
      5638.492     -999.25       1.672     -46.622
      5638.992     -999.25       1.799     -46.617
      5639.492     -999.25       1.939     -46.612
      5639.992     -999.25       2.053     -46.607
      5640.492     -999.25       2.053     -46.602
      5640.992     -999.25       2.008     -46.597
      5641.492     -999.25       1.804     -46.591
      5641.992     -999.25       1.680     -47.101
      5642.492     -999.25       1.555     -47.095
      5642.992     -999.25       1.431     -47.091
      5643.492     -999.25       1.371     -47.086
      5643.992     -999.25       1.308     -47.080
      5644.492     -999.25       1.183     -47.075
      5644.992     -999.25       1.184     -47.070
      5645.492     -999.25       1.185     -47.065
      5645.992     -999.25       1.187     -47.059
      5646.492     -999.25       1.188     -47.055
      5646.992     -999.25       1.189     -47.050
      5647.492     -999.25       1.190     -47.045
      5647.992     -999.25       1.317     -47.040
      5648.492     -999.25       1.318     -47.034
      5648.992     -999.25       1.335     -47.030
      5649.492     -999.25       1.446     -47.024
      5649.992     -999.25       1.447     -47.019
      5650.492     -999.25       1.573     -47.014
      5650.992     -999.25       1.700     -47.009
      5651.492     -999.25       1.701     -47.004
      5651.992     -999.25       1.828     -46.998
      5652.492     -999.25       1.965     -46.994
      5652.992     -999.25       2.082     -46.474
      5653.492     -999.25       2.208     -46.469
      5653.992     -999.25       2.378     -46.465
      5654.492     -999.25       2.588     -46.459
      5654.992     -999.25       2.714     -46.454
      5655.492     -999.25       2.716     -46.449
      5655.992     -999.25       2.712     -46.444
      5656.492     -999.25       2.592     -46.438
      5656.992     -999.25       2.342     -46.434
      5657.492     -999.25       2.217     -46.429
      5657.992     -999.25       2.093     -46.423
      5658.492     -999.25       2.094     -46.419
      5658.992     -999.25       2.095     -46.413
      5659.492     -999.25       2.096     -46.408
      5659.992     -999.25       2.097     -46.146
      5660.492     -999.25       2.099     -45.884
      5660.992     -999.25       2.100     -45.699
      5661.492     -999.25       2.101     -45.359
      5661.992     -999.25       2.102     -45.355
      5662.492     -999.25       2.103     -44.835
      5662.992     -999.25       2.104     -44.830
      5663.492     -999.25       2.105     -44.825
      5663.992     -999.25       2.107     -44.820
      5664.492     -999.25       2.108     -44.815
      5664.992     -999.25       1.983     -44.809
      5665.492     -999.25       1.984     -44.291
      5665.992     -999.25       1.985     -44.285
      5666.492     -999.25       1.986     -44.281
      5666.992     -999.25       1.862     -44.276
      5667.492     -999.25       1.863     -44.270
      5667.992     -999.25       1.864     -44.265
      5668.492     -999.25       1.740     -44.260
      5668.992     -999.25       1.741     -44.255
      5669.492     -999.25       1.742     -44.249
      5669.992     -999.25       1.743     -44.245
      5670.492     -999.25       1.619     -44.240
      5670.992     -999.25       1.620     -44.234
      5671.492     -999.25       1.607     -44.230
      5671.992     -999.25       1.496     -44.224
      5672.492     -999.25       1.372     -44.219
      5672.992     -999.25       1.373     -44.214
      5673.492     -999.25       1.374     -44.209
      5673.992     -999.25       1.375     -44.204
      5674.492     -999.25       1.377     -44.199
      5674.992     -999.25       1.503     -44.194
      5675.492     -999.25       1.504     -44.188
      5675.992     -999.25       1.631     -44.184
      5676.492     -999.25       1.632     -44.178
      5676.992     -999.25       1.633     -44.174
      5677.492     -999.25       1.634     -44.169
      5677.992     -999.25       1.636     -44.163
      5678.492     -999.25       1.762     -44.158
      5678.992     -999.25       1.763     -44.153
      5679.492     -999.25       1.765     -44.663
      5679.992     -999.25       1.766     -44.657
      5680.492     -999.25       1.767     -45.166
      5680.992     -999.25       1.768     -45.676
      5681.492     -999.25       1.643     -45.670
      5681.992     -999.25       1.519     -46.180
      5682.492     -999.25       1.394     -46.173
      5682.992     -999.25       1.647     -46.169
      5683.492     -999.25       1.648     -46.411
      5683.992     -999.25       1.649     -46.673
      5684.492     -999.25       1.650     -46.668
      5684.992     -999.25       1.651     -46.662
      5685.492     -999.25       1.401     -46.658
      5685.992     -999.25       1.277     -46.652
      5686.492     -999.25       1.278     -46.648
      5686.992     -999.25       1.279     -46.642
      5687.492     -999.25       1.280     -46.637
      5687.992     -999.25       1.418     -47.818
      5688.492     -999.25       2.269     -49.197
      5688.992     -999.25       4.173     -51.410
      5689.492     -999.25       6.031     -56.385
      5689.992     -999.25       8.195     -59.991
      5690.492     -999.25       9.675     -64.017
      5690.992     -999.25      10.962     -67.167
      5691.492     -999.25      11.842     -70.022
      5691.992     -999.25      12.933     -72.812
      5692.492     -999.25      14.357     -75.000
      5692.992     -999.25      15.178     -77.429
      5693.492     -999.25      16.118     -78.453
      5693.992     -999.25      16.760     -78.963
      5694.492     -999.25      17.377     -79.471
      5694.992     -999.25      17.754     -80.626
      5695.492     -999.25      18.226     -81.003
      5695.992     -999.25      18.511     -81.513
      5696.492     -999.25      18.484     -80.992
      5696.992     -999.25      18.136     -79.445
      5697.492     -999.25      17.744     -78.017
      5697.992     -999.25      17.263     -76.864
      5698.492     -999.25      16.506     -76.346
      5698.992     -999.25      15.338     -76.340
      5699.492     -999.25      14.373     -75.777
      5699.992     -999.25      13.096     -75.302
      5700.492     -999.25      12.867     -74.782
      5700.992     -999.25      12.998     -74.778
      5701.492     -999.25      13.246     -74.772
      5701.992     -999.25      13.373     -74.660
      5702.492     -999.25      13.751     -72.705
      5702.992     -999.25      14.004     -70.553
      5703.492     -999.25      14.272     -66.293
      5703.992     -999.25      14.508     -62.407
      5704.492     -999.25      13.002     -57.775
      5704.992     -999.25      10.720     -54.171
      5705.492     -999.25       9.612     -52.015
      5705.992     -999.25       9.022     -50.561
