~Version Information
 VERS.                 2.0: 
 WRAP.                  NO: 
 END.                PETRA:IHS Markit
~Well Information Block
#MNEM.UNIT       Data Type    Information
#---------    -------------   ---------------------------------
 STRT.F           3901.4922:
 STOP.F           7683.4846:
 STEP.F              0.5000:
 NULL.              -999.25:
 COMP.                           : COMPANY
 FLD.       CAYUGA               : FIELD
 LOC.                            : LOCATION
 DATE.      24-JUN-2024          : DATE
 WELL.                           : Well Name
 LABL.      42001004370000                   : Well Label
 APIN.      42001004370000       : API Number
 UWI.       42001004370000       : Unique Well Number
 NUMB.      6-B                  : Well Number
 OPER.      YOUNG MARSHALL R DRL : Operator Name
 LEAS.      L C BILLETT          : Lease Name
~Parameter Block
#MNEM.UNIT           VALUE            Description
#---------    --------------------   ---------------------------------
~Curve Information Block
#MNEM.UNIT      API CODE      Curve Description
#---------    -------------   ---------------------------------
 DEPT.F                   00 000 00 00: Depth (MD)
 IND.OHM.M                00 001 00 00: Induction Resistivity
 SN18.OHM.M               00 002 00 00: 18-in Short Normal
 SP.MV                    00 003 00 00: Spontaneous Potential
~A        DEPT         IND        SN18          SP
# ...
      4371.992       1.989       3.404    -142.593
      4372.492       1.864       3.280    -139.599
      4372.992       1.739       3.407    -134.377
      4373.492       1.739       3.805    -131.474
      4373.992       1.614       4.038    -132.314
      4374.492       1.596       4.040    -134.554
      4374.992       1.489       4.041    -136.936
      4375.492       1.364       3.917    -137.982
      4375.992       1.307       3.751    -138.474
      4376.492       1.239       3.417    -138.471
      4376.992       1.239       3.293    -137.954
      4377.492       1.240       3.169    -135.894
      4377.992       1.114       3.045    -133.449
      4378.492       1.115       3.236    -123.035
      4378.992       1.115       3.550    -118.822
      4379.492       1.115       3.850    -115.832
      4379.992       1.116       4.307    -115.829
      4380.492       1.162       4.497    -116.514
      4380.992       1.242       4.812    -117.880
      4381.492       1.368       4.954    -119.720
      4381.992       1.494       5.192    -122.502
      4382.492       1.494       5.319    -124.126
      4382.992       1.495       5.446    -126.594
      4383.492       1.495       5.322    -129.178
      4383.992       1.495       5.035    -130.379
      4384.492       1.496       4.822    -131.743
      4384.992       1.370       4.552    -132.874
      4385.492       1.371       4.323    -133.794
      4385.992       1.245       3.947    -134.306
      4386.492       1.246       3.764    -134.303
      4386.992       1.121       3.448    -134.300
      4387.492       1.121       3.280    -134.118
      4387.992       0.996       2.948    -133.780
      4388.492       0.996       2.824    -133.155
      4388.992       0.871       2.700    -132.232
      4389.492       0.871       2.575    -131.131
      4389.992       0.871       2.577    -128.115
      4390.492       0.872       2.704    -123.998
      4390.992       0.747       2.754    -118.447
      4391.492       0.747       2.958    -109.083
      4391.992       0.747       3.150     -95.449
      4392.492       0.873       3.464     -76.686
      4392.992       1.031       3.733     -70.354
      4393.492       1.251       3.969     -67.167
      4393.992       1.267       4.096     -66.396
      4394.492       1.503       3.971     -65.879
      4394.992       1.629       3.848     -64.334
      4395.492       1.808       3.685     -63.473
      4395.992       1.881       3.348     -59.187
      4396.492       1.881       3.076     -55.886
      4396.992       1.881       2.849     -52.248
      4397.492       2.007       2.719     -53.523
      4397.992       1.882       2.474     -56.475
      4398.492       1.877       2.350     -59.173
      4398.992       1.757       2.307     -59.685
      4399.492       1.632       2.227     -59.682
      4399.992       1.381       2.103     -59.679
      4400.492       1.256       2.105     -59.676
      4400.992       1.130       2.095     -59.674
      4401.492       1.131       1.982     -59.867
      4401.992       1.131       2.109     -60.696
      4402.492       1.131       2.110     -61.331
      4402.992       1.132       2.112     -62.233
      4403.492       1.132       2.239     -63.310
      4403.992       1.133       2.366     -65.313
      4404.492       1.133       2.493     -66.338
      4404.992       1.259       2.620     -68.592
      4405.492       1.259       2.873     -69.932
      4405.992       1.260       3.000     -71.084
      4406.492       1.385       3.253     -72.497
      4406.992       1.512       3.545     -74.037
      4407.492       1.637       3.884     -82.255
      4407.992       1.764       4.159     -99.214
      4408.492       1.889       4.641    -108.894
      4408.992       2.038       5.026    -119.248
      4409.492       2.267       5.458    -123.671
      4409.992       2.267       5.775    -125.913
      4410.492       2.393       6.073    -127.547
      4410.992       2.519       6.406    -129.494
      4411.492       2.645       6.408    -130.593
      4411.992       2.771       6.535    -133.589
      4412.492       2.772       6.536    -134.610
      4412.992       2.772       6.537    -136.350
      4413.492       2.772       6.538    -137.677
      4413.992       2.773       6.539    -139.212
      4414.492       2.773       6.415    -140.229
      4414.992       2.648       6.132    -140.822
      4415.492       2.648       5.915    -141.755
      4415.992       2.523       5.774    -141.746
      4416.492       2.398       5.541    -141.737
      4416.992       2.272       5.542    -141.214
      4417.492       2.273       5.543    -140.177
      4417.992       2.147       5.544    -139.653
      4418.492       2.022       5.545    -138.484
      4418.992       1.897       5.547    -137.579
      4419.492       1.897       5.548    -137.571
      4419.992       1.772       5.549    -137.046
      4420.492       1.772       5.425    -137.039
      4420.992       1.773       5.426    -137.030
      4421.492       1.781       5.302    -137.021
      4421.992       1.899       5.261    -137.012
      4422.492       1.899       5.053    -137.518
      4422.992       1.900       4.928    -137.509
      4423.492       1.900       4.553    -137.499
      4423.992       1.900       4.411    -137.491
      4424.492       1.775       3.990    -137.481
      4424.992       1.776       3.803    -137.473
      4425.492       1.650       3.506    -137.464
      4425.992       1.651       3.177    -136.941
      4426.492       1.473       2.927    -136.766
      4426.992       1.400       2.677    -136.409
      4427.492       1.275       2.553    -135.887
      4427.992       1.275       2.428    -135.362
      4428.492       1.255       2.304    -135.355
      4428.992       1.150       2.305    -134.830
      4429.492       1.151       2.306    -134.309
      4429.992       1.151       2.308    -133.786
      4430.492       1.151       2.309    -133.776
      4430.992       1.152       2.327    -133.254
      4431.492       1.152       2.437    -133.244
      4431.992       1.152       2.439    -133.236
      4432.492       1.153       2.565    -132.198
      4432.992       1.153       2.817    -131.059
      4433.492       1.153       2.983    -126.507
      4433.992       1.028       3.323    -112.635
      4434.492       1.028       3.471    -100.401
      4434.992       1.029       3.702     -96.164
      4435.492       1.029       3.834     -93.163
      4435.992       1.030       4.081     -89.462
      4436.492       1.030       4.082     -87.751
      4436.992       1.156       4.209     -85.331
      4437.492       1.156       4.336     -82.197
      4437.992       1.157       4.086     -78.402
      4438.492       1.157       3.836     -75.537
      4438.992       1.283       3.702     -72.910
      4439.492       1.283       3.334     -69.863
      4439.992       1.284       2.960     -64.337
      4440.492       1.410       2.663     -57.506
      4440.992       1.410       2.460     -56.403
      4441.492       1.410       2.431     -54.917
      4441.992       1.411       2.337     -53.874
      4442.492       1.411       2.213     -52.610
      4442.992       1.286       2.214     -52.321
      4443.492       1.286       2.215     -53.515
      4443.992       1.286       2.342     -56.416
      4444.492       1.161       2.343     -58.580
      4444.992       1.161       2.470     -61.025
      4445.492       1.162       2.471     -63.236
      4445.992       1.162       2.598     -66.148
      4446.492       1.163       2.725     -67.683
      4446.992       1.163       2.853     -68.924
      4447.492       1.163       2.979     -70.236
      4447.992       1.164       3.106     -73.602
      4448.492       1.164       3.272     -85.642
      4448.992       1.290       3.611     -96.831
      4449.492       1.290       3.886    -108.246
      4449.992       1.416       4.242    -116.756
