~Version Information
 VERS.                 2.0: 
 WRAP.                  NO: 
 END.                PETRA:IHS Markit
~Well Information Block
#MNEM.UNIT       Data Type    Information
#---------    -------------   ---------------------------------
 STRT.F           3901.4922:
 STOP.F           7683.4846:
 STEP.F              0.5000:
 NULL.              -999.25:
 COMP.                           : COMPANY
 FLD.       CAYUGA               : FIELD
 LOC.                            : LOCATION
 DATE.      24-JUN-2024          : DATE
 WELL.                           : Well Name
 LABL.      42001004370000                   : Well Label
 APIN.      42001004370000       : API Number
 UWI.       42001004370000       : Unique Well Number
 NUMB.      6-B                  : Well Number
 OPER.      YOUNG MARSHALL R DRL : Operator Name
 LEAS.      L C BILLETT          : Lease Name
~Parameter Block
#MNEM.UNIT           VALUE            Description
#---------    --------------------   ---------------------------------
~Curve Information Block
#MNEM.UNIT      API CODE      Curve Description
#---------    -------------   ---------------------------------
 DEPT.F                   00 000 00 00: Depth (MD)
 IND.OHM.M                00 001 00 00: Induction Resistivity
 SN18.OHM.M               00 002 00 00: 18-in Short Normal
 SP.MV                    00 003 00 00: Spontaneous Potential
~A        DEPT         IND        SN18          SP
      3900.992     -999.25     -999.25     -999.25
      3901.492     -999.25       1.508     -46.777
      3901.992       0.377       1.510     -46.770
      3902.492       0.503       1.511     -46.764
      3902.992       0.504       1.512     -46.755
      3903.492       0.504       1.513     -46.750
      3903.992       0.630       1.515     -46.743
      3904.492       0.630       1.516     -46.736
      3904.992       0.756       1.517     -46.729
      3905.492       0.757       1.518     -46.722
      3905.992       0.797       1.519     -46.715
      3906.492       0.883       1.521     -46.193
      3906.992       0.884       1.522     -46.187
      3907.492       0.884       1.523     -46.179
      3907.992       0.884       1.524     -46.173
      3908.492       0.759       1.526     -46.167
      3908.992       0.759       1.527     -46.159
      3909.492       0.760       1.528     -46.153
      3909.992       0.760       1.529     -46.145
      3910.492       0.761       1.656     -46.139
      3910.992       0.761       1.657     -46.131
      3911.492       0.761       1.658     -46.125
      3911.992       0.762       1.660     -46.631
      3912.492       0.762       1.661     -46.626
      3912.992       0.763       1.662     -46.619
      3913.492       0.763       1.663     -46.611
      3913.992       0.763       1.665     -46.605
      3914.492       0.764       1.666     -46.597
      3914.992       0.764       1.667     -46.077
      3915.492       0.765       1.668     -46.069
      3915.992       0.765       1.669     -46.063
      3916.492       0.765       1.545     -45.799
      3916.992       0.766       1.546     -45.535
      3917.492       0.766       1.548     -45.528
      3917.992       0.766       1.549     -46.035
      3918.492       0.767       1.550     -46.161
      3918.992       0.767       1.551     -46.536
      3919.492       0.768       1.552     -46.529
      3919.992       0.768       1.554     -46.521
      3920.492       0.768       1.555     -46.515
      3920.992       0.769       1.556     -46.508
      3921.492       0.769       1.557     -46.501
      3921.992       0.770       1.684     -46.494
      3922.492       0.770       1.685     -46.487
      3922.992       0.770       1.687     -46.370
      3923.492       0.771       1.688     -45.959
      3923.992       0.771       1.689     -45.953
      3924.492       0.772       1.690     -45.944
      3924.992       0.772       1.691     -45.425
      3925.492       0.772       1.693     -45.933
      3925.992       0.773       1.819     -45.925
      3926.492       0.773       1.821     -45.918
      3926.992       0.774       1.948     -45.911
      3927.492       0.774       1.949     -45.904
      3927.992       0.774       1.950     -45.896
      3928.492       0.775       1.905     -45.865
      3928.992       0.775       1.827     -45.370
      3929.492       0.775       1.702     -45.362
      3929.992       0.776       1.704     -45.356
      3930.492       0.776       1.687     -45.348
      3930.992       0.777       1.581     -45.469
      3931.492       0.777       1.582     -45.849
      3931.992       0.777       1.523     -45.842
      3932.492       0.778       1.458     -45.834
      3932.992       0.736       1.413     -46.343
      3933.492       0.653       1.461     -46.565
      3933.992       0.528       1.462     -46.843
      3934.492       0.528       1.589     -47.351
      3934.992       0.403       1.609     -47.858
      3935.492       0.403       1.717     -47.851
      3935.992       0.404       1.724     -48.358
      3936.492       0.404       1.845     -48.351
      3936.992       0.530       1.972     -48.343
      3937.492       0.573       2.020     -48.337
      3937.992       0.657       2.100     -48.846
      3938.492       0.657       2.101     -49.351
      3938.992       0.657       2.103     -49.345
      3939.492       0.658       2.104     -48.823
      3939.992       0.784       2.105     -48.735
      3940.492       0.784       2.106     -48.295
      3940.992       0.659       2.107     -48.289
      3941.492       0.659       2.109     -48.282
      3941.992       0.660       2.110     -48.789
      3942.492       0.534       2.111     -49.297
      3942.992       0.535       2.112     -49.289
      3943.492       0.535       2.114     -49.797
      3943.992       0.536       2.115     -49.789
      3944.492       0.536       2.116     -49.843
      3944.992       0.662       2.117     -50.290
      3945.492       0.662       2.119     -50.283
      3945.992       0.663       2.120     -50.276
      3946.492       0.789       2.121     -50.269
      3946.992       0.789       2.122     -50.263
      3947.492       0.790       2.123     -50.255
      3947.992       0.790       2.125     -50.349
      3948.492       0.790       2.126     -50.756
      3948.992       0.791       2.127     -50.749
      3949.492       0.792       2.254     -50.742
      3949.992       0.917       2.255     -51.249
      3950.492       0.918       2.256     -51.958
      3950.992       0.918       2.258     -52.264
      3951.492       0.918       2.259     -53.425
      3951.992       1.044       2.260     -54.306
      3952.492       1.045       2.261     -54.223
      3952.992       1.045       2.263     -53.264
      3953.492       1.171       2.264     -52.729
      3953.992       1.171       2.391     -51.982
      3954.492       1.229       2.392     -51.701
      3954.992       1.298       2.393     -51.695
      3955.492       1.298       2.394     -52.202
      3955.992       1.299       2.396     -52.710
      3956.492       1.425       2.397     -53.215
      3956.992       1.425       2.398     -53.724
      3957.492       1.551       2.399     -54.231
      3957.992       1.677       2.401     -54.224
      3958.492       1.678       2.402     -54.733
      3958.992       1.678       2.403     -54.724
      3959.492       1.804       2.404     -55.233
      3959.992       1.804       2.531     -54.710
      3960.492       1.805       2.532     -54.190
      3960.992       1.805       2.533     -54.182
      3961.492       1.806       2.535     -54.176
      3961.992       1.806       2.536     -54.169
      3962.492       1.806       2.537     -54.162
      3962.992       1.807       2.413     -54.155
      3963.492       1.807       2.414     -54.148
      3963.992       1.808       2.415     -54.141
      3964.492       1.808       2.416     -54.648
      3964.992       1.808       2.543     -55.156
      3965.492       1.809       2.544     -55.663
      3965.992       1.809       2.546     -56.170
      3966.492       1.809       2.672     -56.399
      3966.992       1.810       2.674     -58.213
      3967.492       1.936       2.675     -63.868
      3967.992       1.994       2.676     -67.453
      3968.492       2.188       2.803     -70.754
      3968.992       2.904       2.981     -73.094
      3969.492       3.445       3.308     -75.806
      3969.992       3.852       4.050     -80.278
      3970.492       4.074       5.195     -81.301
      3970.992       4.341       5.872     -81.081
      3971.492       4.577       6.328     -80.258
      3971.992       5.086       6.329     -79.587
      3972.492       5.699       6.331     -79.216
      3972.992       5.846       6.206     -78.696
      3973.492       4.818       5.778     -78.174
      3973.992       2.820       5.329     -77.654
      3974.492       1.911       4.915     -77.647
      3974.992       1.439       4.452     -77.126
      3975.492       1.046       4.202     -77.119
      3975.992       0.812       4.204     -77.111
      3976.492       0.812       4.079     -76.591
      3976.992       0.813       4.080     -76.583
      3977.492       0.813       4.081     -76.577
      3977.992       0.813       4.208     -76.055
      3978.492       0.940       4.461     -76.049
      3978.992       0.940       5.081     -76.558
