~Version Information
 VERS.                 2.0: 
 WRAP.                  NO: 
 END.                PETRA:IHS Markit
~Well Information Block
#MNEM.UNIT       Data Type    Information
#---------    -------------   ---------------------------------
 STRT.F           3901.4922:
 STOP.F           7683.4846:
 STEP.F              0.5000:
 NULL.              -999.25:
 COMP.                           : COMPANY
 FLD.       CAYUGA               : FIELD
 LOC.                            : LOCATION
 DATE.      24-JUN-2024          : DATE
 WELL.                           : Well Name
 LABL.      42001004370000                   : Well Label
 APIN.      42001004370000       : API Number
 UWI.       42001004370000       : Unique Well Number
 NUMB.      6-B                  : Well Number
 OPER.      YOUNG MARSHALL R DRL : Operator Name
 LEAS.      L C BILLETT          : Lease Name
~Parameter Block
#MNEM.UNIT           VALUE            Description
#---------    --------------------   ---------------------------------
~Curve Information Block
#MNEM.UNIT      API CODE      Curve Description
#---------    -------------   ---------------------------------
 DEPT.F                   00 000 00 00: Depth (MD)
 IND.OHM.M                00 001 00 00: Induction Resistivity
 SN18.OHM.M               00 002 00 00: 18-in Short Normal
 SP.MV                    00 003 00 00: Spontaneous Potential
~A        DEPT         IND        SN18          SP
# ...
      7354.992     -999.25      48.096     -57.424
      7355.492     -999.25      42.815     -57.193
      7355.992     -999.25      38.028     -56.663
      7356.492     -999.25      32.208     -56.654
      7356.992     -999.25      25.670     -56.644
      7357.492     -999.25      21.762     -56.635
      7357.992     -999.25      19.937     -56.105
      7358.492     -999.25      18.896     -55.053
      7358.992     -999.25      17.986     -54.523
      7359.492     -999.25      17.336     -53.472
      7359.992     -999.25      16.426     -52.942
      7360.492     -999.25      15.776     -52.412
      7360.992     -999.25      15.256     -51.843
      7361.492     -999.25      14.607     -50.830
      7361.992     -999.25      14.217     -50.820
      7362.492     -999.25      13.828     -50.811
      7362.992     -999.25      13.699     -51.051
      7363.492     -999.25      13.706     -52.876
      7363.992     -999.25      13.983     -53.554
      7364.492     -999.25      14.677     -54.420
      7364.992     -999.25      15.845     -54.409
      7365.492     -999.25      18.392     -53.645
      7365.992     -999.25      19.883     -52.827
      7366.492     -999.25      20.680     -52.818
      7366.992     -999.25      20.911     -52.287
      7367.492     -999.25      21.224     -51.755
      7367.992     -999.25      21.964     -52.266
      7368.492     -999.25      25.308     -52.779
      7368.992     -999.25      31.675     -54.331
      7369.492     -999.25      37.131     -55.884
      7369.992     -999.25      41.955     -56.917
      7370.492     -999.25      44.446     -57.428
      7370.992     -999.25      46.400     -58.460
      7371.492     -999.25      47.182     -58.971
      7371.992     -999.25      47.704     -58.962
      7372.492     -999.25      46.534     -59.488
      7372.992     -999.25      43.800     -60.541
      7373.492     -999.25      40.416     -61.538
      7373.992     -999.25      35.600     -62.127
      7374.492     -999.25      31.280     -63.282
      7374.992     -999.25      27.399     -64.755
      7375.492     -999.25      23.624     -65.809
      7375.992     -999.25      17.245     -66.179
      7376.492     -999.25      15.293     -66.168
      7376.992     -999.25      14.383     -65.429
      7377.492      23.708      14.205     -64.356
      7377.992      17.482      14.776     -62.513
      7378.492      16.195      15.168     -59.581
      7378.992      14.565      15.299     -57.718
      7379.492      12.394      15.300     -56.212
      7379.992      11.920      15.304     -56.726
      7380.492      11.873      15.849     -57.235
      7380.992      13.086      17.197     -57.748
      7381.492      15.288      19.117     -57.737
      7381.992      17.360      22.664     -57.207
      7382.492      18.456      23.250     -56.677
      7382.992      19.716      22.047     -55.105
      7383.492      21.287      22.192     -54.575
      7383.992      22.344      22.602     -53.003
      7384.492      23.131      20.720     -52.452
      7384.992      21.956      16.736     -51.421
      7385.492      17.625      12.293     -51.412
      7385.992      13.484      10.120     -51.402
      7386.492       8.552       9.452     -51.914
      7386.992       5.961       9.344     -52.426
      7387.492       5.054      10.632     -52.415
      7387.992       5.313      13.758     -52.928
      7388.492       5.961      17.535     -52.917
      7388.992       7.774      22.354     -53.112
      7389.492      14.510      24.829     -53.419
      7389.992      18.470      26.263     -53.656
      7390.492      19.324      26.915     -53.920
      7390.992      19.846      26.265     -53.911
      7391.492      20.108      25.094     -53.899
      7391.992      20.209      23.533     -53.890
      7392.492      19.384      20.279     -52.839
      7392.992      17.827      18.300     -51.788
      7393.492      15.897      16.819     -50.737
      7393.992      13.931      14.870     -50.206
      7394.492      12.548      13.734     -50.197
      7394.992      12.283      13.253     -50.188
      7395.492      13.517      13.255     -52.262
      7395.992      17.404      13.527     -53.294
      7396.492      32.040      15.773     -53.805
      7396.992      35.191      19.895     -53.824
      7397.492      37.665      23.479     -54.307
      7397.992      39.705      24.775     -54.369
      7398.492      40.598      24.095     -54.809
      7398.992      35.623      21.587     -54.685
      7399.492      24.872      17.880     -54.269
      7399.992      20.852      15.283     -54.101
      7400.492      18.362      13.267     -53.208
      7400.992      15.959      11.966     -52.677
      7401.492      11.886      11.056     -52.445
      7401.992       8.840      10.145     -52.137
      7402.492       7.072       9.626     -51.862
      7402.992       6.134       9.106     -51.310
      7403.492       5.189       8.716     -51.065
      7403.992       3.904       8.587     -51.056
      7404.492       3.144       8.588     -51.046
      7404.992       2.521       8.590     -48.961
      7405.492       2.164       8.591     -49.497
      7405.992       1.902       8.592     -49.510
      7406.492       1.814       8.593     -49.783
      7406.992       1.814       9.112     -50.058
      7407.492       2.176       9.497     -50.071
      7407.992       2.628       9.830     -50.087
      7408.492       3.415      10.506     -50.100
      7408.992       4.711      12.084     -50.113
      7409.492       6.221      13.772     -50.126
      7409.992       8.463      15.720     -50.139
      7410.492       9.188      18.058     -50.152
      7410.992      10.174      21.569     -50.165
      7411.492      10.869      25.209     -50.178
      7411.992      11.488      27.678     -50.191
      7412.492      12.015      28.845     -50.725
      7412.992      13.010      29.751     -50.738
      7413.492      14.702      30.136     -51.272
      7413.992      16.371      28.439     -51.806
      7414.492      17.169      19.970     -51.762
      7414.992      17.424      16.840     -51.311
      7415.492      16.626      14.325     -50.706
      7415.992      12.443      12.367     -50.179
      7416.492       9.724      11.576     -49.131
      7416.992       8.040      11.089     -48.603
      7417.492       7.005      10.954     -48.251
      7417.992       5.969      11.183     -48.465
      7418.492       5.452      12.076     -49.019
      7418.992       4.934      13.030     -50.094
      7419.492       4.546      14.083     -50.648
      7419.992       5.065      15.094     -52.244
      7420.492       6.361      16.369     -54.137
      7420.992       8.046      17.713     -56.683
      7421.492       8.953      20.313     -58.779
      7421.992       9.473      25.419     -59.834
      7422.492       9.872      32.125     -61.409
      7422.992      10.140      37.815     -63.506
      7423.492      10.381      42.986     -67.165
      7423.992      10.345      45.129     -70.302
      7424.492      10.123      46.816     -71.878
      7424.992       9.994      47.983     -74.495
      7425.492       9.995      49.448     -76.592
      7425.992      10.031      51.063     -79.209
      7426.492      10.166      52.726     -83.455
      7426.992      10.430      56.623     -86.636
      7427.492      10.694      57.703     -88.736
      7427.992      11.141      57.646     -90.353
      7428.492      12.171      57.898     -91.872
      7428.992      13.226      58.849     -93.988
      7429.492      14.410      57.487     -95.335
      7429.992      15.805      57.435     -96.815
      7430.492      17.445      57.382     -98.952
      7430.992      18.940      57.329    -100.696
      7431.492      20.625      57.276    -101.662
      7431.992      22.050      57.223    -102.806
      7432.492      22.958      59.123    -102.819
      7432.992      23.606      61.719    -101.760
