~Version Information
 VERS.                 2.0: 
 WRAP.                  NO: 
 END.                PETRA:IHS Markit
~Well Information Block
#MNEM.UNIT       Data Type    Information
#---------    -------------   ---------------------------------
 STRT.F           3901.4922:
 STOP.F           7683.4846:
 STEP.F              0.5000:
 NULL.              -999.25:
 COMP.                           : COMPANY
 FLD.       CAYUGA               : FIELD
 LOC.                            : LOCATION
 DATE.      24-JUN-2024          : DATE
 WELL.                           : Well Name
 LABL.      42001004370000                   : Well Label
 APIN.      42001004370000       : API Number
 UWI.       42001004370000       : Unique Well Number
 NUMB.      6-B                  : Well Number
 OPER.      YOUNG MARSHALL R DRL : Operator Name
 LEAS.      L C BILLETT          : Lease Name
~Parameter Block
#MNEM.UNIT           VALUE            Description
#---------    --------------------   ---------------------------------
~Curve Information Block
#MNEM.UNIT      API CODE      Curve Description
#---------    -------------   ---------------------------------
 DEPT.F                   00 000 00 00: Depth (MD)
 IND.OHM.M                00 001 00 00: Induction Resistivity
 SN18.OHM.M               00 002 00 00: 18-in Short Normal
 SP.MV                    00 003 00 00: Spontaneous Potential
~A        DEPT         IND        SN18          SP
# ...
      4921.492     -999.25       6.647     -50.658
      4921.992     -999.25       6.480     -50.644
      4922.492     -999.25       6.149     -50.118
      4922.992     -999.25       5.745     -49.590
      4923.492     -999.25       5.399     -49.578
      4923.992     -999.25       5.149     -49.563
      4924.492     -999.25       5.402     -50.617
      4924.992     -999.25       5.529     -51.081
      4925.492     -999.25       5.655     -51.583
      4925.992     -999.25       5.782     -52.600
      4926.492     -999.25       6.070     -53.099
      4926.992     -999.25       6.663     -53.237
      4927.492     -999.25       7.205     -53.587
      4927.992     -999.25       7.921     -54.089
      4928.492     -999.25       8.176     -54.073
      4928.992     -999.25       8.300     -54.062
      4929.492     -999.25       8.050     -53.532
      4929.992     -999.25       7.469     -53.522
      4930.492     -999.25       7.047     -53.509
      4930.992     -999.25       6.922     -53.495
      4931.492     -999.25       6.923     -53.483
      4931.992     -999.25       6.924     -53.469
      4932.492     -999.25       6.985     -53.972
      4932.992     -999.25       7.303     -54.472
      4933.492     -999.25       7.598     -54.459
      4933.992     -999.25       7.807     -54.710
      4934.492     -999.25       8.085     -54.948
      4934.992     -999.25       8.312     -54.214
      4935.492     -999.25       8.438     -53.378
      4935.992     -999.25       8.565     -53.217
      4936.492     -999.25       8.691     -52.838
      4936.992     -999.25       8.520     -52.312
      4937.492     -999.25       7.939     -51.783
      4937.992     -999.25       7.157     -52.286
      4938.492     -999.25       6.811     -52.787
      4938.992     -999.25       6.560     -53.288
      4939.492     -999.25       7.189     -54.509
      4939.992     -999.25       8.195     -54.805
      4940.492     -999.25       9.000     -55.307
      4940.992     -999.25       9.453     -55.291
      4941.492     -999.25       9.772     -54.161
      4941.992     -999.25      10.209     -53.208
      4942.492     -999.25      10.210     -53.197
      4942.992     -999.25      10.211     -53.184
      4943.492     -999.25      10.338     -53.685
      4943.992     -999.25      10.338     -54.189
      4944.492     -999.25      10.339     -54.687
      4944.992     -999.25      10.340     -54.822
      4945.492     -999.25      10.341     -55.689
      4945.992     -999.25      10.487     -56.281
      4946.492     -999.25      10.720     -56.692
      4946.992     -999.25      11.101     -56.679
      4947.492     -999.25      11.281     -56.666
      4947.992     -999.25      11.602     -56.653
      4948.492     -999.25      11.935     -56.640
      4948.992     -999.25      12.107     -56.112
      4949.492     -999.25      12.085     -55.440
      4949.992     -999.25      11.857     -54.544
      4950.492     -999.25      11.726     -54.018
      4950.992     -999.25      11.296     -53.489
      4951.492     -999.25      11.106     -53.478
      4951.992     -999.25      10.730     -53.465
      4952.492     -999.25      10.606     -53.966
      4952.992     -999.25      10.607     -54.155
      4953.492     -999.25      10.733     -54.454
      4953.992     -999.25      10.879     -55.100
      4954.492     -999.25      11.365     -55.969
      4954.992     -999.25      11.867     -56.472
      4955.492     -999.25      12.166     -56.973
      4955.992     -999.25      12.497     -56.960
      4956.492     -999.25      12.779     -56.947
      4956.992     -999.25      13.127     -56.934
      4957.492     -999.25      13.405     -56.921
      4957.992     -999.25      13.757     -56.907
      4958.492     -999.25      13.758     -56.895
      4958.992     -999.25      13.759     -56.366
      4959.492     -999.25      13.257     -56.355
      4959.992     -999.25      12.688     -56.340
      4960.492     -999.25      12.128     -56.299
      4960.992     -999.25      11.861     -55.801
      4961.492     -999.25      11.628     -55.788
      4961.992     -999.25      11.629     -55.776
      4962.492     -999.25      11.324     -55.762
      4962.992     -999.25      11.254     -55.750
      4963.492     -999.25      11.129     -55.735
      4963.992     -999.25      11.004     -55.724
      4964.492     -999.25      10.879     -55.709
      4964.992     -999.25      10.881     -55.698
      4965.492     -999.25      10.881     -55.685
      4965.992     -999.25      10.882     -55.157
      4966.492     -999.25      11.009     -55.145
      4966.992     -999.25      11.135     -54.617
      4967.492     -999.25      11.136     -54.604
      4967.992     -999.25      11.137     -54.590
      4968.492     -999.25      10.887     -54.578
      4968.992     -999.25      10.624     -54.563
      4969.492     -999.25      10.200     -54.552
      4969.992     -999.25       9.885     -54.539
      4970.492     -999.25       9.760     -54.526
      4970.992     -999.25       9.636     -54.513
      4971.492     -999.25       9.636     -54.499
      4971.992     -999.25       9.512     -54.487
      4972.492     -999.25       9.502     -54.473
      4972.992     -999.25       9.388     -54.462
      4973.492     -999.25       9.263     -54.446
      4973.992     -999.25       9.264     -54.435
      4974.492     -999.25       9.265     -54.678
      4974.992     -999.25       9.266     -54.924
      4975.492     -999.25       9.393     -54.911
      4975.992     -999.25       9.533     -54.383
      4976.492     -999.25       9.772     -54.370
      4976.992     -999.25       9.772     -54.356
      4977.492     -999.25       9.773     -54.345
      4977.992     -999.25       9.900     -54.330
      4978.492     -999.25       9.935     -54.319
      4978.992     -999.25      10.279     -54.306
      4979.492     -999.25      10.673     -54.292
      4979.992     -999.25      11.160     -54.280
      4980.492     -999.25      11.286     -54.266
      4980.992     -999.25      11.287     -53.739
      4981.492     -999.25      11.163     -53.725
      4981.992     -999.25      10.838     -53.199
      4982.492     -999.25       9.908     -52.156
      4982.992     -999.25       7.886     -52.120
      4983.492     -999.25       6.141     -51.618
      4983.992     -999.25       5.633     -50.576
      4984.492     -999.25       5.148     -50.050
      4984.992     -999.25       4.762     -49.522
      4985.492     -999.25       4.889     -49.510
      4985.992     -999.25       5.141     -49.495
      4986.492     -999.25       5.441     -49.483
      4986.992     -999.25       5.771     -49.468
      4987.492     -999.25       6.030     -49.458
      4987.992     -999.25       6.398     -49.444
      4988.492     -999.25       6.904     -49.946
      4988.992     -999.25       7.622     -50.449
      4989.492     -999.25       8.288     -50.948
      4989.992     -999.25       8.666     -51.450
      4990.492     -999.25       8.542     -51.435
      4990.992     -999.25       7.757     -51.423
      4991.492     -999.25       6.910     -50.380
      4991.992     -999.25       6.534     -49.855
      4992.492     -999.25       5.733     -50.093
      4992.992     -999.25       5.782     -50.857
      4993.492     -999.25       6.378     -51.360
      4993.992     -999.25       7.041     -51.344
      4994.492     -999.25       7.572     -51.983
      4994.992     -999.25       8.424     -52.862
      4995.492     -999.25       9.305     -52.928
      4995.992     -999.25      10.087     -53.350
      4996.492     -999.25      10.814     -53.851
      4996.992     -999.25      11.261     -54.088
      4997.492     -999.25      11.821     -54.853
      4997.992     -999.25      12.216     -55.356
      4998.492     -999.25      12.451     -55.855
      4998.992     -999.25      12.452     -55.843
      4999.492     -999.25      12.327     -55.314
