~Version Information
 VERS.                 2.0: 
 WRAP.                  NO: 
 END.                PETRA:IHS Markit
~Well Information Block
#MNEM.UNIT       Data Type    Information
#---------    -------------   ---------------------------------
 STRT.F           3901.4922:
 STOP.F           7683.4846:
 STEP.F              0.5000:
 NULL.              -999.25:
 COMP.                           : COMPANY
 FLD.       CAYUGA               : FIELD
 LOC.                            : LOCATION
 DATE.      24-JUN-2024          : DATE
 WELL.                           : Well Name
 LABL.      42001004370000                   : Well Label
 APIN.      42001004370000       : API Number
 UWI.       42001004370000       : Unique Well Number
 NUMB.      6-B                  : Well Number
 OPER.      YOUNG MARSHALL R DRL : Operator Name
 LEAS.      L C BILLETT          : Lease Name
~Parameter Block
#MNEM.UNIT           VALUE            Description
#---------    --------------------   ---------------------------------
~Curve Information Block
#MNEM.UNIT      API CODE      Curve Description
#---------    -------------   ---------------------------------
 DEPT.F                   00 000 00 00: Depth (MD)
 IND.OHM.M                00 001 00 00: Induction Resistivity
 SN18.OHM.M               00 002 00 00: 18-in Short Normal
 SP.MV                    00 003 00 00: Spontaneous Potential
~A        DEPT         IND        SN18          SP
# ...
      6334.492     -999.25      11.452     -48.822
      6334.992     -999.25      11.185     -48.821
      6335.492     -999.25      10.820     -48.821
      6335.992     -999.25      10.567     -48.306
      6336.492     -999.25      10.314     -48.305
      6336.992     -999.25      10.186     -47.790
      6337.492     -999.25       9.895     -47.789
      6337.992     -999.25       9.680     -47.274
      6338.492     -999.25       9.278     -47.273
      6338.992     -999.25       8.671     -47.273
      6339.492     -999.25       7.774     -46.758
      6339.992     -999.25       7.348     -46.757
      6340.492     -999.25       7.032     -46.756
      6340.992     -999.25       6.779     -46.755
      6341.492     -999.25       6.652     -46.755
      6341.992     -999.25       6.492     -46.754
      6342.492     -999.25       6.271     -46.753
      6342.992     -999.25       6.269     -46.752
      6343.492     -999.25       6.393     -46.751
      6343.992     -999.25       6.643     -46.750
      6344.492     -999.25       7.311     -46.750
      6344.992     -999.25       8.146     -46.497
      6345.492     -999.25       8.602     -46.234
      6345.992     -999.25       8.675     -46.233
      6346.492     -999.25       8.216     -46.232
      6346.992     -999.25       7.258     -46.746
      6347.492     -999.25       6.745     -46.745
      6347.992     -999.25       6.124     -46.744
      6348.492     -999.25       5.620     -46.743
      6348.992     -999.25       5.017     -46.742
      6349.492     -999.25       4.611     -46.742
      6349.992     -999.25       4.232     -46.741
      6350.492     -999.25       4.230     -46.740
      6350.992     -999.25       4.247     -46.739
      6351.492     -999.25       4.352     -46.739
      6351.992     -999.25       4.476     -46.738
      6352.492     -999.25       4.416     -47.251
      6352.992     -999.25       4.346     -47.250
      6353.492     -999.25       4.219     -47.249
      6353.992     -999.25       3.966     -47.763
      6354.492     -999.25       3.712     -48.276
      6354.992     -999.25       3.710     -48.275
      6355.492     -999.25       3.720     -48.789
      6355.992     -999.25       3.958     -48.788
      6356.492     -999.25       4.082     -48.787
      6356.992     -999.25       4.257     -48.786
      6357.492     -999.25       4.455     -48.271
      6357.992     -999.25       4.579     -48.271
      6358.492     -999.25       4.576     -48.062
      6358.992     -999.25       4.429     -47.755
      6359.492     -999.25       4.196     -47.240
      6359.992     -999.25       4.194     -46.725
      6360.492     -999.25       4.192     -46.724
      6360.992     -999.25       4.441     -46.723
      6361.492     -999.25       4.905     -46.209
      6361.992     -999.25       5.317     -46.208
      6362.492     -999.25       5.566     -46.207
      6362.992     -999.25       5.690     -46.206
      6363.492     -999.25       5.827     -46.205
      6363.992     -999.25       5.938     -46.337
      6364.492     -999.25       5.810     -46.718
      6364.992     -999.25       5.557     -46.788
      6365.492     -999.25       5.429     -47.230
      6365.992     -999.25       5.591     -47.744
      6366.492     -999.25       6.305     -47.982
      6366.992     -999.25       8.135     -48.256
      6367.492     -999.25      11.200     -48.770
      6367.992     -999.25      13.501     -48.769
      6368.492     -999.25      14.900     -48.886
      6368.992     -999.25      15.223     -49.281
      6369.492     -999.25      13.883     -49.852
      6369.992     -999.25      11.568     -50.308
      6370.492     -999.25      10.468     -50.821
      6370.992     -999.25       9.554     -50.821
      6371.492     -999.25       8.783     -50.306
      6371.992     -999.25       8.741     -49.791
      6372.492     -999.25       9.297     -49.276
      6372.992     -999.25       9.853     -49.275
      6373.492     -999.25      10.047     -49.274
      6373.992     -999.25      10.005     -49.273
      6374.492     -999.25       9.666     -49.787
      6374.992     -999.25       8.963     -50.300
      6375.492     -999.25       7.778     -50.299
      6375.992     -999.25       4.852     -50.298
      6376.492     -999.25       4.067     -49.783
      6376.992     -999.25       3.626     -49.269
      6377.492     -999.25       3.373     -48.665
      6377.992     -999.25       3.371     -47.210
      6378.492     -999.25       3.528     -46.667
      6378.992     -999.25       3.870     -45.411
      6379.492     -999.25       4.011     -45.151
      6379.992     -999.25       4.243     -44.636
      6380.492     -999.25       4.367     -44.636
      6380.992     -999.25       4.365     -44.635
      6381.492     -999.25       4.237     -45.148
      6381.992     -999.25       4.110     -45.662
      6382.492     -999.25       3.982     -46.689
      6382.992     -999.25       3.703     -46.702
      6383.492     -999.25       3.476     -47.202
      6383.992     -999.25       3.212     -47.715
      6384.492     -999.25       2.969     -47.895
      6384.992     -999.25       2.968     -48.227
      6385.492     -999.25       2.715     -48.741
      6385.992     -999.25       2.587     -48.740
      6386.492     -999.25       2.585     -48.739
      6386.992     -999.25       2.709     -48.738
      6387.492     -999.25       2.707     -48.738
      6387.992     -999.25       2.705     -48.737
      6388.492     -999.25       2.703     -48.736
      6388.992     -999.25       2.701     -48.735
      6389.492     -999.25       2.699     -48.734
      6389.992     -999.25       2.741     -48.734
      6390.492     -999.25       2.947     -48.219
      6390.992     -999.25       3.224     -47.704
      6391.492     -999.25       3.571     -47.703
      6391.992     -999.25       3.959     -47.188
      6392.492     -999.25       4.446     -47.187
      6392.992     -999.25       4.822     -47.186
      6393.492     -999.25       5.354     -47.700
      6393.992     -999.25       6.576     -47.699
      6394.492     -999.25       9.366     -48.212
      6394.992     -999.25      12.226     -48.726
      6395.492     -999.25      13.691     -48.755
      6395.992     -999.25      14.860     -49.495
      6396.492     -999.25      15.367     -50.266
      6396.992     -999.25      15.485     -50.461
      6397.492     -999.25      15.106     -50.778
      6397.992     -999.25      14.761     -50.778
      6398.492     -999.25      14.097     -50.777
      6398.992     -999.25      13.532     -50.262
      6399.492     -999.25      12.962     -49.747
      6399.992     -999.25      12.569     -49.730
      6400.492     -999.25      12.079     -49.231
      6400.992     -999.25      11.952     -49.230
      6401.492     -999.25      11.699     -49.230
      6401.992     -999.25      11.571     -49.229
      6402.492     -999.25      11.569     -49.228
      6402.992     -999.25      11.567     -49.227
      6403.492     -999.25      11.565     -49.226
      6403.992     -999.25      11.563     -49.225
      6404.492     -999.25      11.436     -49.225
      6404.992     -999.25      11.245     -49.224
      6405.492     -999.25      11.055     -49.223
      6405.992     -999.25      10.754     -49.222
      6406.492     -999.25      10.423     -49.221
      6406.992     -999.25      10.044     -49.221
      6407.492     -999.25       9.665     -49.220
      6407.992     -999.25       9.363     -48.705
      6408.492     -999.25       8.531     -48.704
      6408.992     -999.25       7.900     -48.703
      6409.492     -999.25       7.466     -48.703
      6409.992     -999.25       7.018     -48.188
      6410.492     -999.25       6.598     -48.187
      6410.992     -999.25       6.009     -47.672
      6411.492     -999.25       5.731     -47.671
      6411.992     -999.25       6.005     -47.670
      6412.492     -999.25       6.902     -48.698
