~Version Information
 VERS.                 2.0: 
 WRAP.                  NO: 
 END.                PETRA:IHS Markit
~Well Information Block
#MNEM.UNIT       Data Type    Information
#---------    -------------   ---------------------------------
 STRT.F           3901.4922:
 STOP.F           7683.4846:
 STEP.F              0.5000:
 NULL.              -999.25:
 COMP.                           : COMPANY
 FLD.       CAYUGA               : FIELD
 LOC.                            : LOCATION
 DATE.      24-JUN-2024          : DATE
 WELL.                           : Well Name
 LABL.      42001004370000                   : Well Label
 APIN.      42001004370000       : API Number
 UWI.       42001004370000       : Unique Well Number
 NUMB.      6-B                  : Well Number
 OPER.      YOUNG MARSHALL R DRL : Operator Name
 LEAS.      L C BILLETT          : Lease Name
~Parameter Block
#MNEM.UNIT           VALUE            Description
#---------    --------------------   ---------------------------------
~Curve Information Block
#MNEM.UNIT      API CODE      Curve Description
#---------    -------------   ---------------------------------
 DEPT.F                   00 000 00 00: Depth (MD)
 IND.OHM.M                00 001 00 00: Induction Resistivity
 SN18.OHM.M               00 002 00 00: 18-in Short Normal
 SP.MV                    00 003 00 00: Spontaneous Potential
~A        DEPT         IND        SN18          SP
# ...
      7590.492      48.057      12.324     -92.123
      7590.992      49.611      12.712     -89.001
      7591.492      50.648      12.449     -83.795
      7591.992      43.764      12.186     -80.152
      7592.492      35.881      11.923     -79.113
      7592.992      29.922      12.181     -80.157
      7593.492      30.570      13.351     -84.372
      7593.992      31.477      16.371     -88.599
      7594.492      32.513      19.855     -91.704
      7594.992      33.031      24.082     -93.820
      7595.492      33.290      25.594     -96.907
      7595.992      32.642      25.523     -98.923
      7596.492      27.270      21.928    -100.067
      7596.992      23.678      20.520    -100.490
      7597.492      23.186      19.460     -99.972
      7597.992      20.985      18.796     -99.975
      7598.492      17.228      19.130     -99.456
      7598.992      13.990      20.503     -99.459
      7599.492      13.834      23.104     -99.462
      7599.992      14.637      25.692    -100.188
      7600.492      15.415      27.750    -101.029
      7600.992      15.933      29.224    -101.553
      7601.492      16.200      29.394    -101.555
      7601.992      16.451      28.411    -100.775
      7602.492      16.308      25.642     -99.200
      7602.992      15.639      23.412     -92.343
      7603.492      14.917      21.953     -89.147
      7603.992      12.668      20.067     -85.781
      7604.492      11.407      19.023     -80.809
      7604.992       9.585      18.369     -74.011
      7605.492       8.419      17.846     -68.259
      7605.992       7.900      17.192     -65.084
      7606.492       7.899      16.799     -62.951
      7606.992       8.037      16.406     -61.124
      7607.492       8.300      16.664     -59.344
      7607.992       8.434      16.593     -57.778
      7608.492       8.720      16.327     -56.733
      7608.992       8.988      15.984     -55.688
      7609.492       9.352      15.352     -54.644
      7609.992       9.652      14.959     -53.599
      7610.492      10.007      14.565     -53.596
      7610.992      10.670      14.433     -53.592
      7611.492      12.085      14.395     -53.589
      7611.992      13.740      14.558     -53.567
      7612.492      15.179      14.686     -53.062
      7612.992      16.961      14.813     -52.473
      7613.492      18.929      14.680     -51.404
      7613.992      20.102      14.548     -50.969
      7614.492      21.615      14.285     -52.662
      7614.992      23.039      14.022     -53.203
      7615.492      25.500      13.498     -54.447
      7615.992      29.125      12.975     -55.531
      7616.492      32.881      12.054     -56.909
      7616.992      38.968      11.259     -58.491
      7617.492      44.667      10.484     -59.827
      7617.992      46.998      10.361     -61.955
      7618.492      48.810      10.654     -63.439
      7618.992      49.457      11.288     -64.998
      7619.492      48.031      11.705     -66.036
      7619.992      41.273      12.202     -65.512
      7620.492      29.517      12.464     -65.509
      7620.992      27.044      12.690     -63.422
      7621.492      28.138      12.306     -62.898
      7621.992      29.359      11.163     -63.416
      7622.492      30.764       9.579     -63.934
      7622.992      30.441       8.619     -64.981
      7623.492      24.325       9.121     -65.490
      7623.992      16.677      10.188     -65.486
      7624.492      20.114      10.525     -65.483
      7624.992      23.598       9.799     -65.480
      7625.492      24.549       9.010     -65.476
      7625.992      23.784       8.962     -65.324
      7626.492      19.205       9.276     -64.084
      7626.992      14.073       9.143     -62.473
      7627.492      13.015       8.749     -60.861
      7627.992      14.955       8.486     -60.010
      7628.492      19.907       8.484     -59.207
      7628.992      22.108       8.742     -59.203
      7629.492      23.791       9.260     -59.199
      7629.992      24.179       9.648     -58.154
      7630.492      21.328       9.668     -56.589
      7630.992      16.275       8.732     -55.023
      7631.492      12.980       7.948     -52.937
      7631.992       9.352       7.164     -51.892
      7632.492       5.781       6.641     -50.847
      7632.992       4.225       6.378     -48.760
      7633.492       3.706       6.115     -47.715
      7633.992       3.186       6.373     -46.150
      7634.492       2.663       6.639     -44.584
      7634.992       2.389       7.173     -44.014
      7635.492       2.148       7.729     -43.015
      7635.992       2.186       8.484     -43.012
      7636.492       2.689       8.987     -43.008
      7636.992       3.081       9.222     -42.484
      7637.492       3.248       8.668     -42.643
      7637.992       3.477       8.237     -42.999
      7638.492       3.698       7.614     -42.474
      7638.992       3.520       7.389     -42.471
      7639.492       3.385       7.211     -42.468
      7639.992       3.177       7.123     -41.944
      7640.492       2.986       6.937     -41.419
      7640.992       2.787       6.858     -40.895
      7641.492       2.656       6.856     -40.892
      7641.992       2.526       6.853     -41.409
      7642.492       2.265       6.850     -40.364
      7642.992       2.135       7.050     -40.361
      7643.492       2.134       7.333     -40.358
      7643.992       2.133       7.884     -40.355
      7644.492       2.133       8.402     -40.352
      7644.992       2.261       9.051     -40.869
      7645.492       2.908       9.829     -40.866
      7645.992       3.684      11.259     -40.899
      7646.492       4.202      12.819     -41.380
      7646.992       4.719      13.728     -41.377
      7647.492       4.718      13.986     -41.895
      7647.992       4.717      13.593     -41.891
      7648.492       4.851      12.419     -41.888
      7648.992       5.124      11.765     -41.885
      7649.492       5.780      11.762     -41.881
      7649.992       6.455      12.020     -41.878
      7650.492       6.962      12.148     -41.108
      7650.992       7.359      12.146     -40.309
      7651.492       7.820      12.137     -39.785
      7651.992       7.577      11.720     -39.260
      7652.492       6.655      10.665     -39.778
      7652.992       6.216       9.904     -39.774
      7653.492       5.952       9.789     -40.292
      7653.992       5.929      10.382     -40.810
      7654.492       6.191      11.013     -41.848
      7654.992       7.039      11.279     -42.366
      7655.492       8.232      11.638     -43.404
      7655.992       9.202      11.860     -43.922
      7656.492      10.013      11.466     -43.919
      7656.992      10.149       9.972     -43.395
      7657.492       8.068       8.964     -42.870
      7657.992       6.643       8.354     -42.272
      7658.492       6.253       8.071     -41.301
      7658.992       6.770       8.386     -40.657
      7659.492       8.065       9.306     -40.253
      7659.992       9.359      10.707     -39.562
      7660.492      10.265      11.854     -39.205
      7660.992      10.135      12.095     -39.415
      7661.492       8.968      11.310     -40.240
      7661.992       8.188      10.657     -40.758
      7662.492       7.267       9.743     -41.275
      7662.992       6.604       9.089     -40.444
      7663.492       6.086       9.087     -40.226
      7663.992       5.725       9.475     -39.702
      7664.492       5.724      11.165     -39.699
      7664.992       5.938      12.204     -40.217
      7665.492       6.923      12.722     -40.213
      7665.992       8.721      13.762     -40.210
      7666.492       9.947      15.191     -40.207
      7666.992      11.347      16.100     -40.725
      7667.492      11.937      16.749     -40.721
      7667.992      11.194      17.268     -40.718
      7668.492      10.579      17.659     -40.715
