~Version Information
 VERS.                 2.0: 
 WRAP.                  NO: 
 END.                PETRA:IHS Markit
~Well Information Block
#MNEM.UNIT       Data Type    Information
#---------    -------------   ---------------------------------
 STRT.F           3901.4922:
 STOP.F           7683.4846:
 STEP.F              0.5000:
 NULL.              -999.25:
 COMP.                           : COMPANY
 FLD.       CAYUGA               : FIELD
 LOC.                            : LOCATION
 DATE.      24-JUN-2024          : DATE
 WELL.                           : Well Name
 LABL.      42001004370000                   : Well Label
 APIN.      42001004370000       : API Number
 UWI.       42001004370000       : Unique Well Number
 NUMB.      6-B                  : Well Number
 OPER.      YOUNG MARSHALL R DRL : Operator Name
 LEAS.      L C BILLETT          : Lease Name
~Parameter Block
#MNEM.UNIT           VALUE            Description
#---------    --------------------   ---------------------------------
~Curve Information Block
#MNEM.UNIT      API CODE      Curve Description
#---------    -------------   ---------------------------------
 DEPT.F                   00 000 00 00: Depth (MD)
 IND.OHM.M                00 001 00 00: Induction Resistivity
 SN18.OHM.M               00 002 00 00: 18-in Short Normal
 SP.MV                    00 003 00 00: Spontaneous Potential
~A        DEPT         IND        SN18          SP
# ...
      7119.492     -999.25      24.445     -42.084
      7119.992     -999.25      23.935     -42.088
      7120.492     -999.25      23.312     -42.092
      7120.992     -999.25      23.040     -41.907
      7121.492     -999.25      23.677     -41.585
      7121.992     -999.25      25.564     -41.588
      7122.492     -999.25      32.307     -41.078
      7122.992     -999.25      33.910     -41.082
      7123.492     -999.25      34.560     -41.086
      7123.992     -999.25      34.534     -41.100
      7124.492     -999.25      33.995     -41.607
      7124.992     -999.25      33.006     -41.611
      7125.492     -999.25      32.117     -41.614
      7125.992     -999.25      30.933     -42.132
      7126.492     -999.25      30.463     -42.136
      7126.992     -999.25      29.947     -42.140
      7127.492     -999.25      29.062     -42.657
      7127.992     -999.25      28.519     -42.661
      7128.492     -999.25      27.914     -42.664
      7128.992     -999.25      26.918     -42.668
      7129.492     -999.25      24.994     -42.158
      7129.992     -999.25      22.346     -42.161
      7130.492     -999.25      17.897     -42.165
      7130.992     -999.25      16.755     -42.169
      7131.492     -999.25      15.572     -42.173
      7131.992     -999.25      14.214     -42.176
      7132.492     -999.25      12.077     -42.181
      7132.992     -999.25       9.649     -42.184
      7133.492     -999.25       9.677     -42.187
      7133.992     -999.25      10.906     -42.191
      7134.492     -999.25      13.678     -42.195
      7134.992     -999.25      20.012     -42.199
      7135.492     -999.25      22.872     -42.311
      7135.992     -999.25      27.345     -42.720
      7136.492     -999.25      31.012     -42.723
      7136.992     -999.25      35.199     -43.242
      7137.492     -999.25      39.865     -43.245
      7137.992     -999.25      42.820     -43.249
      7138.492     -999.25      43.654     -43.767
      7138.992     -999.25      43.334     -43.770
      7139.492     -999.25      42.759     -43.774
      7139.992     -999.25      42.024     -44.292
      7140.492     -999.25      40.219     -44.810
      7140.992     -999.25      39.068     -45.370
      7141.492     -999.25      38.565     -45.846
      7141.992     -999.25      38.308     -46.363
      7142.492     -999.25      37.690     -46.881
      7142.992     -999.25      37.920     -47.913
      7143.492     -999.25      39.184     -48.584
      7143.992     -999.25      41.456     -50.491
      7144.492     -999.25      43.190     -54.756
      7144.992     -999.25      44.105     -58.211
      7145.492     -999.25      44.355     -56.635
      7145.992     -999.25      44.603     -55.648
      7146.492     -999.25      44.727     -54.622
      7146.992     -999.25      44.089     -53.392
      7147.492     -999.25      41.680     -52.573
      7147.992     -999.25      35.679     -52.062
      7148.492     -999.25      33.191     -52.067
      7148.992     -999.25      32.175     -51.556
      7149.492     -999.25      31.537     -51.045
      7149.992     -999.25      32.824     -50.535
      7150.492     -999.25      34.439     -50.796
      7150.992     -999.25      35.505     -52.085
      7151.492     -999.25      36.836     -52.603
      7151.992     -999.25      37.993     -53.121
      7152.492     -999.25      38.853     -53.638
      7152.992     -999.25      39.482     -52.614
      7153.492     -999.25      39.193     -51.427
      7153.992     -999.25      38.334     -49.537
      7154.492     -999.25      36.816     -47.437
      7154.992     -999.25      34.402     -45.441
      7155.492     -999.25      30.974     -43.892
      7155.992     -999.25      27.685     -42.352
      7156.492     -999.25      20.429     -41.843
      7156.992     -999.25      18.056     -41.198
      7157.492     -999.25      18.084     -40.307
      7157.992     -999.25      19.951     -40.386
      7158.492     -999.25      21.588     -41.858
      7158.992     -999.25      22.933     -42.392
      7159.492     -999.25      24.364     -43.407
      7159.992     -999.25      25.789     -43.925
      7160.492     -999.25      27.141     -43.414
      7160.992     -999.25      27.391     -43.418
      7161.492     -999.25      25.740     -43.295
      7161.992     -999.25      19.593     -42.397
      7162.492     -999.25      16.491     -41.886
      7162.992     -999.25      15.331     -41.376
      7163.492     -999.25      14.268     -40.866
      7163.992     -999.25      13.568     -40.631
      7164.492     -999.25      13.005     -40.359
      7164.992     -999.25      12.673     -39.669
      7165.492     -999.25      13.583     -38.824
      7165.992     -999.25      16.082     -38.313
      7166.492     -999.25      18.120     -38.318
      7166.992     -999.25      21.264     -38.258
      7167.492     -999.25      23.278     -37.810
      7167.992     -999.25      25.053     -37.814
      7168.492     -999.25      25.181     -37.818
      7168.992     -999.25      25.109     -37.822
      7169.492     -999.25      24.028     -37.997
      7169.992     -999.25      20.601     -38.343
      7170.492     -999.25      17.944     -38.347
      7170.992     -999.25      15.258     -38.351
      7171.492     -999.25      13.378     -38.868
      7171.992     -999.25      11.363     -39.387
      7172.492     -999.25      10.205     -39.904
      7172.992     -999.25       9.662     -39.907
      7173.492     -999.25       9.057     -39.911
      7173.992     -999.25       8.927     -39.915
      7174.492     -999.25       8.986     -39.919
      7174.992     -999.25       9.299     -39.922
      7175.492     -999.25       9.472     -39.926
      7175.992     -999.25       9.797     -39.930
      7176.492     -999.25      10.085     -39.420
      7176.992     -999.25      10.295     -39.423
      7177.492     -999.25      10.417     -39.426
      7177.992     -999.25      10.412     -39.430
      7178.492     -999.25      10.409     -39.434
      7178.992     -999.25      10.404     -39.438
      7179.492     -999.25      10.392     -38.927
      7179.992     -999.25       9.451     -38.931
      7180.492     -999.25       8.493     -39.449
      7180.992     -999.25       7.453     -39.453
      7181.492     -999.25       6.713     -39.456
      7181.992     -999.25       6.290     -39.460
      7182.492     -999.25       6.071     -39.978
      7182.992     -999.25       6.727     -39.981
      7183.492     -999.25       7.202     -39.985
      7183.992     -999.25       7.593     -40.503
      7184.492     -999.25       8.333     -41.021
      7184.992     -999.25      10.257     -41.024
      7185.492     -999.25      16.835     -41.542
      7185.992     -999.25      18.954     -41.546
      7186.492     -999.25      19.963     -41.346
      7186.992     -999.25      19.705     -41.039
      7187.492     -999.25      19.372     -40.528
      7187.992     -999.25      18.810     -40.018
      7188.492     -999.25      18.248     -40.022
      7188.992     -999.25      17.409     -40.026
      7189.492     -999.25      16.870     -39.515
      7189.992     -999.25      16.135     -39.519
      7190.492     -999.25      15.745     -40.036
      7190.992     -999.25      15.368     -40.040
      7191.492     -999.25      16.756     -40.558
      7191.992     -999.25      18.924     -41.214
      7192.492     -999.25      20.418     -42.108
      7192.992     -999.25      22.441     -42.111
      7193.492     -999.25      25.979     -42.630
      7193.992     -999.25      27.471     -42.633
      7194.492     -999.25      30.654     -42.637
      7194.992     -999.25      32.733     -42.640
      7195.492     -999.25      34.190     -42.644
      7195.992     -999.25      34.951     -42.648
      7196.492     -999.25      35.695     -42.651
      7196.992     -999.25      36.963     -43.170
      7197.492     -999.25      38.467     -43.687
