~Version Information
 VERS.                 2.0: 
 WRAP.                  NO: 
 END.                PETRA:IHS Markit
~Well Information Block
#MNEM.UNIT       Data Type    Information
#---------    -------------   ---------------------------------
 STRT.F           3901.4922:
 STOP.F           7683.4846:
 STEP.F              0.5000:
 NULL.              -999.25:
 COMP.                           : COMPANY
 FLD.       CAYUGA               : FIELD
 LOC.                            : LOCATION
 DATE.      24-JUN-2024          : DATE
 WELL.                           : Well Name
 LABL.      42001004370000                   : Well Label
 APIN.      42001004370000       : API Number
 UWI.       42001004370000       : Unique Well Number
 NUMB.      6-B                  : Well Number
 OPER.      YOUNG MARSHALL R DRL : Operator Name
 LEAS.      L C BILLETT          : Lease Name
~Parameter Block
#MNEM.UNIT           VALUE            Description
#---------    --------------------   ---------------------------------
~Curve Information Block
#MNEM.UNIT      API CODE      Curve Description
#---------    -------------   ---------------------------------
 DEPT.F                   00 000 00 00: Depth (MD)
 IND.OHM.M                00 001 00 00: Induction Resistivity
 SN18.OHM.M               00 002 00 00: 18-in Short Normal
 SP.MV                    00 003 00 00: Spontaneous Potential
~A        DEPT         IND        SN18          SP
# ...
      4607.492       0.648       4.732    -137.837
      4607.992       0.648       4.505    -137.827
      4608.492       0.649       4.381    -137.819
      4608.992       0.649       4.382    -138.072
      4609.492       0.649       4.132    -138.316
      4609.992       0.650       4.089    -138.307
      4610.492       0.650       4.009    -138.297
      4610.992       0.525       3.857    -138.289
      4611.492       0.525       3.635    -138.794
      4611.992       0.526       3.625    -138.786
      4612.492       0.481       3.511    -138.775
      4612.992       0.401       3.513    -138.768
      4613.492       0.401       3.388    -138.759
      4613.992       0.401       3.389    -138.236
      4614.492       0.402       3.265    -137.336
      4614.992       0.402       3.141    -134.105
      4615.492       0.402       3.127    -130.367
      4615.992       0.403       3.017    -117.634
      4616.492       0.403       2.893     -88.524
      4616.992       0.403       2.643     -74.942
      4617.492       0.529       2.519     -72.321
      4617.992       0.674       2.484     -67.533
      4618.492       0.781       2.395     -63.092
      4618.992       0.907       2.397     -58.784
      4619.492       0.964       2.398     -54.847
      4619.992       1.034       2.399     -54.325
      4620.492       1.200       2.400     -54.829
      4620.992       1.286       2.527     -55.391
      4621.492       1.412       2.860     -59.952
      4621.992       1.412       3.409     -64.572
      4622.492       1.538       3.937     -68.831
      4622.992       1.538       4.291     -72.780
      4623.492       1.664       4.418     -76.697
      4623.992       1.665       4.481     -78.028
      4624.492       1.539       4.671     -75.635
      4624.992       1.384       5.184     -72.230
      4625.492       1.163       6.056     -69.012
      4625.992       1.024       6.336     -66.042
      4626.492       0.913       6.561     -66.035
      4626.992       0.787       6.825     -66.026
      4627.492       0.788       7.066     -66.017
      4627.992       0.662       7.067     -66.008
      4628.492       0.663       6.894     -65.999
      4628.992       0.663       6.567     -65.208
      4629.492       0.663       6.159     -61.353
      4629.992       0.664       5.690     -58.202
      4630.492       0.664       5.408     -56.454
      4630.992       0.665       4.939     -55.158
      4631.492       0.791       4.689     -54.635
      4631.992       0.833       4.511     -54.626
      4632.492       0.917       4.189     -55.647
      4632.992       1.069       4.028     -56.151
      4633.492       1.294       3.689     -56.657
      4633.992       1.421       3.439     -56.646
      4634.492       1.546       3.314     -55.594
      4634.992       1.672       3.316     -54.573
      4635.492       1.924       3.500     -54.564
      4635.992       2.176       3.695     -55.253
      4636.492       2.427       4.114     -56.088
      4636.992       2.679       4.577     -57.231
      4637.492       2.946       4.955     -59.669
      4637.992       3.433       5.333     -61.329
      4638.492       3.936       5.468     -64.278
      4638.992       4.726       5.837     -65.304
      4639.492       5.444       6.090     -64.266
      4639.992       5.822       5.624     -59.636
      4640.492       5.445       4.837     -56.891
      4640.992       4.901       4.404     -54.489
      4641.492       4.441       3.960     -53.345
      4641.992       4.059       3.823     -52.427
      4642.492       3.754       3.586     -52.425
      4642.992       3.311       3.587     -53.450
      4643.492       3.017       3.462     -53.448
      4643.992       2.809       3.463     -52.708
      4644.492       2.531       3.339     -51.900
      4644.992       2.433       3.340     -50.192
      4645.492       2.308       3.341     -49.324
      4645.992       2.183       3.217     -48.293
      4646.492       2.183       3.218     -47.776
      4646.992       2.058       3.219     -47.774
      4647.492       2.058       3.221     -47.770
      4647.992       2.059       3.222     -47.254
      4648.492       2.059       3.223     -47.466
      4648.992       2.059       3.224     -47.763
      4649.492       2.060       3.351     -47.916
      4649.992       2.059       3.353     -48.272
      4650.492       1.935       3.354     -48.269
      4650.992       1.935       3.355     -48.266
      4651.492       1.935       3.356     -48.264
      4651.992       2.061       3.357     -48.261
      4652.492       2.233       3.359     -47.744
      4652.992       2.690       3.360     -47.536
      4653.492       2.948       3.361     -46.711
      4653.992       3.380       3.362     -46.708
      4654.492       3.822       3.238     -46.705
      4654.992       4.164       3.239     -46.703
      4655.492       4.451       3.240     -46.700
      4655.992       4.605       3.242     -46.727
      4656.492       4.828       3.243     -47.209
      4656.992       4.829       3.244     -47.206
      4657.492       4.829       3.120     -47.204
      4657.992       4.829       3.121     -47.715
      4658.492       4.653       3.122     -47.713
      4658.992       4.453       3.123     -47.710
      4659.492       4.293       3.125     -47.707
      4659.992       3.951       3.126     -47.704
      4660.492       3.682       3.127     -47.681
      4660.992       3.450       3.128     -47.185
      4661.492       3.448       3.130     -46.668
      4661.992       3.325       3.131     -46.666
      4662.492       3.199       3.132     -46.663
      4662.992       3.074       3.133     -46.529
      4663.492       2.949       3.135     -46.143
      4663.992       2.949       3.136     -46.141
      4664.492       2.824       3.137     -46.138
      4664.992       2.824       3.013     -46.123
      4665.492       2.762       3.014     -45.619
      4665.992       2.699       3.015     -45.616
      4666.492       2.574       2.890     -45.614
      4666.992       2.574       2.766     -45.611
      4667.492       2.449       2.642     -45.608
      4667.992       2.450       2.643     -45.605
      4668.492       2.324       2.644     -45.603
      4668.992       2.325       2.520     -45.086
      4669.492       2.325       2.521     -45.084
      4669.992       2.236       2.522     -44.848
      4670.492       2.200       2.524     -44.564
      4670.992       2.200       2.525     -44.561
      4671.492       2.201       2.526     -44.044
      4671.992       2.075       2.402     -44.042
      4672.492       2.076       2.403     -44.039
      4672.992       2.076       2.404     -44.037
      4673.492       2.076       2.405     -44.033
      4673.992       2.077       2.407     -44.031
      4674.492       2.203       2.408     -44.029
      4674.992       2.203       2.409     -44.026
      4675.492       2.204       2.410     -44.023
      4675.992       2.204       2.412     -44.020
      4676.492       2.204       2.413     -44.018
      4676.992       2.205       2.414     -44.015
      4677.492       2.079       2.415     -44.013
      4677.992       2.080       2.417     -44.010
      4678.492       2.080       2.418     -44.008
      4678.992       2.080       2.419     -44.005
      4679.492       2.081       2.420     -44.002
      4679.992       2.081       2.421     -43.999
      4680.492       1.956       2.423     -43.997
      4680.992       1.956       2.424     -43.994
      4681.492       1.956       2.425     -43.991
      4681.992       1.957       2.426     -43.989
      4682.492       1.957       2.428     -43.986
      4682.992       1.958       2.555     -43.984
      4683.492       1.832       2.556     -43.981
      4683.992       1.833       2.557     -43.978
      4684.492       1.833       2.558     -43.826
      4684.992       1.833       2.559     -43.459
      4685.492       1.834       2.561     -43.456
