~Version Information
 VERS.                 2.0: 
 WRAP.                  NO: 
 END.                PETRA:IHS Markit
~Well Information Block
#MNEM.UNIT       Data Type    Information
#---------    -------------   ---------------------------------
 STRT.F           3901.4922:
 STOP.F           7683.4846:
 STEP.F              0.5000:
 NULL.              -999.25:
 COMP.                           : COMPANY
 FLD.       CAYUGA               : FIELD
 LOC.                            : LOCATION
 DATE.      24-JUN-2024          : DATE
 WELL.                           : Well Name
 LABL.      42001004370000                   : Well Label
 APIN.      42001004370000       : API Number
 UWI.       42001004370000       : Unique Well Number
 NUMB.      6-B                  : Well Number
 OPER.      YOUNG MARSHALL R DRL : Operator Name
 LEAS.      L C BILLETT          : Lease Name
~Parameter Block
#MNEM.UNIT           VALUE            Description
#---------    --------------------   ---------------------------------
~Curve Information Block
#MNEM.UNIT      API CODE      Curve Description
#---------    -------------   ---------------------------------
 DEPT.F                   00 000 00 00: Depth (MD)
 IND.OHM.M                00 001 00 00: Induction Resistivity
 SN18.OHM.M               00 002 00 00: 18-in Short Normal
 SP.MV                    00 003 00 00: Spontaneous Potential
~A        DEPT         IND        SN18          SP
# ...
      6883.992     -999.25      10.760     -44.672
      6884.492     -999.25      11.449     -45.236
      6884.992     -999.25      11.980     -46.221
      6885.492     -999.25      12.305     -46.223
      6885.992     -999.25       7.912     -46.227
      6886.492     -999.25       6.013     -46.230
      6886.992     -999.25       4.395     -46.233
      6887.492     -999.25       3.679     -45.722
      6887.992     -999.25       3.006     -45.210
      6888.492     -999.25       2.849     -44.700
      6888.992     -999.25       2.495     -44.703
      6889.492     -999.25       2.479     -44.192
      6889.992     -999.25       2.362     -44.195
      6890.492     -999.25       2.359     -44.198
      6890.992     -999.25       2.535     -44.201
      6891.492     -999.25       2.728     -44.204
      6891.992     -999.25       2.851     -44.207
      6892.492     -999.25       2.846     -44.210
      6892.992     -999.25       2.842     -44.728
      6893.492     -999.25       2.838     -44.730
      6893.992     -999.25       2.961     -44.988
      6894.492     -999.25       3.333     -45.251
      6894.992     -999.25       3.832     -45.768
      6895.492     -999.25       4.488     -45.771
      6895.992     -999.25       5.332     -45.774
      6896.492     -999.25       6.321     -45.778
      6896.992     -999.25       7.083     -45.704
      6897.492     -999.25       6.931     -45.269
      6897.992     -999.25       6.322     -45.256
      6898.492     -999.25       5.797     -44.761
      6898.992     -999.25       5.183     -44.764
      6899.492     -999.25       5.557     -44.253
      6899.992     -999.25       6.332     -44.257
      6900.492     -999.25       7.936     -44.260
      6900.992     -999.25      11.324     -44.777
      6901.492     -999.25      13.456     -44.780
      6901.992     -999.25      15.296     -45.812
      6902.492     -999.25      15.508     -45.814
      6902.992     -999.25      14.806     -45.817
      6903.492     -999.25      14.070     -45.821
      6903.992     -999.25      13.312     -45.648
      6904.492     -999.25      12.584     -44.799
      6904.992     -999.25      11.922     -44.686
      6905.492     -999.25      11.508     -44.290
      6905.992     -999.25      11.160     -43.779
      6906.492     -999.25      10.723     -43.783
      6906.992     -999.25       9.896     -43.785
      6907.492     -999.25       9.511     -43.789
      6907.992     -999.25       9.201     -43.792
      6908.492     -999.25       8.755     -43.795
      6908.992     -999.25       8.328     -43.798
      6909.492     -999.25       7.867     -43.801
      6909.992     -999.25       7.330     -43.804
      6910.492     -999.25       6.980     -44.321
      6910.992     -999.25       6.994     -44.325
      6911.492     -999.25       8.103     -44.328
      6911.992     -999.25       8.859     -44.331
      6912.492     -999.25       9.411     -44.334
      6912.992     -999.25       9.349     -44.491
      6913.492     -999.25       8.492     -44.854
      6913.992     -999.25       5.446     -44.952
      6914.492     -999.25       4.225     -45.889
      6914.992     -999.25       3.680     -45.927
      6915.492     -999.25       3.285     -46.409
      6915.992     -999.25       3.044     -46.412
      6916.492     -999.25       2.789     -46.415
      6916.992     -999.25       2.730     -45.904
      6917.492     -999.25       2.530     -45.762
      6917.992     -999.25       2.401     -45.396
      6918.492     -999.25       2.397     -45.399
      6918.992     -999.25       2.520     -45.403
      6919.492     -999.25       2.641     -45.405
      6919.992     -999.25       2.763     -45.661
      6920.492     -999.25       2.885     -45.925
      6920.992     -999.25       3.132     -45.928
      6921.492     -999.25       3.685     -45.932
      6921.992     -999.25       4.632     -45.420
      6922.492     -999.25       7.706     -45.424
      6922.992     -999.25       9.775     -44.912
      6923.492     -999.25      10.425     -44.916
      6923.992     -999.25      10.144     -44.919
      6924.492     -999.25       7.282     -44.922
      6924.992     -999.25       5.111     -44.925
      6925.492     -999.25       4.731     -44.928
      6925.992     -999.25       4.550     -44.931
      6926.492     -999.25       4.221     -44.420
      6926.992     -999.25       3.892     -43.909
      6927.492     -999.25       3.711     -43.912
      6927.992     -999.25       4.403     -43.916
      6928.492     -999.25       5.964     -43.918
      6928.992     -999.25       7.167     -43.921
      6929.492     -999.25      10.111     -43.925
      6929.992     -999.25      13.491     -43.928
      6930.492     -999.25      16.399     -43.931
      6930.992     -999.25      17.252     -43.419
      6931.492     -999.25      16.802     -43.423
      6931.992     -999.25      16.113     -43.426
      6932.492     -999.25      15.546     -43.429
      6932.992     -999.25      14.598     -43.946
      6933.492     -999.25      13.822     -43.949
      6933.992     -999.25      12.837     -43.952
      6934.492     -999.25      11.321     -44.118
      6934.992     -999.25       9.998     -44.473
      6935.492     -999.25       8.801     -45.093
      6935.992     -999.25       7.819     -46.022
      6936.492     -999.25       6.280     -46.583
      6936.992     -999.25       5.361     -47.056
      6937.492     -999.25       4.388     -47.573
      6937.992     -999.25       3.619     -48.090
      6938.492     -999.25       2.880     -48.093
      6938.992     -999.25       2.618     -47.944
      6939.492     -999.25       2.741     -47.585
      6939.992     -999.25       2.987     -47.588
      6940.492     -999.25       3.266     -47.592
      6940.992     -999.25       3.733     -47.560
      6941.492     -999.25       4.123     -47.083
      6941.992     -999.25       4.480     -47.087
      6942.492     -999.25       4.606     -47.090
      6942.992     -999.25       4.976     -47.093
      6943.492     -999.25       4.845     -47.096
      6943.992     -999.25       4.548     -47.099
      6944.492     -999.25       4.335     -47.616
      6944.992     -999.25       4.080     -47.620
      6945.492     -999.25       3.950     -47.622
      6945.992     -999.25       3.947     -47.625
      6946.492     -999.25       3.943     -48.143
      6946.992     -999.25       3.814     -48.146
      6947.492     -999.25       3.684     -48.149
      6947.992     -999.25       3.555     -48.152
      6948.492     -999.25       3.385     -47.641
      6948.992     -999.25       3.045     -47.572
      6949.492     -999.25       2.889     -47.133
      6949.992     -999.25       2.660     -47.136
      6950.492     -999.25       2.531     -47.139
      6950.992     -999.25       2.652     -46.628
      6951.492     -999.25       2.775     -46.631
      6951.992     -999.25       3.433     -46.634
      6952.492     -999.25       4.526     -46.516
      6952.992     -999.25       6.000     -46.126
      6953.492     -999.25       7.910     -46.129
      6953.992     -999.25       8.984     -46.133
      6954.492     -999.25       9.787     -45.621
      6954.992     -999.25      10.160     -45.624
      6955.492     -999.25       9.025     -45.113
      6955.992     -999.25       7.766     -45.116
      6956.492     -999.25       5.800     -44.605
      6956.992     -999.25       4.994     -44.497
      6957.492     -999.25       4.614     -44.097
      6957.992     -999.25       4.484     -43.072
      6958.492     -999.25       4.333     -42.562
      6958.992     -999.25       4.476     -42.564
      6959.492     -999.25       4.613     -42.567
      6959.992     -999.25       5.286     -42.571
      6960.492     -999.25       7.103     -42.574
      6960.992     -999.25       8.551     -42.577
      6961.492     -999.25      10.487     -42.580
      6961.992     -999.25      12.436     -42.583
