~Version Information
 VERS.                 2.0: 
 WRAP.                  NO: 
 END.                PETRA:IHS Markit
~Well Information Block
#MNEM.UNIT       Data Type    Information
#---------    -------------   ---------------------------------
 STRT.F           3901.4922:
 STOP.F           7683.4846:
 STEP.F              0.5000:
 NULL.              -999.25:
 COMP.                           : COMPANY
 FLD.       CAYUGA               : FIELD
 LOC.                            : LOCATION
 DATE.      24-JUN-2024          : DATE
 WELL.                           : Well Name
 LABL.      42001004370000                   : Well Label
 APIN.      42001004370000       : API Number
 UWI.       42001004370000       : Unique Well Number
 NUMB.      6-B                  : Well Number
 OPER.      YOUNG MARSHALL R DRL : Operator Name
 LEAS.      L C BILLETT          : Lease Name
~Parameter Block
#MNEM.UNIT           VALUE            Description
#---------    --------------------   ---------------------------------
~Curve Information Block
#MNEM.UNIT      API CODE      Curve Description
#---------    -------------   ---------------------------------
 DEPT.F                   00 000 00 00: Depth (MD)
 IND.OHM.M                00 001 00 00: Induction Resistivity
 SN18.OHM.M               00 002 00 00: 18-in Short Normal
 SP.MV                    00 003 00 00: Spontaneous Potential
~A        DEPT         IND        SN18          SP
# ...
      5863.492     -999.25       9.008     -46.900
      5863.992     -999.25       8.882     -46.896
      5864.492     -999.25       8.881     -46.377
      5864.992     -999.25       9.131     -46.371
      5865.492     -999.25       9.460     -46.367
      5865.992     -999.25      10.008     -46.361
      5866.492     -999.25      10.532     -46.321
      5866.992     -999.25      11.137     -45.837
      5867.492     -999.25      11.519     -45.832
      5867.992     -999.25      11.883     -46.342
      5868.492     -999.25      12.139     -46.336
      5868.992     -999.25      12.390     -46.846
      5869.492     -999.25      12.417     -47.868
      5869.992     -999.25      12.388     -48.378
      5870.492     -999.25      12.135     -48.614
      5870.992     -999.25      11.623     -48.882
      5871.492     -999.25      11.191     -48.712
      5871.992     -999.25      11.002     -48.357
      5872.492     -999.25      11.048     -48.352
      5872.992     -999.25      11.880     -48.346
      5873.492     -999.25      12.624     -48.342
      5873.992     -999.25      14.013     -48.566
      5874.492     -999.25      15.193     -48.846
      5874.992     -999.25      16.649     -49.506
      5875.492     -999.25      17.151     -50.378
      5875.992     -999.25      17.527     -50.373
      5876.492     -999.25      17.652     -50.367
      5876.992     -999.25      17.842     -50.363
      5877.492     -999.25      18.655     -49.844
      5877.992     -999.25      19.614     -50.353
      5878.492     -999.25      21.417     -50.486
      5878.992     -999.25      22.672     -51.371
      5879.492     -999.25      22.405     -52.394
      5879.992     -999.25      20.912     -52.388
      5880.492     -999.25      19.833     -52.384
      5880.992     -999.25      19.276     -53.097
      5881.492     -999.25      19.150     -53.916
      5881.992     -999.25      19.400     -54.551
      5882.492     -999.25      20.160     -55.447
      5882.992     -999.25      20.950     -56.521
      5883.492     -999.25      21.784     -58.522
      5883.992     -999.25      22.451     -59.546
      5884.492     -999.25      22.568     -61.275
      5884.992     -999.25      21.941     -61.078
      5885.492     -999.25      21.027     -60.445
      5885.992     -999.25      20.769     -58.497
      5886.492     -999.25      20.648     -58.492
      5886.992     -999.25      20.521     -57.973
      5887.492     -999.25      20.521     -57.968
      5887.992     -999.25      20.645     -58.141
      5888.492     -999.25      20.822     -58.472
      5888.992     -999.25      21.146     -58.467
      5889.492     -999.25      21.145     -57.947
      5889.992     -999.25      21.080     -57.917
      5890.492     -999.25      20.766     -57.423
      5890.992     -999.25      20.640     -56.904
      5891.492     -999.25      20.513     -56.733
      5891.992     -999.25      20.483     -56.379
      5892.492     -999.25      20.009     -55.346
      5892.992     -999.25      18.964     -54.826
      5893.492     -999.25      17.745     -54.308
      5893.992     -999.25      17.116     -54.072
      5894.492     -999.25      16.136     -53.269
      5894.992     -999.25      15.356     -51.568
      5895.492     -999.25      14.278     -50.174
      5895.992     -999.25      11.082     -49.064
      5896.492     -999.25       8.331     -48.621
      5896.992     -999.25       6.683     -48.103
      5897.492     -999.25       6.054     -47.583
      5897.992     -999.25       5.928     -47.064
      5898.492     -999.25       5.927     -46.545
      5898.992     -999.25       5.800     -46.539
      5899.492     -999.25       5.799     -46.021
      5899.992     -999.25       5.673     -46.014
      5900.492     -999.25       5.546     -46.010
      5900.992     -999.25       5.545     -46.005
      5901.492     -999.25       5.419     -46.514
      5901.992     -999.25       5.292     -46.509
      5902.492     -999.25       5.126     -46.504
      5902.992     -999.25       5.039     -47.013
      5903.492     -999.25       4.912     -47.007
      5903.992     -999.25       4.786     -47.003
      5904.492     -999.25       4.659     -46.998
      5904.992     -999.25       4.533     -47.507
      5905.492     -999.25       4.406     -47.502
      5905.992     -999.25       4.405     -46.982
      5906.492     -999.25       4.404     -46.978
      5906.992     -999.25       4.403     -46.972
      5907.492     -999.25       4.402     -46.967
      5907.992     -999.25       4.527     -46.448
      5908.492     -999.25       4.526     -46.443
      5908.992     -999.25       4.651     -46.438
      5909.492     -999.25       4.776     -46.946
      5909.992     -999.25       4.900     -46.942
      5910.492     -999.25       4.929     -46.937
      5910.992     -999.25       5.024     -47.446
      5911.492     -999.25       5.023     -47.441
      5911.992     -999.25       5.148     -47.949
      5912.492     -999.25       5.272     -47.945
      5912.992     -999.25       5.397     -47.939
      5913.492     -999.25       5.522     -47.934
      5913.992     -999.25       5.521     -47.929
      5914.492     -999.25       5.645     -47.924
      5914.992     -999.25       5.644     -47.919
      5915.492     -999.25       5.518     -47.400
      5915.992     -999.25       5.517     -47.395
      5916.492     -999.25       5.462     -46.875
      5916.992     -999.25       5.264     -46.871
      5917.492     -999.25       4.975     -46.351
      5917.992     -999.25       4.634     -45.832
      5918.492     -999.25       4.487     -45.827
      5918.992     -999.25       4.255     -45.307
      5919.492     -999.25       4.125     -44.789
      5919.992     -999.25       3.945     -44.268
      5920.492     -999.25       3.750     -44.264
      5920.992     -999.25       3.498     -43.745
      5921.492     -999.25       3.371     -43.740
      5921.992     -999.25       3.095     -43.735
      5922.492     -999.25       2.866     -43.215
      5922.992     -999.25       2.740     -43.725
      5923.492     -999.25       2.613     -43.719
      5923.992     -999.25       2.487     -43.714
      5924.492     -999.25       2.486     -43.195
      5924.992     -999.25       2.610     -43.190
      5925.492     -999.25       2.762     -43.702
      5925.992     -999.25       2.986     -43.702
      5926.492     -999.25       3.236     -43.702
      5926.992     -999.25       3.361     -43.702
      5927.492     -999.25       3.485     -43.702
      5927.992     -999.25       3.484     -44.216
      5928.492     -999.25       3.609     -44.216
      5928.992     -999.25       3.608     -44.216
      5929.492     -999.25       3.607     -44.216
      5929.992     -999.25       3.606     -44.216
      5930.492     -999.25       3.479     -44.216
      5930.992     -999.25       3.479     -44.216
      5931.492     -999.25       3.478     -43.982
      5931.992     -999.25       3.477     -43.702
      5932.492     -999.25       3.350     -43.702
      5932.992     -999.25       3.098     -43.702
      5933.492     -999.25       2.971     -44.216
      5933.992     -999.25       2.845     -44.216
      5934.492     -999.25       2.593     -44.216
      5934.992     -999.25       2.466     -44.216
      5935.492     -999.25       2.339     -44.730
      5935.992     -999.25       2.338     -45.244
      5936.492     -999.25       2.212     -45.244
      5936.992     -999.25       2.085     -45.758
      5937.492     -999.25       1.959     -45.758
      5937.992     -999.25       1.958     -45.758
      5938.492     -999.25       1.900     -45.758
      5938.992     -999.25       1.830     -45.758
      5939.492     -999.25       1.829     -45.758
      5939.992     -999.25       1.828     -45.758
      5940.492     -999.25       1.953     -45.244
      5940.992     -999.25       1.952     -45.244
      5941.492     -999.25       2.077     -45.244
