~Version Information
 VERS.                 2.0: 
 WRAP.                  NO: 
 END.                PETRA:IHS Markit
~Well Information Block
#MNEM.UNIT       Data Type    Information
#---------    -------------   ---------------------------------
 STRT.F           3901.4922:
 STOP.F           7683.4846:
 STEP.F              0.5000:
 NULL.              -999.25:
 COMP.                           : COMPANY
 FLD.       CAYUGA               : FIELD
 LOC.                            : LOCATION
 DATE.      24-JUN-2024          : DATE
 WELL.                           : Well Name
 LABL.      42001004370000                   : Well Label
 APIN.      42001004370000       : API Number
 UWI.       42001004370000       : Unique Well Number
 NUMB.      6-B                  : Well Number
 OPER.      YOUNG MARSHALL R DRL : Operator Name
 LEAS.      L C BILLETT          : Lease Name
~Parameter Block
#MNEM.UNIT           VALUE            Description
#---------    --------------------   ---------------------------------
~Curve Information Block
#MNEM.UNIT      API CODE      Curve Description
#---------    -------------   ---------------------------------
 DEPT.F                   00 000 00 00: Depth (MD)
 IND.OHM.M                00 001 00 00: Induction Resistivity
 SN18.OHM.M               00 002 00 00: 18-in Short Normal
 SP.MV                    00 003 00 00: Spontaneous Potential
~A        DEPT         IND        SN18          SP
# ...
      6098.992     -999.25       2.156     -46.023
      6099.492     -999.25       2.155     -46.025
      6099.992     -999.25       2.010     -46.026
      6100.492     -999.25       1.651     -46.028
      6100.992     -999.25       1.650     -45.516
      6101.492     -999.25       1.523     -45.517
      6101.992     -999.25       1.522     -45.519
      6102.492     -999.25       1.521     -45.007
      6102.992     -999.25       1.520     -45.008
      6103.492     -999.25       1.645     -45.010
      6103.992     -999.25       1.770     -45.189
      6104.492     -999.25       1.774     -45.528
      6104.992     -999.25       1.953     -46.044
      6105.492     -999.25       2.018     -46.045
      6105.992     -999.25       2.143     -46.047
      6106.492     -999.25       2.268     -45.535
      6106.992     -999.25       2.392     -45.536
      6107.492     -999.25       2.643     -45.024
      6107.992     -999.25       2.776     -45.026
      6108.492     -999.25       3.018     -44.870
      6108.992     -999.25       3.142     -44.515
      6109.492     -999.25       3.313     -44.517
      6109.992     -999.25       3.140     -44.519
      6110.492     -999.25       3.138     -44.520
      6110.992     -999.25       3.136     -44.522
      6111.492     -999.25       3.009     -44.523
      6111.992     -999.25       2.881     -44.525
      6112.492     -999.25       2.754     -44.013
      6112.992     -999.25       2.752     -44.014
      6113.492     -999.25       2.875     -44.016
      6113.992     -999.25       2.999     -44.018
      6114.492     -999.25       3.123     -44.020
      6114.992     -999.25       3.247     -44.021
      6115.492     -999.25       3.370     -44.263
      6115.992     -999.25       3.494     -44.539
      6116.492     -999.25       3.555     -44.541
      6116.992     -999.25       3.616     -45.057
      6117.492     -999.25       3.614     -45.572
      6117.992     -999.25       3.486     -46.088
      6118.492     -999.25       3.076     -46.090
      6118.992     -999.25       2.603     -46.092
      6119.492     -999.25       2.443     -46.608
      6119.992     -999.25       2.096     -46.609
      6120.492     -999.25       1.968     -46.611
      6120.992     -999.25       1.786     -46.613
      6121.492     -999.25       1.714     -46.615
      6121.992     -999.25       1.587     -46.102
      6122.492     -999.25       1.585     -46.104
      6122.992     -999.25       1.457     -46.105
      6123.492     -999.25       1.455     -45.593
      6123.992     -999.25       1.463     -45.595
      6124.492     -999.25       1.577     -45.082
      6124.992     -999.25       1.575     -45.084
      6125.492     -999.25       1.573     -44.571
      6125.992     -999.25       1.571     -44.574
      6126.492     -999.25       1.569     -44.575
      6126.992     -999.25       1.567     -44.577
      6127.492     -999.25       1.566     -44.578
      6127.992     -999.25       1.563     -44.580
      6128.492     -999.25       1.562     -44.582
      6128.992     -999.25       1.995     -45.275
      6129.492     -999.25       2.563     -46.642
      6129.992     -999.25       3.191     -48.303
      6130.492     -999.25       4.318     -50.245
      6130.992     -999.25       5.457     -51.328
      6131.492     -999.25       7.329     -52.305
      6131.992     -999.25      11.040     -52.306
      6132.492     -999.25      13.983     -52.308
      6132.992     -999.25      15.992     -52.309
      6133.492     -999.25      16.367     -52.154
      6133.992     -999.25      15.862     -51.799
      6134.492     -999.25      15.286     -50.772
      6134.992     -999.25      14.476     -50.260
      6135.492     -999.25      13.514     -50.261
      6135.992     -999.25      12.086     -49.749
      6136.492     -999.25      11.958     -49.237
      6136.992     -999.25      11.831     -49.238
      6137.492     -999.25      11.829     -49.240
      6137.992     -999.25      11.827     -49.242
      6138.492     -999.25      11.825     -49.244
      6138.992     -999.25      11.949     -49.245
      6139.492     -999.25      11.947     -49.247
      6139.992     -999.25      11.945     -49.262
      6140.492     -999.25      11.943     -49.764
      6140.992     -999.25      11.941     -49.766
      6141.492     -999.25      11.939     -50.282
      6141.992     -999.25      11.812     -50.284
      6142.492     -999.25      11.320     -49.771
      6142.992     -999.25      10.300     -49.773
      6143.492     -999.25       9.226     -49.261
      6143.992     -999.25       8.161     -48.748
      6144.492     -999.25       7.385     -48.750
      6144.992     -999.25       6.526     -48.532
      6145.492     -999.25       5.894     -48.239
      6145.992     -999.25       5.468     -48.241
      6146.492     -999.25       5.010     -48.243
      6146.992     -999.25       4.475     -48.149
      6147.492     -999.25       4.127     -47.732
      6147.992     -999.25       4.000     -47.734
      6148.492     -999.25       3.998     -47.735
      6148.992     -999.25       3.996     -47.737
      6149.492     -999.25       4.300     -47.739
      6149.992     -999.25       4.746     -47.741
      6150.492     -999.25       5.075     -47.742
      6150.992     -999.25       5.496     -47.744
      6151.492     -999.25       6.321     -47.746
      6151.992     -999.25       7.376     -48.262
      6152.492     -999.25       8.155     -48.263
      6152.992     -999.25       9.326     -48.265
      6153.492     -999.25      10.260     -48.781
      6153.992     -999.25      10.684     -48.783
      6154.492     -999.25      11.010     -49.299
      6154.992     -999.25      11.167     -49.814
      6155.492     -999.25      11.383     -50.330
      6155.992     -999.25      11.507     -50.332
      6156.492     -999.25      11.882     -50.334
      6156.992     -999.25      12.135     -50.335
      6157.492     -999.25      12.438     -50.556
      6157.992     -999.25      12.630     -50.853
      6158.492     -999.25      12.795     -50.855
      6158.992     -999.25      12.877     -50.856
      6159.492     -999.25      12.875     -50.858
      6159.992     -999.25      12.748     -50.860
      6160.492     -999.25      12.620     -51.376
      6160.992     -999.25      12.744     -51.637
      6161.492     -999.25      12.742     -51.893
      6161.992     -999.25      12.564     -52.094
      6162.492     -999.25      12.361     -52.411
      6162.992     -999.25      12.199     -52.412
      6163.492     -999.25      11.855     -52.414
      6163.992     -999.25      11.437     -52.416
      6164.492     -999.25      10.846     -51.904
      6164.992     -999.25      10.463     -51.377
      6165.492     -999.25      10.029     -50.639
      6165.992     -999.25       9.459     -50.366
      6166.492     -999.25       9.036     -49.675
      6166.992     -999.25       8.701     -49.341
      6167.492     -999.25       8.294     -48.829
      6167.992     -999.25       7.817     -48.831
      6168.492     -999.25       7.426     -48.832
      6168.992     -999.25       6.809     -48.320
      6169.492     -999.25       6.430     -48.322
      6169.992     -999.25       5.873     -48.323
      6170.492     -999.25       5.421     -47.811
      6170.992     -999.25       5.043     -47.298
      6171.492     -999.25       6.171     -47.300
      6171.992     -999.25       6.568     -47.302
      6172.492     -999.25       6.795     -47.304
      6172.992     -999.25       6.794     -47.305
      6173.492     -999.25       6.792     -47.307
      6173.992     -999.25       6.664     -47.823
      6174.492     -999.25       6.365     -48.339
      6174.992     -999.25       5.906     -48.855
      6175.492     -999.25       5.874     -48.856
      6175.992     -999.25       5.777     -48.344
      6176.492     -999.25       5.945     -48.346
      6176.992     -999.25       6.778     -48.348
