~Version Information
 VERS.                 2.0: 
 WRAP.                  NO: 
 END.                PETRA:IHS Markit
~Well Information Block
#MNEM.UNIT       Data Type    Information
#---------    -------------   ---------------------------------
 STRT.F           3901.4922:
 STOP.F           7683.4846:
 STEP.F              0.5000:
 NULL.              -999.25:
 COMP.                           : COMPANY
 FLD.       CAYUGA               : FIELD
 LOC.                            : LOCATION
 DATE.      24-JUN-2024          : DATE
 WELL.                           : Well Name
 LABL.      42001004370000                   : Well Label
 APIN.      42001004370000       : API Number
 UWI.       42001004370000       : Unique Well Number
 NUMB.      6-B                  : Well Number
 OPER.      YOUNG MARSHALL R DRL : Operator Name
 LEAS.      L C BILLETT          : Lease Name
~Parameter Block
#MNEM.UNIT           VALUE            Description
#---------    --------------------   ---------------------------------
~Curve Information Block
#MNEM.UNIT      API CODE      Curve Description
#---------    -------------   ---------------------------------
 DEPT.F                   00 000 00 00: Depth (MD)
 IND.OHM.M                00 001 00 00: Induction Resistivity
 SN18.OHM.M               00 002 00 00: 18-in Short Normal
 SP.MV                    00 003 00 00: Spontaneous Potential
~A        DEPT         IND        SN18          SP
# ...
      5156.992     -999.25      16.783     -63.561
      5157.492     -999.25      15.690     -63.503
      5157.992     -999.25      14.281     -61.992
      5158.492     -999.25      12.999     -61.467
      5158.992     -999.25      11.779     -59.912
      5159.492     -999.25      10.662     -58.870
      5159.992     -999.25       9.151     -57.669
      5160.492     -999.25       8.370     -56.787
      5160.992     -999.25       7.402     -56.261
      5161.492     -999.25       7.030     -57.274
      5161.992     -999.25       6.908     -57.263
      5162.492     -999.25       7.166     -57.764
      5162.992     -999.25       7.892     -57.751
      5163.492     -999.25       8.935     -57.224
      5163.992     -999.25       9.598     -57.210
      5164.492     -999.25      10.453     -56.525
      5164.992     -999.25      10.959     -56.670
      5165.492     -999.25      11.576     -57.274
      5165.992     -999.25      12.100     -58.700
      5166.492     -999.25      12.356     -60.789
      5166.992     -999.25      11.860     -63.300
      5167.492     -999.25      10.938     -65.860
      5167.992     -999.25      10.991     -67.820
      5168.492     -999.25      11.662     -69.433
      5168.992     -999.25      13.071     -70.450
      5169.492     -999.25      13.894     -69.406
      5169.992     -999.25      14.794     -68.779
      5170.492     -999.25      15.915     -67.837
      5170.992     -999.25      16.703     -66.755
      5171.492     -999.25      17.935     -65.754
      5171.992     -999.25      18.442     -65.229
      5172.492     -999.25      18.699     -63.674
      5172.992     -999.25      18.829     -63.146
      5173.492     -999.25      18.294     -62.462
      5173.992     -999.25      17.081     -61.577
      5174.492     -999.25      16.012     -61.051
      5174.992     -999.25      14.830     -60.522
      5175.492     -999.25      13.885     -59.483
      5175.992     -999.25      12.956     -58.953
      5176.492     -999.25      12.058     -58.429
      5176.992     -999.25      10.580     -57.388
      5177.492     -999.25       9.327     -56.860
      5177.992     -999.25       8.736     -56.847
      5178.492     -999.25       8.332     -56.833
      5178.992     -999.25       7.929     -56.821
      5179.492     -999.25       7.715     -55.264
      5179.992     -999.25       7.860     -53.711
      5180.492     -999.25       8.227     -54.209
      5180.992     -999.25       8.483     -55.227
      5181.492     -999.25       8.613     -56.969
      5181.992     -999.25       7.865     -58.799
      5182.492     -999.25       7.870     -60.485
      5182.992     -999.25       8.378     -63.400
      5183.492     -999.25       9.057     -65.739
      5183.992     -999.25       9.519     -68.515
      5184.492     -999.25      10.048     -66.880
      5184.992     -999.25      11.160     -64.889
      5185.492     -999.25      12.172     -64.364
      5185.992     -999.25      12.820     -63.111
      5186.492     -999.25      13.941     -62.281
      5186.992     -999.25      14.667     -62.269
      5187.492     -999.25      15.836     -62.770
      5187.992     -999.25      16.091     -64.397
      5188.492     -999.25      15.344     -65.313
      5188.992     -999.25      14.720     -65.855
      5189.492     -999.25      13.933     -66.831
      5189.992     -999.25      13.474     -66.304
      5190.492     -999.25      14.050     -64.327
      5190.992     -999.25      16.248     -62.164
      5191.492     -999.25      16.824     -60.302
      5191.992     -999.25      18.017     -59.053
      5192.492     -999.25      18.901     -59.041
      5192.992     -999.25      16.898     -60.055
      5193.492     -999.25      15.268     -60.596
      5193.992     -999.25      13.973     -61.571
      5194.492     -999.25      12.640     -62.074
      5194.992     -999.25      12.488     -61.337
      5195.492     -999.25      12.650     -59.991
      5195.992     -999.25      13.439     -58.950
      5196.492     -999.25      14.168     -58.422
      5196.992     -999.25      14.549     -59.020
      5197.492     -999.25      14.860     -60.452
      5197.992     -999.25      14.937     -60.955
      5198.492     -999.25      14.777     -60.939
      5198.992     -999.25      14.193     -60.415
      5199.492     -999.25      13.375     -59.374
      5199.992     -999.25      12.193     -59.874
      5200.492     -999.25      11.665     -60.528
      5200.992     -999.25      10.570     -60.877
      5201.492     -999.25       9.821     -60.255
      5201.992     -999.25       9.277     -59.307
      5202.492     -999.25       9.454     -58.782
      5202.992     -999.25       9.804     -58.766
      5203.492     -999.25      10.595     -58.755
      5203.992     -999.25      10.726     -58.231
      5204.492     -999.25      10.480     -61.814
      5204.992     -999.25       9.856     -62.981
      5205.492     -999.25       9.556     -64.358
      5205.992     -999.25       9.615     -65.982
      5206.492     -999.25      10.200     -67.416
      5206.992     -999.25      11.259     -68.504
      5207.492     -999.25      12.212     -71.502
      5207.992     -999.25      13.531     -72.520
      5208.492     -999.25      14.170     -73.743
      5208.992     -999.25      14.545     -74.551
      5209.492     -999.25      14.425     -74.542
      5209.992     -999.25      14.303     -74.533
      5210.492     -999.25      14.309     -73.418
      5210.992     -999.25      15.035     -71.945
      5211.492     -999.25      16.581     -70.371
      5211.992     -999.25      17.621     -68.609
      5212.492     -999.25      18.099     -67.294
      5212.992     -999.25      17.852     -65.575
      5213.492     -999.25      16.525     -64.192
      5213.992     -999.25      12.209     -62.541
      5214.492     -999.25      11.140     -61.090
      5214.992     -999.25      10.084     -59.984
      5215.492     -999.25       9.814     -58.245
      5215.992     -999.25       9.591     -56.953
      5216.492     -999.25       9.344     -56.753
      5216.992     -999.25       9.224     -56.422
      5217.492     -999.25       9.103     -55.386
      5217.992     -999.25       8.982     -54.863
      5218.492     -999.25       8.988     -54.282
      5218.992     -999.25       8.962     -53.817
      5219.492     -999.25       8.622     -52.782
      5219.992     -999.25       7.967     -52.774
      5220.492     -999.25       6.748     -51.737
      5220.992     -999.25       6.375     -51.066
      5221.492     -999.25       5.823     -50.177
      5221.992     -999.25       5.380     -49.574
      5222.492     -999.25       5.221     -48.618
      5222.992     -999.25       4.888     -48.097
      5223.492     -999.25       4.893     -48.088
      5223.992     -999.25       4.772     -48.594
      5224.492     -999.25       4.903     -48.586
      5224.992     -999.25       4.970     -49.605
      5225.492     -999.25       5.415     -50.112
      5225.992     -999.25       5.639     -50.102
      5226.492     -999.25       6.305     -50.133
      5226.992     -999.25       6.969     -50.601
      5227.492     -999.25       7.446     -50.592
      5227.992     -999.25       7.968     -51.100
      5228.492     -999.25       8.462     -51.604
      5228.992     -999.25       8.717     -52.111
      5229.492     -999.25       8.973     -52.101
      5229.992     -999.25       8.979     -52.608
      5230.492     -999.25       8.693     -52.598
      5230.992     -999.25       8.487     -52.077
      5231.492     -999.25       8.217     -52.069
      5231.992     -999.25       7.869     -52.060
      5232.492     -999.25       7.740     -52.052
      5232.992     -999.25       7.501     -52.043
      5233.492     -999.25       7.506     -52.035
      5233.992     -999.25       7.684     -52.540
      5234.492     -999.25       8.145     -53.561
      5234.992     -999.25       8.619     -54.069
