~Version Information
 VERS.                 2.0: 
 WRAP.                  NO: 
 END.                PETRA:IHS Markit
~Well Information Block
#MNEM.UNIT       Data Type    Information
#---------    -------------   ---------------------------------
 STRT.F           3901.4922:
 STOP.F           7683.4846:
 STEP.F              0.5000:
 NULL.              -999.25:
 COMP.                           : COMPANY
 FLD.       CAYUGA               : FIELD
 LOC.                            : LOCATION
 DATE.      24-JUN-2024          : DATE
 WELL.                           : Well Name
 LABL.      42001004370000                   : Well Label
 APIN.      42001004370000       : API Number
 UWI.       42001004370000       : Unique Well Number
 NUMB.      6-B                  : Well Number
 OPER.      YOUNG MARSHALL R DRL : Operator Name
 LEAS.      L C BILLETT          : Lease Name
~Parameter Block
#MNEM.UNIT           VALUE            Description
#---------    --------------------   ---------------------------------
~Curve Information Block
#MNEM.UNIT      API CODE      Curve Description
#---------    -------------   ---------------------------------
 DEPT.F                   00 000 00 00: Depth (MD)
 IND.OHM.M                00 001 00 00: Induction Resistivity
 SN18.OHM.M               00 002 00 00: 18-in Short Normal
 SP.MV                    00 003 00 00: Spontaneous Potential
~A        DEPT         IND        SN18          SP
# ...
      6569.992     -999.25       7.516     -45.844
      6570.492     -999.25       6.625     -45.361
      6570.992     -999.25       6.221     -45.360
      6571.492     -999.25       5.992     -45.359
      6571.992     -999.25       5.990     -45.358
      6572.492     -999.25       5.988     -45.358
      6572.992     -999.25       5.986     -45.357
      6573.492     -999.25       5.859     -45.870
      6573.992     -999.25       5.731     -46.384
      6574.492     -999.25       5.567     -46.383
      6574.992     -999.25       5.224     -46.382
      6575.492     -999.25       4.926     -46.381
      6575.992     -999.25       4.466     -46.380
      6576.492     -999.25       4.088     -46.894
      6576.992     -999.25       3.897     -46.893
      6577.492     -999.25       3.833     -46.892
      6577.992     -999.25       3.830     -46.891
      6578.492     -999.25       3.828     -46.891
      6578.992     -999.25       3.701     -46.890
      6579.492     -999.25       3.699     -47.403
      6579.992     -999.25       3.571     -47.402
      6580.492     -999.25       3.443     -47.402
      6580.992     -999.25       3.436     -47.401
      6581.492     -999.25       3.314     -47.400
      6581.992     -999.25       3.437     -47.399
      6582.492     -999.25       3.561     -47.398
      6582.992     -999.25       3.684     -47.398
      6583.492     -999.25       3.808     -47.397
      6583.992     -999.25       4.057     -47.396
      6584.492     -999.25       3.930     -47.395
      6584.992     -999.25       3.802     -47.394
      6585.492     -999.25       3.804     -47.394
      6585.992     -999.25       4.109     -47.393
      6586.492     -999.25       4.173     -47.392
      6586.992     -999.25       4.045     -47.391
      6587.492     -999.25       3.666     -47.390
      6587.992     -999.25       3.539     -47.390
      6588.492     -999.25       3.411     -47.389
      6588.992     -999.25       3.409     -47.388
      6589.492     -999.25       3.407     -47.246
      6589.992     -999.25       3.405     -46.872
      6590.492     -999.25       3.403     -46.871
      6590.992     -999.25       3.275     -46.871
      6591.492     -999.25       3.273     -46.870
      6591.992     -999.25       3.271     -46.869
      6592.492     -999.25       3.424     -46.868
      6592.992     -999.25       3.644     -46.867
      6593.492     -999.25       3.656     -46.867
      6593.992     -999.25       3.766     -46.866
      6594.492     -999.25       3.638     -46.865
      6594.992     -999.25       3.817     -46.864
      6595.492     -999.25       4.262     -46.863
      6595.992     -999.25       4.720     -46.863
      6596.492     -999.25       5.137     -46.862
      6596.992     -999.25       5.413     -46.861
      6597.492     -999.25       5.636     -46.860
      6597.992     -999.25       5.634     -46.859
      6598.492     -999.25       5.631     -46.748
      6598.992     -999.25       6.007     -46.344
      6599.492     -999.25       6.363     -46.343
      6599.992     -999.25       6.505     -46.342
      6600.492     -999.25       6.338     -46.341
      6600.992     -999.25       6.124     -46.341
      6601.492     -999.25       6.122     -46.340
      6601.992     -999.25       6.497     -46.339
      6602.492     -999.25       6.631     -45.824
      6602.992     -999.25       6.869     -45.309
      6603.492     -999.25       6.993     -44.794
      6603.992     -999.25       7.775     -44.793
      6604.492     -999.25       8.497     -44.793
      6604.992     -999.25       9.886     -44.792
      6605.492     -999.25      10.568     -44.791
      6605.992     -999.25       9.450     -44.790
      6606.492     -999.25       8.991     -45.304
      6606.992     -999.25       8.864     -45.303
      6607.492     -999.25       8.862     -45.302
      6607.992     -999.25       8.860     -45.301
      6608.492     -999.25       9.208     -45.815
      6608.992     -999.25       9.986     -46.328
      6609.492     -999.25      10.648     -46.327
      6609.992     -999.25      11.364     -46.840
      6610.492     -999.25      11.886     -46.840
      6610.992     -999.25      11.988     -46.839
      6611.492     -999.25      11.074     -46.838
      6611.992     -999.25       9.537     -46.837
      6612.492     -999.25       8.464     -46.836
      6612.992     -999.25       6.574     -46.836
      6613.492     -999.25       5.068     -46.835
      6613.992     -999.25       4.530     -46.834
      6614.492     -999.25       4.185     -46.319
      6614.992     -999.25       3.932     -46.318
      6615.492     -999.25       3.678     -45.803
      6615.992     -999.25       3.551     -45.803
      6616.492     -999.25       3.489     -45.288
      6616.992     -999.25       3.295     -45.287
      6617.492     -999.25       3.042     -45.286
      6617.992     -999.25       2.914     -45.800
      6618.492     -999.25       2.755     -45.798
      6618.992     -999.25       2.533     -46.312
      6619.492     -999.25       2.531     -46.311
      6619.992     -999.25       2.529     -46.825
      6620.492     -999.25       2.655     -46.824
      6620.992     -999.25       2.961     -46.823
      6621.492     -999.25       3.277     -46.822
      6621.992     -999.25       3.865     -46.307
      6622.492     -999.25       4.404     -46.306
      6622.992     -999.25       4.682     -46.306
      6623.492     -999.25       5.028     -46.305
      6623.992     -999.25       5.167     -46.818
      6624.492     -999.25       4.897     -46.817
      6624.992     -999.25       4.768     -46.816
      6625.492     -999.25       4.460     -46.816
      6625.992     -999.25       4.258     -46.815
      6626.492     -999.25       4.092     -46.300
      6626.992     -999.25       3.874     -46.299
      6627.492     -999.25       3.850     -46.298
      6627.992     -999.25       3.741     -46.298
      6628.492     -999.25       3.608     -46.297
      6628.992     -999.25       3.358     -46.296
      6629.492     -999.25       3.354     -46.295
      6629.992     -999.25       3.225     -46.302
      6630.492     -999.25       3.347     -46.808
      6630.992     -999.25       3.371     -46.807
      6631.492     -999.25       3.717     -46.806
      6631.992     -999.25       3.840     -47.319
      6632.492     -999.25       3.961     -47.833
      6632.992     -999.25       4.084     -47.832
      6633.492     -999.25       4.206     -47.831
      6633.992     -999.25       4.202     -47.830
      6634.492     -999.25       4.073     -47.316
      6634.992     -999.25       3.818     -46.800
      6635.492     -999.25       3.689     -46.800
      6635.992     -999.25       3.559     -46.285
      6636.492     -999.25       3.557     -46.284
      6636.992     -999.25       3.553     -45.769
      6637.492     -999.25       3.675     -45.768
      6637.992     -999.25       3.835     -45.767
      6638.492     -999.25       4.170     -45.767
      6638.992     -999.25       4.314     -45.766
      6639.492     -999.25       4.791     -45.765
      6639.992     -999.25       5.305     -45.764
      6640.492     -999.25       6.094     -45.764
      6640.992     -999.25       6.917     -45.763
      6641.492     -999.25       7.710     -45.762
      6641.992     -999.25       8.291     -45.761
      6642.492     -999.25       8.692     -46.275
      6642.992     -999.25       9.164     -46.274
      6643.492     -999.25       8.899     -46.273
      6643.992     -999.25       8.528     -46.788
      6644.492     -999.25       8.149     -46.792
      6644.992     -999.25       7.419     -46.926
      6645.492     -999.25       6.634     -47.312
      6645.992     -999.25       6.221     -47.315
      6646.492     -999.25       6.250     -47.319
      6646.992     -999.25       6.514     -47.835
      6647.492     -999.25       7.122     -47.838
      6647.992     -999.25       7.747     -47.842
