~Version Information
 VERS.                 2.0: 
 WRAP.                  NO: 
 END.                PETRA:IHS Markit
~Well Information Block
#MNEM.UNIT       Data Type    Information
#---------    -------------   ---------------------------------
 STRT.F           2031.9959:
 STOP.F          10833.9783:
 STEP.F              0.5000:
 NULL.              -999.25:
 COMP.                           : COMPANY
 FLD.       PURT WEST            : FIELD
 LOC.                            : LOCATION
 DATE.      24-JUN-2024          : DATE
 WELL.                           : Well Name
 LABL.      42001313820000                   : Well Label
 APIN.      42001313820000       : API Number
 UWI.       42001313820000       : Unique Well Number
 NUMB.      1                    : Well Number
 OPER.      MARSHALL EXPL CO INC : Operator Name
 LEAS.      BROOKSHIRE           : Lease Name
~Parameter Block
#MNEM.UNIT           VALUE            Description
#---------    --------------------   ---------------------------------
 EKB.F                   626.0 : KB Elevation
~Curve Information Block
#MNEM.UNIT      API CODE      Curve Description
#---------    -------------   ---------------------------------
 DEPT.F                   00 000 00 00: Depth (MD)
 RES.OHM.M                00 001 00 00: Medium Resistivity
 SP.MV                    00 002 00 00: Spontaneous Potential
~A        DEPT         RES          SP
# ...
      8417.996      52.435     -33.251
      8418.496      43.021     -33.252
      8418.996      33.607     -33.253
      8419.496      24.193     -33.254
      8419.996      14.779     -33.256
      8420.496      10.034     -33.257
      8420.996      11.428     -33.258
      8421.496      12.822     -33.259
      8421.996      14.217     -33.260
      8422.496      15.611     -33.261
      8422.996      17.005     -33.262
      8423.496      18.399     -33.264
      8423.996      19.794     -33.265
      8424.496      31.540     -33.266
      8424.996      27.804     -32.450
      8425.496      24.067     -32.048
      8425.996      20.331     -32.050
      8426.496      16.595     -32.051
      8426.996      12.859     -32.052
      8427.496      10.002     -30.206
      8427.996       9.278     -29.796
      8428.496       8.555     -29.154
      8428.996       7.832     -29.011
      8429.496       7.108     -29.012
      8429.996       6.385     -28.527
      8430.496       5.661     -28.404
      8430.996       4.938     -28.406
      8431.496       6.972     -27.903
      8431.996       6.128     -27.798
      8432.496       5.580     -27.799
      8432.996       6.176     -27.800
      8433.496       6.772     -28.166
      8433.996       7.368     -28.630
      8434.496       9.241     -29.174
      8434.996      11.531     -29.698
      8435.496      13.820     -30.108
      8435.996      16.109     -30.478
      8436.496      18.398     -30.829
      8436.996      19.184     -31.180
      8437.496      17.249     -31.530
      8437.996      15.313     -31.881
      8438.496      13.378     -32.232
      8438.996      11.443     -32.582
      8439.496      12.308     -32.933
      8439.996      13.308     -33.284
      8440.496      14.309     -33.634
      8440.996      14.820     -33.985
      8441.496      23.376     -34.336
      8441.996      22.055     -34.686
      8442.496      20.735     -35.037
      8442.996      19.414     -35.388
      8443.496      18.093     -35.738
      8443.996      16.773     -36.089
      8444.496      15.452     -36.440
      8444.996      14.132     -36.790
      8445.496      13.268     -37.141
      8445.996      14.083     -37.492
      8446.496      18.649     -37.771
      8446.996      24.961     -38.028
      8447.496      24.394     -38.284
      8447.996      22.689     -38.541
      8448.496      20.983     -38.797
      8448.996      19.278     -39.053
      8449.496      17.572     -39.310
      8449.996      15.867     -39.566
      8450.496      14.162     -39.823
      8450.996      12.456     -40.080
      8451.496      11.768     -40.336
      8451.996      11.352     -40.593
      8452.496      10.750     -40.640
      8452.996      10.550     -40.641
      8453.496      10.238     -40.642
      8453.996      10.062     -40.643
      8454.496      10.062     -40.644
      8454.996      10.062     -40.646
      8455.496      10.062     -40.647
      8455.996      10.845     -40.648
      8456.496      13.922     -40.136
      8456.996      12.348     -39.316
      8457.496      10.955     -38.493
      8457.996      10.274     -37.853
      8458.496       9.331     -37.309
      8458.996       9.043     -36.823
      8459.496       8.664     -36.414
      8459.996       8.076     -35.782
      8460.496       7.747     -35.406
      8460.996       7.861     -34.586
      8461.496       7.974     -34.167
      8461.996       8.088     -33.961
      8462.496       8.201     -33.352
      8462.996       8.315     -32.743
      8463.496       7.565     -32.744
      8463.996       6.487     -32.136
      8464.496       5.409     -31.902
      8464.996       4.331     -31.528
      8465.496       3.494     -30.873
      8465.996       3.463     -30.314
      8466.496       3.607     -29.845
      8466.996       3.987     -29.366
      8467.496       4.323     -29.098
      8467.996       5.240     -28.853
      8468.496       6.231     -28.491
      8468.996       7.064     -28.492
      8469.496       8.096     -28.493
      8469.996      15.999     -27.884
      8470.496      14.992     -27.885
      8470.996      13.985     -27.886
      8471.496      12.977     -27.887
      8471.996      11.970     -27.889
      8472.496      10.963     -27.890
      8472.996       9.955     -27.891
      8473.496       8.948     -27.892
      8473.996       7.941     -27.893
      8474.496       6.934     -27.894
      8474.996       5.926     -27.895
      8475.496       4.919     -27.897
      8475.996       4.702     -28.075
      8476.496       4.702     -28.509
      8476.996       4.702     -28.510
      8477.496       4.918     -29.121
      8477.996       5.011     -29.517
      8478.496       5.704     -30.331
      8478.996       6.539     -30.953
      8479.496       8.373     -30.954
      8479.996      12.640     -31.866
      8480.496      15.844     -32.578
      8480.996      15.005     -33.394
      8481.496      14.165     -34.009
      8481.996      13.326     -34.822
      8482.496      12.487     -35.430
      8482.996      34.599     -35.839
      8483.496      29.581     -36.249
      8483.996      24.563     -36.869
      8484.496      19.545     -37.370
      8484.996      14.527     -37.777
      8485.496      13.976     -38.187
      8485.996      13.546     -38.277
      8486.496      13.116     -38.278
      8486.996      12.686     -38.889
      8487.496      12.256     -38.890
      8487.996      11.826     -38.891
      8488.496      11.455     -38.282
      8488.996      11.103     -36.998
      8489.496      10.507     -35.622
      8489.996       9.674     -34.966
      8490.496       9.479     -34.311
      8490.996       9.125     -33.655
      8491.496       8.758     -33.000
      8491.996       8.194     -32.344
      8492.496       8.117     -31.689
      8492.996       7.900     -31.034
      8493.496       7.899     -31.154
      8493.996       8.434     -31.337
      8494.496       9.374     -31.519
      8494.996      14.301     -31.701
      8495.496      13.752     -31.884
      8495.996      13.204     -32.066
      8496.496      12.655     -32.326
      8496.996      12.106     -32.872
      8497.496      11.557     -33.417
      8497.996      11.009     -33.850
      8498.496      10.460     -34.281
      8498.996       9.912     -34.711
      8499.496       9.363     -35.141
      8499.996       9.349     -35.571
      8500.496      14.744     -36.002
      8500.996      14.327     -36.432
      8501.496      13.910     -36.862
      8501.996      13.493     -37.292
      8502.496      13.076     -37.722
      8502.996      12.659     -38.153
      8503.496      19.919     -38.583
      8503.996      27.386     -39.013
      8504.496      34.852     -39.443
      8504.996      42.319     -39.588
      8505.496      49.785     -39.652
      8505.996      50.779     -39.717
      8506.496      46.687     -39.781
      8506.996      42.596     -39.845
      8507.496      38.504     -39.909
      8507.996      34.413     -39.973
      8508.496      30.321     -40.037
      8508.996      26.230     -40.101
      8509.496      22.138     -40.159
      8509.996      18.047     -40.160
      8510.496      13.955     -39.667
      8510.996       9.864     -38.895
      8511.496       8.020     -38.485
      8511.996       9.639     -37.726
      8512.496      11.258     -37.608
      8512.996      12.877     -37.122
      8513.496      14.496     -36.579
      8513.996      16.115     -35.904
      8514.496      16.814     -35.296
      8514.996      14.849     -35.297
      8515.496      12.883     -35.298
      8515.996      10.917     -35.299
      8516.496       8.951     -35.300
      8516.996       7.119     -35.301
      8517.496       7.630     -35.302
      8517.996       8.141     -35.304
      8518.496       8.653     -35.707
      8518.996       9.164     -36.711
      8519.496       9.675     -37.436
      8519.996      10.187     -37.945
      8520.496      21.185     -38.490
