~Version Information
 VERS.                 2.0: 
 WRAP.                  NO: 
 END.                PETRA:IHS Markit
~Well Information Block
#MNEM.UNIT       Data Type    Information
#---------    -------------   ---------------------------------
 STRT.F           1965.9961:
 STOP.F          11003.9780:
 STEP.F              0.5000:
 NULL.              -999.25:
 COMP.                           : COMPANY
 FLD.       WILDCAT              : FIELD
 LOC.                            : LOCATION
 DATE.      24-JUN-2024          : DATE
 WELL.                           : Well Name
 LABL.      42001312650000                   : Well Label
 APIN.      42001312650000       : API Number
 UWI.       42001312650000       : Unique Well Number
 NUMB.      1                    : Well Number
 OPER.      MAY PETROLEUM INC    : Operator Name
 LEAS.      COOK R R             : Lease Name
~Parameter Block
#MNEM.UNIT           VALUE            Description
#---------    --------------------   ---------------------------------
 EKB.F                   595.0 : KB Elevation
~Curve Information Block
#MNEM.UNIT      API CODE      Curve Description
#---------    -------------   ---------------------------------
 DEPT.F                   00 000 00 00: Depth (MD)
 RES.OHM.M                00 001 00 00: Medium Resistivity
 SP.MV                    00 002 00 00: Spontaneous Potential
~A        DEPT         RES          SP
# ...
      6188.996       4.527       0.600
      6189.496       4.906       0.780
      6189.996       5.285       0.961
      6190.496       5.665       1.141
      6190.996       5.920       1.321
      6191.496       5.564       1.501
      6191.996       5.208       1.219
      6192.496       4.852       0.726
      6192.996       4.496       0.233
      6193.496       4.140      -0.260
      6193.996       3.784      -0.753
      6194.496       3.428      -1.246
      6194.996       3.072      -1.739
      6195.496       3.575      -2.232
      6195.996       4.397      -2.725
      6196.496       5.219      -3.218
      6196.996       6.041      -3.711
      6197.496       6.862      -3.970
      6197.996       7.684      -3.970
      6198.496       7.709      -3.969
      6198.996       7.289      -3.969
      6199.496       6.868      -3.969
      6199.996       6.448      -3.968
      6200.496       6.028      -3.968
      6200.996       5.607      -3.967
      6201.496       5.187      -3.967
      6201.996       4.767      -3.966
      6202.496       5.214      -3.966
      6202.996       5.721      -3.966
      6203.496       6.227      -3.965
      6203.996       6.733      -3.965
      6204.496       7.239      -4.092
      6204.996       7.745      -4.378
      6205.496       7.297      -4.813
      6205.996       6.021      -5.082
      6206.496       4.745      -5.237
      6206.996       3.469      -6.217
      6207.496       3.150      -7.050
      6207.996       2.952      -7.365
      6208.496       2.754      -8.760
      6208.996       2.557      -9.582
      6209.496       2.359     -10.117
      6209.996       4.090     -10.882
      6210.496       6.501     -11.191
      6210.996       8.913     -11.995
      6211.496      11.324     -13.003
      6211.996      13.736     -13.572
      6212.496      15.241     -14.939
      6212.996      14.176     -15.643
      6213.496      13.110     -16.764
      6213.996      12.045     -17.146
      6214.496      10.979     -18.505
      6214.996       9.914     -22.652
      6215.496       8.849     -26.390
      6215.996       7.783     -30.128
      6216.496       6.718     -33.866
      6216.996       5.652     -37.603
      6217.496       4.789     -41.185
      6217.996       4.407     -44.570
      6218.496       4.024     -47.954
      6218.996       3.642     -51.338
      6219.496       3.259     -54.722
      6219.996       2.877     -58.107
      6220.496       2.494     -59.173
      6220.996       2.112     -59.600
      6221.496       1.729     -60.027
      6221.996       1.347     -60.454
      6222.496       0.964     -60.881
      6222.996       0.638     -61.309
      6223.496       0.766     -61.736
      6223.996       0.894     -62.163
      6224.496       1.022     -62.590
      6224.996       1.150     -63.512
      6225.496       1.278     -63.512
      6225.996       1.406     -64.269
      6226.496       1.533     -64.363
      6226.996       1.661     -64.363
      6227.496       1.788     -64.362
      6227.996       1.405     -64.362
      6228.496       1.022     -62.906
      6228.996       0.639     -59.283
      6229.496       0.777     -55.661
      6229.996       1.081     -46.804
      6230.496       1.385     -35.700
      6230.996       1.689     -24.596
      6231.496       1.993     -26.305
      6231.996       2.297     -30.716
      6232.496       2.601     -35.127
      6232.996       2.905     -39.538
      6233.496       3.209     -43.949
      6233.996       3.513     -48.360
      6234.496       3.817     -52.255
      6234.996       4.121     -53.644
      6235.496       4.425     -55.032
      6235.996       4.424     -56.420
      6236.496       4.062     -57.809
      6236.996       3.700     -59.145
      6237.496       3.338     -59.673
      6237.996       2.977     -59.672
      6238.496       2.615     -59.672
      6238.996       2.253     -59.672
      6239.496       1.891     -59.671
      6239.996       1.529     -59.671
      6240.496       1.167     -59.670
      6240.996       1.084     -59.670
      6241.496       1.015     -59.669
      6241.996       0.946     -59.669
      6242.496       0.878     -59.803
      6242.996       0.809     -60.089
      6243.496       0.740     -60.565
      6243.996       0.690     -60.756
      6244.496       0.659     -60.944
      6244.996       0.627     -61.099
      6245.496       0.596     -61.517
      6245.996       0.564     -61.792
      6246.496       0.533     -61.792
      6246.996       0.484     -61.791
      6247.496       0.480     -62.028
      6247.996       0.454     -62.314
      6248.496       0.448     -62.599
      6248.996       0.448     -62.804
      6249.496       0.452     -62.994
      6249.996       0.478     -63.066
      6250.496       0.524     -63.065
      6250.996       0.900     -63.297
      6251.496       1.180     -63.866
      6251.996       1.459     -63.916
      6252.496       1.739     -63.916
      6252.996       2.018     -63.915
      6253.496       2.298     -63.915
      6253.996       2.577     -63.914
      6254.496       2.857     -63.914
      6254.996       3.136     -63.914
      6255.496       3.416     -63.913
      6255.996       3.695     -63.913
      6256.496       3.975     -63.912
      6256.996       3.749     -63.912
      6257.496       3.282     -63.911
      6257.996       2.815     -63.911
      6258.496       2.349     -63.911
      6258.996       1.882     -63.910
      6259.496       1.415     -63.910
      6259.996       1.068     -63.909
      6260.496       1.042     -63.793
      6260.996       1.016     -62.776
      6261.496       0.989     -62.631
      6261.996       0.963     -62.036
      6262.496       0.936     -61.778
      6262.996       0.909     -61.778
      6263.496       0.848     -61.575
      6263.996       0.786     -61.352
      6264.496       0.724     -60.502
      6264.996       0.663     -60.501
      6265.496       0.601     -60.501
      6265.996       0.595     -60.500
      6266.496       0.599     -60.500
      6266.996       0.604     -60.499
      6267.496       0.608     -60.784
      6267.996       0.613     -61.213
      6268.496       0.617     -61.354
      6268.996       0.622     -61.640
      6269.496       0.628     -61.772
      6269.996       0.634     -61.772
      6270.496       0.640     -61.771
      6270.996       0.645     -61.771
      6271.496       0.637     -61.770
      6271.996       0.626     -61.770
      6272.496       0.615     -61.769
      6272.996       0.604     -61.247
      6273.496       0.593     -56.177
      6273.996       0.582     -54.472
      6274.496       0.706     -52.767
      6274.996       0.902     -51.062
      6275.496       1.098     -49.357
      6275.996       1.294     -47.652
      6276.496       1.719     -45.947
      6276.996       2.168     -44.242
      6277.496       2.659     -42.345
      6277.996       3.266     -36.642
      6278.496       3.874     -30.938
      6278.996       4.481     -25.234
      6279.496       5.514     -19.530
      6279.996       6.600     -13.826
      6280.496       7.686      -8.123
      6280.996       8.125      -2.419
      6281.496       3.848      -5.481
      6281.996       3.068      -8.900
      6282.496       3.437     -12.318
      6282.996       3.805     -25.379
      6283.496       4.173     -32.580
      6283.996       4.542     -35.313
      6284.496       4.910     -38.047
      6284.996       5.278     -40.780
      6285.496       5.647     -43.513
      6285.996       6.015     -46.246
      6286.496       6.384     -48.980
      6286.996       6.752     -51.713
      6287.496       6.997     -54.167
      6287.996       6.237     -56.430
      6288.496       5.477     -58.694
      6288.996       4.716     -60.957
      6289.496       3.956     -63.220
      6289.996       3.196     -63.269
      6290.496       2.436     -61.528
      6290.996       1.675     -59.315
      6291.496       0.923     -56.848
