~Version Information
 VERS.                 2.0: 
 WRAP.                  NO: 
 END.                PETRA:IHS Markit
~Well Information Block
#MNEM.UNIT       Data Type    Information
#---------    -------------   ---------------------------------
 STRT.F           1965.9961:
 STOP.F          11003.9780:
 STEP.F              0.5000:
 NULL.              -999.25:
 COMP.                           : COMPANY
 FLD.       WILDCAT              : FIELD
 LOC.                            : LOCATION
 DATE.      24-JUN-2024          : DATE
 WELL.                           : Well Name
 LABL.      42001312650000                   : Well Label
 APIN.      42001312650000       : API Number
 UWI.       42001312650000       : Unique Well Number
 NUMB.      1                    : Well Number
 OPER.      MAY PETROLEUM INC    : Operator Name
 LEAS.      COOK R R             : Lease Name
~Parameter Block
#MNEM.UNIT           VALUE            Description
#---------    --------------------   ---------------------------------
 EKB.F                   595.0 : KB Elevation
~Curve Information Block
#MNEM.UNIT      API CODE      Curve Description
#---------    -------------   ---------------------------------
 DEPT.F                   00 000 00 00: Depth (MD)
 RES.OHM.M                00 001 00 00: Medium Resistivity
 SP.MV                    00 002 00 00: Spontaneous Potential
~A        DEPT         RES          SP
# ...
      7939.996       4.288     -20.920
      7940.496       4.054     -21.178
      7940.996       3.821     -21.619
      7941.496       3.587     -21.904
      7941.996       3.353     -22.027
      7942.496       3.119     -22.027
      7942.996       2.891     -22.026
      7943.496       2.682     -22.203
      7943.996       2.473     -22.525
      7944.496       2.264     -22.877
      7944.996       2.055     -22.877
      7945.496       1.845     -23.061
      7945.996       1.636     -23.725
      7946.496       1.427     -23.917
      7946.996       1.218     -24.254
      7947.496       1.125     -24.576
      7947.996       1.088     -24.971
      7948.496       1.051     -25.425
      7948.996       1.014     -25.425
      7949.496       0.978     -25.631
      7949.996       0.941     -25.983
      7950.496       0.904     -26.276
      7950.996       0.867     -26.275
      7951.496       0.830     -26.275
      7951.996       0.825     -26.274
      7952.496       1.554     -26.274
      7952.996       1.448     -26.273
      7953.496       1.342     -26.273
      7953.996       1.236     -26.212
      7954.496       1.130     -25.401
      7954.996       1.024     -24.609
      7955.496       0.917     -24.024
      7955.996       0.919     -23.151
      7956.496       1.170     -22.646
      7956.996       1.420     -22.356
      7957.496       1.670     -22.063
      7957.996       1.888     -21.773
      7958.496       2.076     -21.588
      7958.996       2.014     -21.587
      7959.496       1.884     -21.162
      7959.996       1.753     -21.162
      7960.496       1.623     -21.161
      7960.996       1.492     -21.161
      7961.496       1.362     -20.735
      7961.996       1.357     -20.735
      7962.496       1.636     -20.735
      7962.996       1.915     -20.734
      7963.496       2.194     -20.960
      7963.996       2.473     -21.245
      7964.496       2.843     -21.530
      7964.996       3.440     -22.197
      7965.496       4.038     -22.950
      7965.996       4.635     -23.600
      7966.496       5.232     -23.749
      7966.996       5.830     -24.134
      7967.496       6.427     -24.134
      7967.996       1.949     -24.558
      7968.496       1.845     -24.983
      7968.996       1.742     -24.983
      7969.496       1.637     -25.407
      7969.996       1.492     -25.407
      7970.496       1.307     -25.406
      7970.996       1.122     -24.968
      7971.496       0.937     -24.895
      7971.996       0.752     -24.822
      7972.496       0.567     -24.750
      7972.996       0.701     -24.677
      7973.496       0.871     -24.604
      7973.996       1.041     -24.532
      7974.496       1.194     -24.459
      7974.996       1.226     -24.386
      7975.496       1.258     -24.314
      7975.996       1.285     -24.241
      7976.496       1.277     -24.168
      7976.996       1.269     -24.096
      7977.496       1.260     -24.023
      7977.996       1.252     -23.950
      7978.496       1.244     -23.878
      7978.996       1.236     -23.805
      7979.496       1.223     -23.733
      7979.996       1.188     -23.646
      7980.496       1.167     -23.546
      7980.996       1.151     -23.446
      7981.496       1.151     -23.346
      7981.996       1.421     -23.246
      7982.496       1.618     -23.146
      7982.996       1.742     -23.046
      7983.496       1.836     -22.946
      7983.996       1.985     -22.846
      7984.496       2.195     -22.746
      7984.996       2.405     -22.646
      7985.496       2.602     -22.546
      7985.996       2.788     -22.446
      7986.496       2.974     -22.346
      7986.996       3.152     -22.246
      7987.496       2.905     -22.146
      7987.996       2.657     -22.046
      7988.496       2.409     -21.946
      7988.996       2.162     -21.846
      7989.496       1.914     -21.746
      7989.996       1.666     -21.645
      7990.496       1.419     -21.560
      7990.996       1.463     -21.560
      7991.496       1.631     -21.559
      7991.996       1.799     -21.559
      7992.496       1.967     -21.558
      7992.996       2.135     -21.558
      7993.496       2.303     -21.557
      7993.996       2.859     -21.557
      7994.496       3.443     -21.557
      7994.996       4.027     -21.556
      7995.496       4.611     -21.556
      7995.996       5.195     -21.555
      7996.496       5.167     -21.555
      7996.996       4.149     -21.554
      7997.496       3.132     -21.554
      7997.996       3.032     -21.553
      7998.496       4.262     -21.553
      7998.996       5.493     -21.812
      7999.496       6.723     -21.977
      7999.996       7.455     -21.977
      8000.496       6.580     -21.976
      8000.996       5.704     -21.976
      8001.496       4.829     -21.975
      8001.996       3.954     -21.975
      8002.496       3.079     -21.974
      8002.996       2.204     -21.974
      8003.496       1.329     -21.974
      8003.996       1.523     -21.973
      8004.496       1.852     -21.973
      8004.996       2.181     -21.972
      8005.496       2.510     -21.972
      8005.996       1.876     -21.971
      8006.496       1.654     -21.971
      8006.996       2.032     -21.971
      8007.496       2.443     -22.023
      8007.996       2.853     -22.309
      8008.496       3.264     -22.396
      8008.996       3.675     -22.396
      8009.496       3.226     -22.396
      8009.996       2.747     -22.820
      8010.496       2.268     -22.820
      8010.996       1.790     -22.967
      8011.496       1.311     -23.262
      8011.996       1.689     -23.828
      8012.496       2.084     -24.397
      8012.996       2.479     -24.533
      8013.496       2.742     -24.817
      8013.996       2.467     -24.943
      8014.496       2.193     -25.177
      8014.996       1.918     -25.795
      8015.496       1.643     -26.125
      8015.996       5.587     -26.274
      8016.496      13.918     -26.842
      8016.996      22.248     -27.410
      8017.496      30.579     -27.977
      8017.996      38.909     -28.344
      8018.496      47.240     -28.343
      8018.996      55.571     -28.343
      8019.496      63.901     -27.942
      8019.996      61.993     -27.728
      8020.496      53.127     -27.514
      8020.996      44.261     -27.300
      8021.496      35.395     -27.086
      8021.996      26.530     -26.872
      8022.496      17.664     -26.658
      8022.996       8.798     -26.444
      8023.496       1.499     -26.230
      8023.996       1.194     -26.016
      8024.496       0.889     -25.802
      8024.996       0.634     -25.588
      8025.496       0.759     -25.374
      8025.996       0.884     -25.386
      8026.496       0.949     -25.416
      8026.996       0.900     -25.446
      8027.496       0.852     -25.476
      8027.996       0.803     -25.506
      8028.496       0.755     -25.536
      8028.996       0.707     -25.566
      8029.496       0.658     -25.596
      8029.996       0.610     -25.626
      8030.496       0.561     -25.656
      8030.996       0.608     -25.686
      8031.496       0.820     -25.716
      8031.996       0.935     -25.746
      8032.496       0.835     -25.776
      8032.996       0.736     -25.779
      8033.496       0.948     -25.779
      8033.996       1.255     -25.778
      8034.496       1.229     -25.778
      8034.996       1.203     -25.777
      8035.496       1.177     -25.777
      8035.996       1.151     -25.349
      8036.496       1.126     -25.045
      8036.996       1.100     -24.924
      8037.496       1.074     -24.923
      8037.996       0.993     -24.923
      8038.496       0.890     -24.922
      8038.996       1.232     -24.922
      8039.496       1.726     -24.921
      8039.996       2.219     -24.921
      8040.496       2.713     -24.920
      8040.996       3.207     -24.920
      8041.496       3.700     -24.920
      8041.996       4.194     -24.919
      8042.496       4.420     -24.919
