~Version Information
 VERS.                 2.0: 
 WRAP.                  NO: 
 END.                PETRA:IHS Markit
~Well Information Block
#MNEM.UNIT       Data Type    Information
#---------    -------------   ---------------------------------
 STRT.F           1965.9961:
 STOP.F          11003.9780:
 STEP.F              0.5000:
 NULL.              -999.25:
 COMP.                           : COMPANY
 FLD.       WILDCAT              : FIELD
 LOC.                            : LOCATION
 DATE.      24-JUN-2024          : DATE
 WELL.                           : Well Name
 LABL.      42001312650000                   : Well Label
 APIN.      42001312650000       : API Number
 UWI.       42001312650000       : Unique Well Number
 NUMB.      1                    : Well Number
 OPER.      MAY PETROLEUM INC    : Operator Name
 LEAS.      COOK R R             : Lease Name
~Parameter Block
#MNEM.UNIT           VALUE            Description
#---------    --------------------   ---------------------------------
 EKB.F                   595.0 : KB Elevation
~Curve Information Block
#MNEM.UNIT      API CODE      Curve Description
#---------    -------------   ---------------------------------
 DEPT.F                   00 000 00 00: Depth (MD)
 RES.OHM.M                00 001 00 00: Medium Resistivity
 SP.MV                    00 002 00 00: Spontaneous Potential
~A        DEPT         RES          SP
# ...
      7321.996      15.951      -9.802
      7322.496      14.174      -9.802
      7322.996      13.183      -9.801
      7323.496      12.630      -9.801
      7323.996      12.077      -9.800
      7324.496      11.524      -9.800
      7324.996      10.809      -9.799
      7325.496      10.728      -9.799
      7325.996      11.904      -9.799
      7326.496      11.900      -9.798
      7326.996      10.401      -9.798
      7327.496       9.497      -9.797
      7327.996       9.012      -9.797
      7328.496       8.836      -9.796
      7328.996       8.655      -9.796
      7329.496       8.341      -9.925
      7329.996       8.043     -10.211
      7330.496       8.043     -10.350
      7330.996      10.050     -10.644
      7331.496      10.735     -10.644
      7331.996      13.737     -10.643
      7332.496      15.178     -10.643
      7332.996      16.619     -10.672
      7333.496      20.874     -11.241
      7333.996      25.332     -11.651
      7334.496      28.105     -11.918
      7334.996      25.196     -11.918
      7335.496      22.286     -11.917
      7335.996      19.377     -11.917
      7336.496      16.468     -12.129
      7336.996      13.558     -12.521
      7337.496      14.214     -12.768
      7337.996      15.801     -12.749
      7338.496      17.388     -12.704
      7338.996      18.975     -12.660
      7339.496      20.562     -12.615
      7339.996      22.149     -12.570
      7340.496      22.589     -12.525
      7340.996      21.504     -12.480
      7341.496      20.419     -12.435
      7341.996      19.333     -12.390
      7342.496      18.248     -12.346
      7342.996      17.163     -12.301
      7343.496      16.077     -12.256
      7343.996      14.992     -12.211
      7344.496      13.907     -12.166
      7344.996      12.821     -12.121
      7345.496      11.736     -12.077
      7345.996      10.738     -12.032
      7346.496       9.819     -11.987
      7346.996       8.899     -11.942
      7347.496       7.980     -11.897
      7347.996       7.061     -11.852
      7348.496       6.142     -11.807
      7348.996       5.222     -11.763
      7349.496       4.303     -11.718
      7349.996       3.384     -11.673
      7350.496       2.465     -11.628
      7350.996       3.684     -11.583
      7351.496       5.124     -11.538
      7351.996       6.564     -11.493
      7352.496       8.004     -11.547
      7352.996       9.444     -11.655
      7353.496      10.884     -11.762
      7353.996      12.324     -11.869
      7354.496      12.708     -11.977
      7354.996      11.835     -12.084
      7355.496      10.961     -12.191
      7355.996      11.937     -12.299
      7356.496      13.163     -12.406
      7356.996      14.390     -12.514
      7357.496      15.617     -12.621
      7357.996      16.843     -12.728
      7358.496      18.070     -12.979
      7358.996      19.296     -13.174
      7359.496      20.523     -13.598
      7359.996      21.270     -13.598
      7360.496      18.976     -13.798
      7360.996      16.682     -14.366
      7361.496      14.388     -14.904
      7361.996      12.094     -15.189
      7362.496       9.800     -15.648
      7362.996      10.690     -15.797
      7363.496      13.303     -16.785
      7363.996      15.915     -17.117
      7364.496      18.528     -17.308
      7364.996      21.141     -18.069
      7365.496      23.754     -18.699
      7365.996      26.366     -19.623
      7366.496      27.139     -20.401
      7366.996      25.481     -21.177
      7367.496      23.823     -23.899
      7367.996      22.164     -25.333
      7368.496      20.506     -26.768
      7368.996      18.848     -28.202
      7369.496      17.190     -29.636
      7369.996      15.531     -31.070
      7370.496      13.873     -32.504
      7370.996      16.770     -33.938
      7371.496      19.706     -35.373
      7371.996      22.642     -36.807
      7372.496      25.577     -36.478
      7372.996      28.513     -35.892
      7373.496      31.448     -35.307
      7373.996      34.384     -34.721
      7374.496      37.319     -34.136
      7374.996      37.345     -33.550
      7375.496      34.219     -32.965
      7375.996      31.093     -32.379
      7376.496      27.966     -31.879
      7376.996      24.840     -31.454
      7377.496      21.714     -30.623
      7377.996      18.588     -30.601
      7378.496      17.562     -30.601
      7378.996      16.791     -30.600
      7379.496      16.012     -30.600
      7379.996      15.456     -30.599
      7380.496      15.090     -30.599
      7380.996      14.880     -30.598
      7381.496      14.436     -30.598
      7381.996      14.094     -30.760
      7382.496      14.018     -30.951
      7382.996      14.018     -31.024
      7383.496      15.796     -31.023
      7383.996      21.093     -31.023
      7384.496      29.103     -31.023
      7384.996      32.781     -31.022
      7385.496      31.648     -31.022
      7385.996      30.515     -31.021
      7386.496      29.383     -31.021
      7386.996      28.250     -31.020
      7387.496      27.117     -31.020
      7387.996      25.985     -31.020
      7388.496      24.852     -31.019
      7388.996      23.719     -31.019
      7389.496      22.586     -31.018
      7389.996      21.454     -30.844
      7390.496      20.321     -30.165
      7390.996      19.335     -30.165
      7391.496      19.335     -29.739
      7391.996      28.744     -29.314
      7392.496      26.928     -28.173
      7392.996      25.112     -28.021
      7393.496      23.296     -27.435
      7393.996      21.551     -26.848
      7394.496      20.963     -25.481
      7394.996      25.051     -23.949
      7395.496      29.520     -23.364
      7395.996      42.109     -21.916
      7396.496      49.541     -21.330
      7396.996      50.576     -21.176
      7397.496      46.011     -19.948
      7397.996      41.445     -19.574
      7398.496      36.880     -17.259
      7398.996      32.315     -16.968
      7399.496      27.749     -16.521
      7399.996      23.184     -16.117
      7400.496      16.682     -16.062
      7400.996      17.576     -15.965
      7401.496      26.698     -15.868
      7401.996      35.820     -15.772
      7402.496      44.942     -15.675
      7402.996      54.063     -15.578
      7403.496      63.185     -15.481
      7403.996      72.307     -15.385
      7404.496      73.278     -15.288
      7404.996      64.474     -15.191
      7405.496      55.670     -15.094
      7405.996      46.867     -14.998
      7406.496      38.063     -14.901
      7406.996      29.260     -14.804
      7407.496      42.865     -14.707
      7407.996      59.558     -14.611
      7408.496      76.251     -14.514
      7408.996      92.944     -14.417
      7409.496      90.551     -14.407
      7409.996      83.055     -14.406
      7410.496      75.560     -14.406
      7410.996      68.064     -14.406
      7411.496      60.569     -14.405
      7411.996      53.073     -14.405
      7412.496      45.578     -14.404
      7412.996      38.082     -14.404
      7413.496      30.587     -14.403
      7413.996      23.091     -14.403
      7414.496      22.062     -14.215
      7414.996      26.783     -13.882
      7415.496      31.504     -13.550
      7415.996      36.224     -13.217
      7416.496      40.945     -12.884
      7416.996      45.666     -12.552
      7417.496      46.408     -12.219
      7417.996      40.953     -11.887
      7418.496      35.497     -11.554
      7418.996      30.041     -11.222
      7419.496      24.586     -10.994
      7419.996      19.130     -10.994
      7420.496      13.674     -10.994
      7420.996       9.942     -10.887
      7421.496      18.112     -10.594
      7421.996      22.665     -10.565
      7422.496      19.719     -10.565
      7422.996      16.774     -10.366
      7423.496      13.828     -10.139
      7423.996      10.883     -10.138
      7424.496       9.644     -10.138
