~Version Information
 VERS.                 2.0: 
 WRAP.                  NO: 
 END.                PETRA:IHS Markit
~Well Information Block
#MNEM.UNIT       Data Type    Information
#---------    -------------   ---------------------------------
 STRT.F           2031.9959:
 STOP.F          10833.9783:
 STEP.F              0.5000:
 NULL.              -999.25:
 COMP.                           : COMPANY
 FLD.       PURT WEST            : FIELD
 LOC.                            : LOCATION
 DATE.      24-JUN-2024          : DATE
 WELL.                           : Well Name
 LABL.      42001313820000                   : Well Label
 APIN.      42001313820000       : API Number
 UWI.       42001313820000       : Unique Well Number
 NUMB.      1                    : Well Number
 OPER.      MARSHALL EXPL CO INC : Operator Name
 LEAS.      BROOKSHIRE           : Lease Name
~Parameter Block
#MNEM.UNIT           VALUE            Description
#---------    --------------------   ---------------------------------
 EKB.F                   626.0 : KB Elevation
~Curve Information Block
#MNEM.UNIT      API CODE      Curve Description
#---------    -------------   ---------------------------------
 DEPT.F                   00 000 00 00: Depth (MD)
 RES.OHM.M                00 001 00 00: Medium Resistivity
 SP.MV                    00 002 00 00: Spontaneous Potential
~A        DEPT         RES          SP
# ...
     10065.996      48.354     -40.817
     10066.496      59.898     -41.546
     10066.996      71.443     -42.052
     10067.496      82.987     -42.468
     10067.996      94.532     -43.078
     10068.496     106.076     -43.080
     10068.996     117.621     -43.081
     10069.496     129.165     -43.083
     10069.996     140.710     -42.971
     10070.496     152.254     -42.563
     10070.996     140.656     -41.257
     10071.496     111.760     -41.010
     10071.996      82.863     -40.189
     10072.496      53.967     -39.434
     10072.996      25.070     -39.435
     10073.496      48.432     -39.436
     10073.996      93.709     -39.437
     10074.496     138.985     -39.439
     10074.996     184.261     -39.440
     10075.496     229.537     -39.676
     10075.996     274.814     -39.950
     10076.496     320.090     -40.563
     10076.996     365.366     -41.374
     10077.496     410.642     -42.036
     10077.996     455.918     -42.446
     10078.496     501.195     -43.141
     10078.996     546.471     -43.414
     10079.496     422.828     -43.688
     10079.996     285.613     -44.448
     10080.496     148.398     -45.260
     10080.996      11.183     -46.075
     10081.496       9.213     -46.410
     10081.996       8.324     -47.706
     10082.496       8.465     -48.519
     10082.996       9.298     -49.940
     10083.496      10.242     -50.425
     10083.996      15.702     -52.176
     10084.496      29.777     -54.689
     10084.996      47.308     -55.623
     10085.496      64.840     -56.440
     10085.996      70.462     -56.522
     10086.496      68.687     -56.523
     10086.996      66.912     -56.524
     10087.496      65.138     -55.916
     10087.996      63.363     -55.917
     10088.496      61.588     -55.352
     10088.996      61.354     -54.921
     10089.496      81.247     -54.323
     10089.996     108.176     -52.904
     10090.496     114.550     -52.069
     10090.996       8.075     -51.658
     10091.496      23.212     -51.352
     10091.996      38.348     -51.054
     10092.496      53.485     -51.055
     10092.996      68.621     -51.003
     10093.496      83.758     -49.838
     10093.996      98.894     -49.229
     10094.496     114.031     -49.226
     10094.996     129.167     -49.152
     10095.496     144.304     -49.079
     10095.996      34.088     -49.006
     10096.496       3.108     -48.932
     10096.996       3.183     -48.859
     10097.496       3.300     -48.786
     10097.996       3.819     -48.712
     10098.496       4.313     -48.639
     10098.996       9.891     -48.908
     10099.496      24.659     -49.226
     10099.996      39.427     -49.545
     10100.496      54.195     -49.864
     10100.996      68.963     -50.182
     10101.496      83.730     -50.501
     10101.996      98.498     -50.819
     10102.496      77.512     -51.138
     10102.996      12.723     -51.456
     10103.496      12.261     -51.775
     10103.996      21.029     -52.093
     10104.496      29.797     -52.412
     10104.996      38.564     -52.730
     10105.496      47.332     -53.267
     10105.996      56.100     -53.522
     10106.496      64.868     -53.523
     10106.996      73.636     -53.524
     10107.496      82.404     -54.135
     10107.996      91.172     -54.914
     10108.496      99.940     -55.353
     10108.996     108.707     -55.354
     10109.496     117.475     -56.148
     10109.996     126.243     -56.576
     10110.496     135.011     -56.577
     10110.996     116.803     -56.578
     10111.496      74.802     -56.580
     10111.996      33.542     -57.191
     10112.496      40.922     -57.192
     10112.996      48.303     -57.799
     10113.496      55.683     -59.020
     10113.996      63.063     -59.021
     10114.496      70.444     -59.022
     10114.996      77.824     -57.775
     10115.496      80.538     -56.954
     10115.996      62.960     -55.520
     10116.496      45.382     -54.700
     10116.996      28.540     -52.937
     10117.496      23.163     -52.446
     10117.996      17.786     -51.719
     10118.496      12.409     -51.721
     10118.996       7.915     -51.722
     10119.496       7.856     -51.723
     10119.996       7.797     -52.041
     10120.496       7.738     -52.856
     10120.996       8.114     -53.613
     10121.496       9.003     -54.023
     10121.996      10.352     -54.431
     10122.496      12.011     -54.775
     10122.996      13.266     -54.776
     10123.496      12.856     -54.778
     10123.996      12.063     -54.922
     10124.496      11.271     -55.389
     10124.996      10.478     -55.391
     10125.496      16.204     -55.392
     10125.996      15.046     -55.393
     10126.496      13.887     -55.394
     10126.996      12.729     -55.395
     10127.496      11.570     -55.396
     10127.996      14.658     -55.397
     10128.496      17.797     -55.399
     10128.996      19.634     -55.400
     10129.496      21.473     -54.185
     10129.996      21.148     -53.972
     10130.496      18.658     -53.365
     10130.996      16.168     -52.944
     10131.496      13.677     -52.240
     10131.996      11.376     -51.831
     10132.496      11.991     -51.752
     10132.996      12.943     -51.753
     10133.496      23.485     -51.522
     10133.996      28.288     -51.011
     10134.496      38.662     -49.931
     10134.996      57.891     -49.439
     10135.496      77.119     -48.971
     10135.996      96.348     -48.715
     10136.496     101.225     -48.716
     10136.996      90.288     -48.050
     10137.496      79.350     -47.642
     10137.996      68.413     -46.963
     10138.496      57.476     -46.519
     10138.996      46.539     -45.320
     10139.496      35.601     -45.067
     10139.996      24.664     -45.068
     10140.496     194.247     -45.069
     10140.996     365.431     -45.071
     10141.496     536.615     -44.465
     10141.996     707.799     -44.466
     10142.496      16.222     -44.468
     10142.996      12.876     -44.469
     10143.496       9.530     -44.470
     10143.996       8.063     -44.471
     10144.496       7.779     -44.472
     10144.996       7.496     -44.473
     10145.496       7.212     -44.474
     10145.996       7.061     -44.591
     10146.496       7.549     -44.998
     10146.996       8.135     -45.120
     10147.496       8.710     -45.695
     10147.996      11.466     -45.696
     10148.496      18.858     -45.697
     10148.996      26.251     -45.956
     10149.496      33.643     -46.542
     10149.996      41.036     -46.951
     10150.496      48.428     -47.359
     10150.996      55.821     -47.532
     10151.496      63.214     -47.873
     10151.996      70.606     -48.141
     10152.496      99.365     -48.627
     10152.996     148.340     -49.099
     10153.496     366.292     -49.653
     10153.996     462.117     -50.956
     10154.496     557.942     -51.427
     10154.996     653.767     -51.699
     10155.496     593.771     -52.305
     10155.996     482.080     -53.025
     10156.496     370.389     -53.026
     10156.996     258.699     -53.027
     10157.496     162.223     -53.746
     10157.996     197.882     -54.249
     10158.496     233.541     -54.857
     10158.996     269.200     -54.858
     10159.496     304.859     -55.186
     10159.996     340.518     -56.000
     10160.496     276.699     -56.691
     10160.996     161.828     -57.353
     10161.496      46.959     -57.909
     10161.996     153.643     -58.586
     10162.496     276.553     -58.995
     10162.996     399.462     -59.132
     10163.496     522.372     -59.743
     10163.996     645.282     -59.744
     10164.496     768.192     -59.745
     10164.996     891.101     -59.746
     10165.496    1014.011     -59.748
     10165.996    1136.921     -60.323
     10166.496    1259.831     -60.969
     10166.996    1382.741     -60.970
     10167.496    1505.650     -60.972
     10167.996    1465.357     -60.973
     10168.496    1258.465     -60.974
