~Version Information
 VERS.                 2.0: 
 WRAP.                  NO: 
 END.                PETRA:IHS Markit
~Well Information Block
#MNEM.UNIT       Data Type    Information
#---------    -------------   ---------------------------------
 STRT.F           2031.9959:
 STOP.F          10833.9783:
 STEP.F              0.5000:
 NULL.              -999.25:
 COMP.                           : COMPANY
 FLD.       PURT WEST            : FIELD
 LOC.                            : LOCATION
 DATE.      24-JUN-2024          : DATE
 WELL.                           : Well Name
 LABL.      42001313820000                   : Well Label
 APIN.      42001313820000       : API Number
 UWI.       42001313820000       : Unique Well Number
 NUMB.      1                    : Well Number
 OPER.      MARSHALL EXPL CO INC : Operator Name
 LEAS.      BROOKSHIRE           : Lease Name
~Parameter Block
#MNEM.UNIT           VALUE            Description
#---------    --------------------   ---------------------------------
 EKB.F                   626.0 : KB Elevation
~Curve Information Block
#MNEM.UNIT      API CODE      Curve Description
#---------    -------------   ---------------------------------
 DEPT.F                   00 000 00 00: Depth (MD)
 RES.OHM.M                00 001 00 00: Medium Resistivity
 SP.MV                    00 002 00 00: Spontaneous Potential
~A        DEPT         RES          SP
# ...
     10683.996      49.276     -60.971
     10684.496      53.351     -62.068
     10684.996      57.954     -63.970
     10685.496      62.558     -66.118
     10685.996      67.161     -68.146
     10686.496      58.171     -69.454
     10686.996      45.681     -69.456
     10687.496      38.604     -69.983
     10687.996      29.570     -70.677
     10688.496      25.436     -70.678
     10688.996      23.839     -71.289
     10689.496      21.813     -71.291
     10689.996      19.439     -71.292
     10690.496      17.179     -71.293
     10690.996      15.037     -71.904
     10691.496      12.686     -71.905
     10691.996      12.107     -71.906
     10692.496      11.298     -71.907
     10692.996      11.298     -70.210
     10693.496      12.052     -69.183
     10693.996      15.529     -68.156
     10694.496      17.495     -67.128
     10694.996      19.351     -66.101
     10695.496      21.513     -65.073
     10695.996      24.987     -64.046
     10696.496      23.704     -63.019
     10696.996      20.771     -61.991
     10697.496      19.267     -60.964
     10697.996      18.238     -59.937
     10698.496      17.798     -58.909
     10698.996      17.336     -58.150
     10699.496      17.299     -57.554
     10699.996      17.299     -56.958
     10700.496      17.830     -56.362
     10700.996      18.988     -55.766
     10701.496      18.987     -55.170
     10701.996      18.124     -54.574
     10702.496      17.622     -53.978
     10702.996      16.365     -52.438
     10703.496      15.966     -52.439
     10703.996      15.568     -51.830
     10704.496      14.621     -51.831
     10704.996      14.215     -51.529
     10705.496      13.951     -51.224
     10705.996      13.985     -51.016
     10706.496      24.948     -50.617
     10706.996      29.466     -50.618
     10707.496      29.027     -49.738
     10707.996      27.719     -49.400
     10708.496      25.745     -49.401
     10708.996      23.588     -48.331
     10709.496      22.115     -47.511
     10709.996      20.735     -46.690
     10710.496      19.112     -45.257
     10710.996      17.481     -44.436
     10711.496      16.418     -43.615
     10711.996      14.834     -42.795
     10712.496      14.281     -41.974
     10712.996      13.804     -41.153
     10713.496      13.031     -40.333
     10713.996      12.244     -40.277
     10714.496      11.458     -40.278
     10714.996      10.671     -40.279
     10715.496       9.885     -40.281
     10715.996       9.098     -40.282
     10716.496       8.312     -40.283
     10716.996      11.880     -40.284
     10717.496      15.489     -40.285
     10717.996      19.098     -40.286
     10718.496      22.706     -40.489
     10718.996      26.315     -41.102
     10719.496      29.792     -41.509
     10719.996      33.200     -41.510
     10720.496      36.609     -41.511
     10720.996      36.057     -41.513
     10721.496      33.818     -41.514
     10721.996      31.750     -41.515
     10722.496      29.832     -41.516
     10722.996      27.243     -41.517
     10723.496      22.932     -41.518
     10723.996      21.066     -41.519
     10724.496      19.110     -40.911
     10724.996      17.821     -40.912
     10725.496      17.076     -39.616
     10725.996      16.304     -39.088
     10726.496      15.429     -39.089
     10726.996      15.143     -39.090
     10727.496      15.059     -39.092
     10727.996      14.916     -39.093
     10728.496      14.916     -39.094
     10728.996      14.916     -39.095
     10729.496      14.915     -39.096
     10729.996      15.187     -39.161
     10730.496      16.154     -39.569
     10730.996      24.246     -40.248
     10731.496      31.037     -41.018
     10731.996      29.088     -41.563
     10732.496      27.273     -42.108
     10732.996      24.578     -42.150
     10733.496      23.829     -42.151
     10733.996      23.204     -42.152
     10734.496      23.147     -42.153
     10734.996      25.665     -42.154
     10735.496      28.141     -42.155
     10735.996      32.086     -41.959
     10736.496      33.656     -41.755
     10736.996      35.669     -41.552
     10737.496      35.923     -41.348
     10737.996      31.157     -41.145
     10738.496      29.239     -40.941
     10738.996      26.123     -40.738
     10739.496      24.491     -40.534
     10739.996      24.084     -40.331
     10740.496      34.842     -40.127
     10740.996      42.613     -39.923
     10741.496      41.644     -39.720
     10741.996      35.703     -39.516
     10742.496      31.222     -39.313
     10742.996      27.481     -39.083
     10743.496      23.569     -38.566
     10743.996      19.069     -38.049
     10744.496      17.419     -37.532
     10744.996      15.770     -37.015
     10745.496      14.120     -36.498
     10745.996      13.528     -35.981
     10746.496      14.928     -35.465
     10746.996      16.328     -34.948
     10747.496      17.727     -34.431
     10747.996      19.127     -33.914
     10748.496      20.527     -33.397
     10748.996      18.088     -32.880
     10749.496      16.707     -32.363
     10749.996      15.191     -31.846
     10750.496      15.047     -31.643
     10750.996      14.898     -31.224
     10751.496      15.799     -31.225
     10751.996      18.370     -30.406
     10752.496      19.064     -30.008
     10752.996      19.782     -30.009
     10753.496      20.705     -30.010
     10753.996      20.747     -30.012
     10754.496      20.553     -30.013
     10754.996      20.215     -30.014
     10755.496      19.712     -30.015
     10755.996      19.290     -30.016
     10756.496      19.049     -30.017
     10756.996      18.644     -30.018
     10757.496      18.074     -30.019
     10757.996      16.944     -30.020
     10758.496      16.090     -30.022
     10758.996      15.237     -30.023
     10759.496      14.383     -30.024
     10759.996      13.530     -30.025
     10760.496      12.676     -30.382
     10760.996      11.823     -30.637
     10761.496      11.537     -30.638
     10761.996      11.334     -30.639
     10762.496      11.131     -30.640
     10762.996      10.928     -30.642
     10763.496      10.725     -30.643
     10763.996      10.522     -30.644
     10764.496      10.319     -30.645
     10764.996      10.116     -30.646
     10765.496      10.310     -30.647
     10765.996      12.454     -30.648
     10766.496      14.232     -30.649
     10766.996      15.984     -30.651
     10767.496      15.319     -30.652
     10767.996      13.523     -30.653
     10768.496      12.658     -30.654
     10768.996      11.738     -30.655
     10769.496      11.307     -30.656
     10769.996      10.666     -30.657
     10770.496      10.754     -30.659
     10770.996      12.610     -30.660
     10771.496      14.627     -30.661
     10771.996      15.278     -30.662
     10772.496      15.783     -30.663
     10772.996      15.904     -30.664
     10773.496      15.058     -30.665
     10773.996      13.639     -30.666
     10774.496      12.371     -30.668
     10774.996      11.214     -31.000
     10775.496      10.076     -31.280
     10775.996       9.284     -31.748
     10776.496       7.918     -32.502
     10776.996       7.328     -32.503
     10777.496       7.013     -32.504
     10777.996       6.747     -32.505
     10778.496       6.476     -32.648
     10778.996       6.204     -33.055
     10779.496       5.933     -33.145
     10779.996       5.661     -33.419
     10780.496       5.390     -33.692
     10780.996       5.119     -34.338
     10781.496       4.848     -34.339
     10781.996       4.632     -34.857
     10782.496       4.241     -35.066
     10782.996       4.053     -35.562
     10783.496       3.978     -35.563
     10783.996       3.802     -35.564
     10784.496       3.750     -35.565
     10784.996       3.695     -35.566
     10785.496       3.521     -35.568
     10785.996       3.435     -35.569
     10786.496       3.355     -35.570
