~Version Information
 VERS.                 2.0: 
 WRAP.                  NO: 
 END.                PETRA:IHS Markit
~Well Information Block
#MNEM.UNIT       Data Type    Information
#---------    -------------   ---------------------------------
 STRT.F           1965.9961:
 STOP.F          11003.9780:
 STEP.F              0.5000:
 NULL.              -999.25:
 COMP.                           : COMPANY
 FLD.       WILDCAT              : FIELD
 LOC.                            : LOCATION
 DATE.      24-JUN-2024          : DATE
 WELL.                           : Well Name
 LABL.      42001312650000                   : Well Label
 APIN.      42001312650000       : API Number
 UWI.       42001312650000       : Unique Well Number
 NUMB.      1                    : Well Number
 OPER.      MAY PETROLEUM INC    : Operator Name
 LEAS.      COOK R R             : Lease Name
~Parameter Block
#MNEM.UNIT           VALUE            Description
#---------    --------------------   ---------------------------------
 EKB.F                   595.0 : KB Elevation
~Curve Information Block
#MNEM.UNIT      API CODE      Curve Description
#---------    -------------   ---------------------------------
 DEPT.F                   00 000 00 00: Depth (MD)
 RES.OHM.M                00 001 00 00: Medium Resistivity
 SP.MV                    00 002 00 00: Spontaneous Potential
~A        DEPT         RES          SP
# ...
      6703.996      16.828       1.782
      6704.496      17.650       1.747
      6704.996      16.583       1.711
      6705.496      15.516       1.675
      6705.996      14.449       1.640
      6706.496      13.382       1.604
      6706.996      12.315       1.570
      6707.496      11.248       1.539
      6707.996      10.181       1.508
      6708.496       9.114       1.478
      6708.996       8.047       1.447
      6709.496       7.788       1.417
      6709.996       9.255       1.386
      6710.496      10.723       1.355
      6710.996      12.190       1.325
      6711.496      13.657       1.294
      6711.996      15.124       1.263
      6712.496      16.592       1.233
      6712.996      18.059       1.202
      6713.496      19.408       1.171
      6713.996      20.551       1.141
      6714.496      21.687       1.110
      6714.996      21.270       1.079
      6715.496      20.852       1.049
      6715.996      20.435       1.018
      6716.496      20.017       0.987
      6716.996      19.600       0.957
      6717.496      19.182       0.926
      6717.996      18.765       0.895
      6718.496      18.574       0.865
      6718.996      18.797       0.834
      6719.496      19.604       0.803
      6719.996      21.182       0.773
      6720.496      23.161       0.742
      6720.996      24.418       0.566
      6721.496      27.098       0.375
      6721.996      25.036       0.316
      6722.496      22.695      -0.111
      6722.996      20.969      -0.111
      6723.496      19.244      -0.110
      6723.996      18.293      -0.110
      6724.496      18.131      -0.109
      6724.996      17.970      -0.118
      6725.496      17.809      -0.404
      6725.996      17.648      -0.741
      6726.496      17.758      -1.121
      6726.996      17.407      -1.559
      6727.496      17.022      -2.126
      6727.996      17.626      -2.887
      6728.496      19.363      -3.263
      6728.996      21.101      -3.509
      6729.496      22.839      -3.509
      6729.996      24.576      -3.708
      6730.496      26.401      -4.274
      6730.996      28.514      -4.357
      6731.496      30.626      -4.357
      6731.996      32.738      -4.356
      6732.496      34.850      -4.261
      6732.996      36.962      -3.675
      6733.496      39.074      -3.090
      6733.996      39.929      -2.604
      6734.496      34.933      -2.410
      6734.996      29.937      -2.198
      6735.496      24.941      -1.611
      6735.996      20.071      -1.374
      6736.496      19.668      -1.304
      6736.996      19.265      -0.948
      6737.496      18.862      -0.948
      6737.996      18.459      -0.947
      6738.496      18.056      -0.689
      6738.996      17.654      -0.521
      6739.496      17.251      -0.521
      6739.996      16.848      -0.521
      6740.496      17.259      -0.300
      6740.996      17.726      -0.095
      6741.496      18.194      -0.094
      6741.996      18.661      -0.092
      6742.496      19.609      -0.072
      6742.996      20.257      -0.052
      6743.496      19.823      -0.031
      6743.996      19.299      -0.011
      6744.496      18.774       0.010
      6744.996      18.250       0.030
      6745.496      17.725       0.050
      6745.996      17.201       0.071
      6746.496      16.676       0.091
      6746.996      16.152       0.112
      6747.496      15.627       0.132
      6747.996      15.103       0.152
      6748.496      15.072       0.173
      6748.996      16.252       0.193
      6749.496      17.432       0.214
      6749.996      17.709       0.234
      6750.496      16.410       0.254
      6750.996      15.110       0.275
      6751.496      13.811       0.295
      6751.996      12.512       0.316
      6752.496      11.213       0.336
      6752.996       9.913       0.343
      6753.496      11.083       0.343
      6753.996      12.824       0.344
      6754.496      14.565       0.344
      6754.996      16.306       0.344
      6755.496      18.047       0.345
      6755.996      19.788       0.345
      6756.496      19.544       0.346
      6756.996      17.778       0.346
      6757.496      16.013       0.347
      6757.996      14.247       0.347
      6758.496      12.482       0.347
      6758.996      11.715       0.348
      6759.496      13.848       0.348
      6759.996      15.981       0.349
      6760.496      18.114       0.349
      6760.996      20.248       0.350
      6761.496      22.381       0.350
      6761.996      21.828       0.351
      6762.496      19.566       0.351
      6762.996      17.304       0.351
      6763.496      18.877       0.352
      6763.996      20.620       0.352
      6764.496      20.602       0.353
      6764.996      19.609       0.353
      6765.496      18.616       0.354
      6765.996      17.622       0.354
      6766.496      16.629       0.354
      6766.996      15.635       0.355
      6767.496      14.642       0.355
      6767.996      13.648       0.356
      6768.496      15.166       0.356
      6768.996      16.710       0.357
      6769.496      18.255       0.357
      6769.996      19.799       0.357
      6770.496      20.188       0.358
      6770.996      18.569       0.358
      6771.496      16.949       0.247
      6771.996      15.330       0.104
      6772.496      13.711      -0.039
      6772.996      12.091      -0.182
      6773.496      10.472      -0.326
      6773.996       9.075      -0.469
      6774.496      11.082      -0.612
      6774.996      13.088      -0.755
      6775.496      15.094      -0.898
      6775.996      17.100      -1.042
      6776.496      19.106      -1.185
      6776.996      21.113      -1.328
      6777.496      23.119      -1.471
      6777.996      24.502      -1.614
      6778.496      22.461      -1.757
      6778.996      20.421      -1.901
      6779.496      18.380      -2.044
      6779.996      16.340      -2.187
      6780.496      14.299      -2.330
      6780.996      12.259      -2.473
      6781.496      10.219      -2.615
      6781.996      12.060      -2.730
      6782.496      14.952      -2.844
      6782.996      17.844      -2.959
      6783.496      20.736      -3.073
      6783.996      23.628      -3.188
      6784.496      22.799      -3.303
      6784.996      21.406      -3.417
      6785.496      20.013      -3.531
      6785.996      18.620      -3.646
      6786.496      17.227      -3.760
      6786.996      17.552      -3.875
      6787.496      18.533      -3.990
      6787.996      19.514      -4.104
      6788.496      20.495      -4.219
      6788.996      21.475      -4.307
      6789.496      23.208      -4.306
      6789.996      24.212      -4.306
      6790.496      22.744      -4.306
      6790.996      21.277      -4.305
      6791.496      19.809      -4.232
      6791.996      18.342      -3.354
      6792.496      16.874      -3.062
      6792.996      15.407      -2.771
      6793.496      14.184      -2.358
      6793.996      14.836      -2.176
      6794.496      15.489      -2.175
      6794.996      16.142      -2.175
      6795.496      16.795      -2.174
      6795.996      16.842      -2.174
      6796.496      15.732      -2.174
      6796.996      14.623      -2.173
      6797.496      13.711      -2.173
      6797.996      17.048      -2.172
      6798.496      20.061      -2.597
      6798.996      16.109      -3.211
      6799.496      15.034      -3.780
      6799.996      13.894      -5.618
      6800.496      12.745      -6.465
      6800.996      11.597      -7.519
      6801.496      10.448      -8.746
      6801.996       9.300      -9.974
      6802.496       8.152     -11.201
      6802.996      18.306     -12.428
      6803.496      15.542     -13.656
      6803.996      12.778     -14.883
      6804.496      10.014     -16.111
      6804.996      13.188     -16.859
      6805.496      18.180     -17.566
      6805.996      23.172     -18.273
      6806.496      28.164     -18.980
