~Version Information
 VERS.                 2.0: 
 WRAP.                  NO: 
 END.                PETRA:IHS Markit
~Well Information Block
#MNEM.UNIT       Data Type    Information
#---------    -------------   ---------------------------------
 STRT.F           1965.9961:
 STOP.F          11003.9780:
 STEP.F              0.5000:
 NULL.              -999.25:
 COMP.                           : COMPANY
 FLD.       WILDCAT              : FIELD
 LOC.                            : LOCATION
 DATE.      24-JUN-2024          : DATE
 WELL.                           : Well Name
 LABL.      42001312650000                   : Well Label
 APIN.      42001312650000       : API Number
 UWI.       42001312650000       : Unique Well Number
 NUMB.      1                    : Well Number
 OPER.      MAY PETROLEUM INC    : Operator Name
 LEAS.      COOK R R             : Lease Name
~Parameter Block
#MNEM.UNIT           VALUE            Description
#---------    --------------------   ---------------------------------
 EKB.F                   595.0 : KB Elevation
~Curve Information Block
#MNEM.UNIT      API CODE      Curve Description
#---------    -------------   ---------------------------------
 DEPT.F                   00 000 00 00: Depth (MD)
 RES.OHM.M                00 001 00 00: Medium Resistivity
 SP.MV                    00 002 00 00: Spontaneous Potential
~A        DEPT         RES          SP
# ...
      8557.996       3.268     -26.601
      8558.496       3.174     -26.600
      8558.996       3.080     -26.600
      8559.496       2.986     -26.599
      8559.996       3.062     -26.599
      8560.496       4.247     -26.598
      8560.996       4.715     -26.598
      8561.496       5.177     -26.598
      8561.996       5.910     -26.597
      8562.496       9.618     -26.597
      8562.996       4.624     -26.854
      8563.496       2.171     -27.257
      8563.996       1.978     -27.825
      8564.496       1.785     -27.869
      8564.996       1.592     -27.869
      8565.496       1.399     -27.869
      8565.996       1.375     -27.868
      8566.496       1.367     -27.868
      8566.996       1.361     -27.867
      8567.496       1.353     -27.867
      8567.996       1.936     -27.866
      8568.496       2.086     -27.866
      8568.996       2.207     -27.866
      8569.496       2.680     -27.865
      8569.996       2.258     -27.865
      8570.496       1.836     -27.864
      8570.996       1.414     -27.864
      8571.496       1.451     -27.863
      8571.996       1.568     -28.406
      8572.496       1.686     -28.692
      8572.996       1.724     -29.139
      8573.496       1.613     -29.139
      8573.996       1.502     -29.138
      8574.496       1.391     -29.990
      8574.996       1.279     -30.249
      8575.496       1.168     -30.616
      8575.996       1.057     -30.901
      8576.496       0.965     -31.187
      8576.996       0.948     -31.682
      8577.496       0.960     -32.181
      8577.996       1.426     -32.467
      8578.496       1.345     -32.824
      8578.996       1.265     -33.204
      8579.496       1.185     -33.584
      8579.996       1.105     -33.964
      8580.496       1.240     -34.344
      8580.996       1.920     -34.724
      8581.496       2.599     -35.105
      8581.996       3.279     -35.485
      8582.496       2.329     -35.865
      8582.996       1.978     -36.245
      8583.496       1.863     -36.625
      8583.996       1.929     -37.005
      8584.496       2.006     -37.386
      8584.996       2.665     -37.766
      8585.496       2.454     -38.146
      8585.996       2.252     -38.526
      8586.496       2.038     -38.906
      8586.996       1.908     -39.286
      8587.496       1.803     -39.666
      8587.996       2.185     -40.047
      8588.496       2.430     -40.099
      8588.996       2.638     -39.953
      8589.496       2.959     -39.808
      8589.996       3.238     -39.663
      8590.496       3.403     -39.518
      8590.996       3.774     -39.372
      8591.496       4.272     -39.334
      8591.996       4.771     -39.334
      8592.496       5.269     -39.334
      8592.996       5.768     -39.333
      8593.496       6.293     -39.333
      8593.996       6.849     -39.496
      8594.496       7.405     -39.807
      8594.996       7.960     -40.184
      8595.496       8.516     -40.523
      8595.996       9.072     -41.032
      8596.496       9.579     -41.032
      8596.996       8.611     -41.387
      8597.496       7.643     -41.456
      8597.996       6.674     -42.103
      8598.496       5.707     -42.307
      8598.996       5.177     -42.307
      8599.496       4.647     -42.306
      8599.996       4.117     -42.306
      8600.496       3.586     -42.306
      8600.996       3.056     -42.305
      8601.496       2.526     -42.305
      8601.996       1.915     -42.015
      8602.496       1.737     -41.879
      8602.996       1.603     -41.432
      8603.496       1.469     -41.142
      8603.996       1.335     -41.025
      8604.496       1.840     -40.600
      8604.996       2.802     -40.600
      8605.496       3.764     -40.599
      8605.996       4.726     -40.491
      8606.496       5.688     -40.173
      8606.996       5.910     -40.173
      8607.496       5.386     -39.886
      8607.996       4.862     -39.745
      8608.496       4.338     -39.745
      8608.996       3.815     -39.569
      8609.496       3.291     -39.319
      8609.996       2.767     -38.894
      8610.496       2.244     -38.893
      8610.996       1.720     -38.893
      8611.496       1.196     -38.892
      8611.996       1.649     -38.892
      8612.496       2.446     -38.891
      8612.996       3.242     -38.891
      8613.496       4.039     -38.890
      8613.996       4.835     -38.890
      8614.496       5.632     -38.890
      8614.996       6.429     -38.889
      8615.496       5.508     -38.889
      8615.996       4.537     -38.888
      8616.496       3.566     -38.888
      8616.996       2.595     -38.887
      8617.496       2.266     -38.887
      8617.996       2.419     -38.886
      8618.496       2.573     -38.886
      8618.996       2.925     -38.886
      8619.496       5.856     -38.885
      8619.996       5.845     -38.885
      8620.496       4.892     -38.884
      8620.996       3.938     -38.884
      8621.496       2.985     -38.883
      8621.996       2.566     -38.883
      8622.496       2.799     -38.883
      8622.996       3.032     -38.882
      8623.496       3.265     -38.882
      8623.996       3.498     -38.881
      8624.496       3.587     -38.881
      8624.996       3.517     -38.880
      8625.496       3.395     -38.880
      8625.996       3.639     -38.880
      8626.496       4.229     -38.879
      8626.996       4.819     -38.879
      8627.496       5.410     -38.878
      8627.996       5.478     -38.878
      8628.496       3.068     -38.877
      8628.996       3.367     -38.877
      8629.496       3.665     -38.877
      8629.996       3.964     -38.876
      8630.496       4.263     -38.876
      8630.996       4.941     -38.875
      8631.496       5.455     -38.875
      8631.996       4.942     -38.874
      8632.496       4.429     -38.874
      8632.996       3.916     -38.873
      8633.496       3.403     -38.873
      8633.996       2.889     -38.873
      8634.496       2.376     -38.872
      8634.996       2.341     -38.872
      8635.496       2.605     -38.871
      8635.996       2.869     -38.871
      8636.496       3.132     -39.269
      8636.996       3.399     -39.295
      8637.496       4.129     -39.294
      8637.996       4.859     -39.713
      8638.496       5.985     -40.281
      8638.996       8.299     -40.570
      8639.496       8.955     -40.995
      8639.996       9.025     -40.983
      8640.496       9.096     -40.940
      8640.996       9.166     -40.897
      8641.496      10.143     -40.854
      8641.996      11.856     -40.810
      8642.496      13.273     -40.767
      8642.996      12.668     -40.724
      8643.496       6.972     -40.681
      8643.996       6.206     -40.638
      8644.496       5.649     -40.595
      8644.996       5.327     -40.552
      8645.496       5.006     -40.509
      8645.996       4.684     -40.465
      8646.496       4.363     -40.422
      8646.996       4.041     -40.379
      8647.496       3.897     -40.336
      8647.996       4.348     -40.293
      8648.496       4.798     -40.250
      8648.996       5.248     -40.207
      8649.496       5.921     -40.164
      8649.996       6.658     -40.246
      8650.496       7.394     -40.558
      8650.996       8.131     -40.869
      8651.496       8.867     -41.181
      8651.996       9.604     -41.492
      8652.496      10.340     -41.804
      8652.996      10.040     -42.115
      8653.496       7.058     -42.427
      8653.996       4.076     -42.684
      8654.496       1.718     -42.929
      8654.996       1.587     -43.108
      8655.496       1.455     -43.108
      8655.996       1.324     -43.107
      8656.496       1.192     -43.107
      8656.996       1.109     -43.106
      8657.496       1.109     -43.106
      8657.996       1.186     -42.955
      8658.496       1.254     -42.762
      8658.996       1.267     -42.513
      8659.496       1.267     -42.254
      8659.996       1.267     -42.254
      8660.496       1.215     -42.253
