~Version Information
 VERS.                 2.0: 
 WRAP.                  NO: 
 END.                PETRA:IHS Markit
~Well Information Block
#MNEM.UNIT       Data Type    Information
#---------    -------------   ---------------------------------
 STRT.F           2232.9955:
 STOP.F          11856.9763:
 STEP.F              0.5000:
 NULL.              -999.25:
 COMP.                           : COMPANY
 FLD.       PLUM JELLY           : FIELD
 LOC.                            : LOCATION
 DATE.      24-JUN-2024          : DATE
 WELL.                           : Well Name
 LABL.      42001313930000                   : Well Label
 APIN.      42001313930000       : API Number
 UWI.       42001313930000       : Unique Well Number
 NUMB.      1                    : Well Number
 OPER.      BOIS D ARC INC       : Operator Name
 LEAS.      SACK TRUST GAS UNIT  : Lease Name
~Parameter Block
#MNEM.UNIT           VALUE            Description
#---------    --------------------   ---------------------------------
 EKB.F                   496.0 : KB Elevation
~Curve Information Block
#MNEM.UNIT      API CODE      Curve Description
#---------    -------------   ---------------------------------
 DEPT.F                   00 000 00 00: Depth (MD)
 RES.OHM.M                00 001 00 00: Medium Resistivity
 SP.MV                    00 002 00 00: Spontaneous Potential
~A        DEPT         RES          SP
# ...
      6043.996       1.080     -65.728
      6044.496       1.017     -63.729
      6044.996       0.954     -61.730
      6045.496       0.891     -59.730
      6045.996       0.828     -57.731
      6046.496       0.765     -55.731
      6046.996       0.702     -54.330
      6047.496       1.048     -57.009
      6047.996       1.395     -59.688
      6048.496       1.742     -62.366
      6048.996       2.089     -64.916
      6049.496       2.436     -65.319
      6049.996       2.783     -65.723
      6050.496       2.760     -66.126
      6050.996       2.675     -66.529
      6051.496       2.590     -66.932
      6051.996       2.505     -68.133
      6052.496       2.420     -69.400
      6052.996       2.335     -70.667
      6053.496       2.428     -70.653
      6053.996       2.822     -69.939
      6054.496       3.216     -69.225
      6054.996       3.240     -68.510
      6055.496       2.802     -68.126
      6055.996       2.364     -68.629
      6056.496       1.926     -69.133
      6056.996       1.858     -69.636
      6057.496       1.830     -70.139
      6057.996       1.803     -70.642
      6058.496       1.698     -71.146
      6058.996       1.560     -71.649
      6059.496       1.421     -72.152
      6059.996       1.283     -72.655
      6060.496       1.145     -73.158
      6060.996       1.007     -73.662
      6061.496       0.868     -74.165
      6061.996       0.749     -74.668
      6062.496       0.713     -75.171
      6062.996       0.679     -75.674
      6063.496       0.650     -74.602
      6063.996       0.622     -73.213
      6064.496       0.593     -71.824
      6064.996       0.620     -70.436
      6065.496       0.782     -69.047
      6065.996       0.944     -67.658
      6066.496       1.105     -66.269
      6066.996       1.267     -64.880
      6067.496       1.498     -63.792
      6067.996       1.757     -63.790
      6068.496       2.016     -63.789
      6068.996       2.275     -63.787
      6069.496       2.534     -63.144
      6069.996       2.793     -61.551
      6070.496       2.545     -59.959
      6070.996       2.192     -58.367
      6071.496       1.840     -56.775
      6071.996       1.488     -49.676
      6072.496       1.135     -37.133
      6072.996       0.783     -24.590
      6073.496       1.010     -17.878
      6073.996       1.268     -15.728
      6074.496       1.526     -13.579
      6074.996       1.784     -11.430
      6075.496       1.849      -9.280
      6075.996       1.656      -7.131
      6076.496       1.463      -4.982
      6076.996       1.270      -3.419
      6077.496       1.078      -3.212
      6077.996       1.014      -3.005
      6078.496       1.045      -2.798
      6078.996       1.075      -2.591
      6079.496       1.106      -2.384
      6079.996       1.150      -2.177
      6080.496       1.197      -1.970
      6080.996       1.244      -2.339
      6081.496       1.291      -2.942
      6081.996       1.338      -3.545
      6082.496       1.385      -4.148
      6082.996       1.431      -4.750
      6083.496       1.478      -5.353
      6083.996       1.519      -5.956
      6084.496       1.519      -6.559
      6084.996       1.520      -7.463
      6085.496       1.520      -8.376
      6085.996       1.520      -9.288
      6086.496       1.526     -10.201
      6086.996       1.678     -11.232
      6087.496       1.829     -12.422
      6087.996       1.980     -13.612
      6088.496       2.131     -14.802
      6088.996       2.282     -16.559
      6089.496       2.330     -18.876
      6089.996       2.306     -21.193
      6090.496       2.283     -24.517
      6090.996       2.259     -28.072
      6091.496       2.235     -31.666
      6091.996       2.212     -36.223
      6092.496       2.255     -40.781
      6092.996       2.311     -45.339
      6093.496       2.368     -49.897
      6093.996       2.424     -54.454
      6094.496       2.481     -58.730
      6094.996       2.633     -62.456
      6095.496       2.807     -66.182
      6095.996       2.980     -69.909
      6096.496       3.153     -73.635
      6096.996       3.327     -77.361
      6097.496       3.500     -77.605
      6097.996       3.619     -76.770
      6098.496       3.023     -75.934
      6098.996       2.428     -75.770
      6099.496       1.920     -75.972
      6099.996       1.982     -75.998
      6100.496       2.044     -74.295
      6100.996       2.102     -72.593
      6101.496       1.880     -70.890
      6101.996       1.658     -69.188
      6102.496       1.435     -68.059
      6102.996       1.213     -69.172
      6103.496       0.991     -70.285
      6103.996       0.871     -71.397
      6104.496       0.916     -72.510
      6104.996       0.961     -73.623
      6105.496       1.006     -74.736
      6105.996       1.043     -75.278
      6106.496       0.964     -75.547
      6106.996       0.884     -75.817
      6107.496       0.804     -76.086
      6107.996       0.724     -76.355
      6108.496       0.688     -76.624
      6108.996       0.734     -76.893
      6109.496       0.780     -77.162
      6109.996       0.826     -77.431
      6110.496       0.872     -77.724
      6110.996       0.918     -78.287
      6111.496       0.964     -78.850
      6111.996       1.010     -79.413
      6112.496       0.947     -79.976
      6112.996       0.881     -80.539
      6113.496       0.838     -81.102
      6113.996       0.851     -81.739
      6114.496       0.863     -82.418
      6114.996       0.848     -83.097
      6115.496       0.827     -83.776
      6115.996       0.805     -84.455
      6116.496       0.823     -85.134
      6116.996       0.873     -85.813
      6117.496       0.923     -86.492
      6117.996       0.972     -86.575
      6118.496       1.022     -84.784
      6118.996       1.071     -82.993
      6119.496       1.082     -81.201
      6119.996       1.036     -79.410
      6120.496       0.989     -77.619
      6120.996       0.943     -76.103
      6121.496       0.896     -76.230
      6121.996       0.849     -76.357
      6122.496       0.803     -76.484
      6122.996       0.881     -76.611
      6123.496       0.980     -76.738
      6123.996       1.079     -76.865
      6124.496       1.179     -76.992
      6124.996       1.262     -77.119
      6125.496       1.062     -77.246
      6125.996       0.990     -77.373
      6126.496       0.993     -77.500
      6126.996       0.996     -77.588
      6127.496       0.999     -76.409
      6127.996       0.994     -75.231
      6128.496       0.960     -74.053
      6128.996       0.926     -72.875
      6129.496       0.892     -71.697
      6129.996       0.858     -70.519
      6130.496       0.966     -70.771
      6130.996       1.153     -71.283
      6131.496       1.341     -71.796
      6131.996       1.277     -72.308
      6132.496       1.135     -72.820
      6132.996       0.993     -73.333
      6133.496       0.851     -73.845
      6133.996       0.821     -74.357
      6134.496       0.860     -74.869
      6134.996       0.900     -75.382
      6135.496       0.939     -75.894
      6135.996       0.921     -76.406
      6136.496       0.898     -76.919
      6136.996       0.874     -77.431
      6137.496       1.006     -76.913
      6137.996       1.211     -75.936
      6138.496       1.416     -74.958
      6138.996       1.359     -73.981
      6139.496       1.243     -69.902
      6139.996       1.127     -65.707
      6140.496       1.011     -61.512
      6140.996       0.894     -57.317
      6141.496       0.778     -53.122
      6141.996       0.795     -48.927
      6142.496       0.873     -44.732
      6142.996       0.952     -40.537
      6143.496       1.030     -36.342
      6143.996       1.108     -32.147
      6144.496       1.186     -26.363
      6144.996       1.189     -19.302
      6145.496       1.148     -12.241
      6145.996       1.107     -10.893
      6146.496       1.066     -10.709
