~Version Information
 VERS.                 2.0: 
 WRAP.                  NO: 
 END.                PETRA:IHS Markit
~Well Information Block
#MNEM.UNIT       Data Type    Information
#---------    -------------   ---------------------------------
 STRT.F           2031.9959:
 STOP.F          10833.9783:
 STEP.F              0.5000:
 NULL.              -999.25:
 COMP.                           : COMPANY
 FLD.       PURT WEST            : FIELD
 LOC.                            : LOCATION
 DATE.      24-JUN-2024          : DATE
 WELL.                           : Well Name
 LABL.      42001313820000                   : Well Label
 APIN.      42001313820000       : API Number
 UWI.       42001313820000       : Unique Well Number
 NUMB.      1                    : Well Number
 OPER.      MARSHALL EXPL CO INC : Operator Name
 LEAS.      BROOKSHIRE           : Lease Name
~Parameter Block
#MNEM.UNIT           VALUE            Description
#---------    --------------------   ---------------------------------
 EKB.F                   626.0 : KB Elevation
~Curve Information Block
#MNEM.UNIT      API CODE      Curve Description
#---------    -------------   ---------------------------------
 DEPT.F                   00 000 00 00: Depth (MD)
 RES.OHM.M                00 001 00 00: Medium Resistivity
 SP.MV                    00 002 00 00: Spontaneous Potential
~A        DEPT         RES          SP
# ...
      8932.996       3.332     -41.606
      8933.496       3.157     -41.730
      8933.996       2.981     -41.854
      8934.496       2.806     -41.977
      8934.996       2.631     -42.101
      8935.496       2.455     -42.224
      8935.996       2.280     -42.336
      8936.496       2.104     -42.228
      8936.996       1.929     -42.120
      8937.496       1.754     -42.012
      8937.996       1.579     -41.904
      8938.496       1.544     -41.797
      8938.996       1.554     -41.689
      8939.496       1.564     -41.581
      8939.996       1.574     -41.473
      8940.496       1.584     -41.365
      8940.996       1.593     -41.258
      8941.496       1.637     -41.150
      8941.996       2.299     -41.139
      8942.496       2.692     -40.530
      8942.996       3.237     -40.531
      8943.496       3.789     -40.532
      8943.996       5.505     -40.533
      8944.496       5.294     -40.535
      8944.996       5.084     -40.536
      8945.496       4.873     -40.537
      8945.996       4.662     -40.538
      8946.496       4.452     -41.149
      8946.996       4.241     -41.522
      8947.496       4.031     -42.335
      8947.996       3.820     -42.369
      8948.496       3.610     -42.370
      8948.996       3.399     -42.371
      8949.496       3.188     -42.372
      8949.996       2.978     -42.373
      8950.496       3.126     -42.374
      8950.996       3.443     -42.375
      8951.496       4.471     -41.959
      8951.996       4.826     -40.552
      8952.496       5.181     -40.319
      8952.996       5.537     -39.944
      8953.496       5.892     -39.336
      8953.996       7.078     -39.337
      8954.496       8.281     -39.338
      8954.996       9.484     -38.729
      8955.496      10.687     -38.730
      8955.996      12.743     -38.731
      8956.496      15.531     -38.733
      8956.996      16.473     -38.734
      8957.496      17.416     -38.735
      8957.996      18.358     -38.736
      8958.496      19.301     -38.737
      8958.996      20.243     -38.738
      8959.496      21.520     -38.623
      8959.996      24.795     -37.804
      8960.496      13.748     -37.525
      8960.996      12.079     -36.917
      8961.496      10.410     -36.918
      8961.996       8.859     -36.309
      8962.496       8.346     -36.310
      8962.996       7.833     -36.311
      8963.496       7.320     -36.313
      8963.996       6.806     -36.314
      8964.496       6.293     -36.698
      8964.996       5.780     -37.512
      8965.496       5.267     -37.724
      8965.996       4.753     -38.148
      8966.496       4.240     -38.149
      8966.996       3.727     -38.150
      8967.496       3.214     -38.151
      8967.996       2.700     -38.152
      8968.496       2.187     -38.153
      8968.996       5.760     -38.154
      8969.496       9.478     -38.130
      8969.996      10.141     -37.309
      8970.496       8.628     -36.938
      8970.996       7.114     -36.281
      8971.496       5.601     -35.721
      8971.996       4.088     -35.722
      8972.496       2.575     -35.655
      8972.996       1.699     -35.118
      8973.496       1.793     -35.119
      8973.996       1.887     -34.510
      8974.496       1.982     -34.511
      8974.996       3.243     -34.513
      8975.496       7.468     -34.568
      8975.996      11.694     -34.977
      8976.496      10.993     -35.126
      8976.996       9.528     -35.127
      8977.496       8.064     -35.128
      8977.996       6.599     -35.129
      8978.496       5.134     -35.130
      8978.996       3.670     -35.131
      8979.496       4.103     -35.133
      8979.996       4.859     -35.134
      8980.496       5.614     -35.135
      8980.996       6.370     -35.136
      8981.496       7.126     -34.745
      8981.996       7.882     -34.144
      8982.496       8.637     -33.920
      8982.996       8.844     -33.311
      8983.496       7.946     -33.312
      8983.996       7.048     -32.704
      8984.496       6.150     -32.705
      8984.996       5.253     -32.706
      8985.496       4.355     -32.707
      8985.996       4.058     -32.708
      8986.496       4.552     -32.709
      8986.996       5.047     -33.033
      8987.496       5.542     -33.442
      8987.996       6.056     -33.851
      8988.496       6.615     -34.260
      8988.996       7.173     -34.669
      8989.496       7.732     -35.078
      8989.996       8.291     -35.487
      8990.496       8.850     -35.896
      8990.996       9.409     -36.305
      8991.496       8.914     -36.714
      8991.996       6.538     -37.123
      8992.496       4.163     -37.532
      8992.996       5.054     -37.941
      8993.496       5.944     -38.349
      8993.996       6.835     -38.758
      8994.496       7.726     -38.986
      8994.996       8.617     -39.183
      8995.496       9.508     -39.381
      8995.996       8.580     -39.578
      8996.496       7.347     -39.775
      8996.996       6.113     -39.972
      8997.496       4.880     -40.169
      8997.996       3.646     -40.366
      8998.496       7.199     -40.564
      8998.996      14.018     -40.761
      8999.496      20.837     -40.958
      8999.996      22.704     -41.155
      9000.496      21.348     -41.352
      9000.996      19.992     -41.549
      9001.496      18.636     -41.747
      9001.996      17.281     -41.944
      9002.496      15.925     -42.141
      9002.996      14.569     -42.338
      9003.496      13.213     -42.478
      9003.996      11.857     -42.403
      9004.496      10.501     -42.327
      9004.996      11.587     -42.252
      9005.496      15.616     -42.176
      9005.996      19.646     -42.101
      9006.496      23.675     -42.025
      9006.996      24.752     -41.950
      9007.496      22.489     -41.874
      9007.996      20.226     -41.799
      9008.496      17.963     -41.723
      9008.996      15.700     -41.648
      9009.496      13.437     -41.572
      9009.996      11.174     -41.497
      9010.496      10.255     -41.421
      9010.996       9.556     -41.346
      9011.496       8.857     -41.270
      9011.996       8.158     -41.195
      9012.496       7.459     -41.119
      9012.996       6.808     -41.044
      9013.496       6.808     -40.968
      9013.996       6.808     -40.893
      9014.496       6.991     -40.817
      9014.996       7.062     -40.742
      9015.496       7.085     -40.767
      9015.996       7.333     -40.956
      9016.496       7.934     -41.146
      9016.996       8.535     -41.335
      9017.496       9.136     -41.525
      9017.996       9.737     -41.714
      9018.496      10.339     -41.904
      9018.996      14.909     -42.093
      9019.496      20.143     -42.282
      9019.996      25.377     -42.472
      9020.496      30.612     -42.533
      9020.996      25.947     -43.144
      9021.496      20.298     -43.145
      9021.996      14.649     -43.146
      9022.496       9.000     -43.147
      9022.996       3.732     -43.148
      9023.496       2.514     -43.149
      9023.996       1.880     -43.151
      9024.496       1.906     -43.152
      9024.996       1.932     -43.153
      9025.496       1.958     -43.154
      9025.996       1.984     -43.155
      9026.496       1.967     -43.156
      9026.996       1.904     -43.157
      9027.496       1.787     -43.158
      9027.996       1.706     -43.160
      9028.496       1.603     -43.161
      9028.996       1.559     -43.162
      9029.496       1.502     -43.163
      9029.996       1.431     -43.164
      9030.496       1.378     -43.165
      9030.996       1.333     -43.166
      9031.496       1.308     -43.167
      9031.996       1.286     -43.169
      9032.496       1.286     -43.170
      9032.996       1.390     -43.171
      9033.496       1.517     -43.077
      9033.996       1.600     -42.921
      9034.496       1.919     -42.764
      9034.996       2.446     -42.608
      9035.496       3.227     -42.452
