~Version Information
 VERS.                 2.0: 
 WRAP.                  NO: 
 END.                PETRA:IHS Markit
~Well Information Block
#MNEM.UNIT       Data Type    Information
#---------    -------------   ---------------------------------
 STRT.F           1965.9961:
 STOP.F          11003.9780:
 STEP.F              0.5000:
 NULL.              -999.25:
 COMP.                           : COMPANY
 FLD.       WILDCAT              : FIELD
 LOC.                            : LOCATION
 DATE.      24-JUN-2024          : DATE
 WELL.                           : Well Name
 LABL.      42001312650000                   : Well Label
 APIN.      42001312650000       : API Number
 UWI.       42001312650000       : Unique Well Number
 NUMB.      1                    : Well Number
 OPER.      MAY PETROLEUM INC    : Operator Name
 LEAS.      COOK R R             : Lease Name
~Parameter Block
#MNEM.UNIT           VALUE            Description
#---------    --------------------   ---------------------------------
 EKB.F                   595.0 : KB Elevation
~Curve Information Block
#MNEM.UNIT      API CODE      Curve Description
#---------    -------------   ---------------------------------
 DEPT.F                   00 000 00 00: Depth (MD)
 RES.OHM.M                00 001 00 00: Medium Resistivity
 SP.MV                    00 002 00 00: Spontaneous Potential
~A        DEPT         RES          SP
# ...
      9690.996       6.050     -35.829
      9691.496       6.495     -35.828
      9691.996      11.213     -35.623
      9692.496      15.932     -35.400
      9692.996      20.650     -35.400
      9693.496      25.368     -35.386
      9693.996     125.053     -34.974
      9694.496     388.614     -34.974
      9694.996     652.175     -34.736
      9695.496     915.736     -34.342
      9695.996     888.879     -34.122
      9696.496     682.242     -34.122
      9696.996     475.605     -34.002
      9697.496     268.969     -33.709
      9697.996      62.331     -33.694
      9698.496       9.502     -33.693
      9698.996       7.755     -33.693
      9699.496       6.008     -33.692
      9699.996       4.261     -33.692
      9700.496       2.818     -33.691
      9700.996       2.753     -33.691
      9701.496       2.689     -33.690
      9701.996       2.625     -33.690
      9702.496       2.560     -33.791
      9702.996       2.496     -34.077
      9703.496       2.432     -35.206
      9703.996       2.367     -35.593
      9704.496       2.303     -36.160
      9704.996       2.440     -36.728
      9705.496      81.892     -37.193
      9705.996     149.762     -37.480
      9706.496     217.632     -38.609
      9706.996     285.502     -38.996
      9707.496     353.372     -39.564
      9707.996     409.976     -40.132
      9708.496     366.035     -40.699
      9708.996     322.095     -41.267
      9709.496     278.154     -41.835
      9709.996     234.213     -42.403
      9710.496     190.273     -42.970
      9710.996     146.332     -43.538
      9711.496     102.391     -44.106
      9711.996      80.138     -44.673
      9712.496     245.611     -45.241
      9712.996     411.084     -45.809
      9713.496     576.556     -46.376
      9713.996     742.029     -46.944
      9714.496     907.502     -47.512
      9714.996    1072.975     -48.080
      9715.496    1238.448     -48.647
      9715.996    1144.381     -49.215
      9716.496    1020.681     -49.783
      9716.996     896.980     -50.350
      9717.496     773.279     -50.918
      9717.996     649.578     -51.486
      9718.496     525.878     -52.053
      9718.996     402.177     -52.621
      9719.496      91.074     -53.189
      9719.996      22.636     -53.757
      9720.496      13.649     -54.324
      9720.996      12.581     -54.892
      9721.496      11.512     -54.970
      9721.996      10.443     -52.341
      9722.496       9.375     -49.713
      9722.996       8.306     -47.084
      9723.496       7.237     -44.456
      9723.996       6.169     -41.827
      9724.496       5.100     -39.199
      9724.996       4.031     -36.570
      9725.496       7.064     -35.053
      9725.996      11.987     -34.468
      9726.496      16.911     -33.883
      9726.996      21.835     -33.298
      9727.496      20.010     -32.712
      9727.996      17.957     -32.127
      9728.496      15.904     -31.542
      9728.996      13.851     -30.957
      9729.496      11.799     -30.371
      9729.996       9.745     -29.837
      9730.496       7.693     -29.837
      9730.996       5.640     -29.836
      9731.496       3.587     -29.836
      9731.996       3.215     -29.835
      9732.496       3.822     -29.835
      9732.996       4.428     -29.834
      9733.496       5.035     -29.834
      9733.996       5.641     -29.834
      9734.496       5.739     -29.833
      9734.996       5.497     -29.833
      9735.496       5.255     -29.832
      9735.996       5.013     -29.832
      9736.496       4.770     -29.831
      9736.996       4.528     -29.831
      9737.496       4.286     -29.831
      9737.996       4.043     -29.830
      9738.496       3.801     -29.894
      9738.996       3.559     -30.462
      9739.496       4.066     -31.029
      9739.996       5.591     -31.352
      9740.496       7.634     -31.530
      9740.996      10.448     -31.893
      9741.496      13.262     -32.381
      9741.996      18.550     -32.609
      9742.496      29.944     -33.177
      9742.996      41.338     -33.230
      9743.496      52.732     -33.229
      9743.996      64.126     -33.229
      9744.496      75.519     -33.228
      9744.996      82.721     -33.228
      9745.496      41.823     -33.227
      9745.996      25.485     -33.227
      9746.496      46.137     -33.227
      9746.996      66.789     -33.226
      9747.496      82.766     -33.226
      9747.996      74.350     -33.225
      9748.496      65.934     -33.225
      9748.996      57.518     -33.224
      9749.496      49.102     -33.224
      9749.996      40.686     -33.224
      9750.496      32.270     -33.223
      9750.996      23.854     -33.223
      9751.496      15.438     -33.222
      9751.996       7.022     -33.222
      9752.496       2.927     -33.221
      9752.996       3.830     -33.264
      9753.496       4.733     -33.308
      9753.996       4.888     -33.352
      9754.496       4.902     -33.396
      9754.996       4.916     -33.440
      9755.496       4.930     -33.484
      9755.996       4.944     -33.528
      9756.496       4.957     -33.572
      9756.996       4.971     -33.615
      9757.496       4.985     -33.659
      9757.996       7.262     -33.703
      9758.496      45.804     -33.747
      9758.996      76.475     -33.791
      9759.496     107.146     -33.835
      9759.996     137.818     -33.879
      9760.496     168.489     -33.923
      9760.996     192.731     -33.967
      9761.496     171.786     -34.011
      9761.996     150.841     -34.055
      9762.496     129.896     -34.026
      9762.996     108.951     -33.976
      9763.496      88.006     -33.925
      9763.996      67.061     -33.874
      9764.496      46.117     -33.824
      9764.996      25.172     -33.773
      9765.496       7.327     -33.722
      9765.996      16.753     -33.672
      9766.496      26.180     -33.621
      9766.996      35.607     -33.570
      9767.496      36.171     -33.520
      9767.996      25.113     -33.469
      9768.496      14.055     -33.418
      9768.996      16.621     -33.367
      9769.496      24.786     -33.317
      9769.996      32.950     -33.266
      9770.496      41.115     -33.215
      9770.996      47.004     -33.205
      9771.496      42.321     -33.179
      9771.996      37.638     -33.100
      9772.496      32.955     -33.022
      9772.996      28.272     -32.944
      9773.496      23.589     -32.865
      9773.996      25.998     -32.787
      9774.496      30.515     -32.708
      9774.996      35.032     -32.630
      9775.496      39.549     -32.551
      9775.996      44.066     -32.473
      9776.496      48.583     -32.394
      9776.996      53.100     -32.316
      9777.496      57.617     -32.237
      9777.996      62.134     -32.159
      9778.496      66.651     -32.081
      9778.996      71.168     -32.002
      9779.496      75.685     -31.924
      9779.996      79.208     -31.845
      9780.496      75.519     -31.767
      9780.996      71.829     -31.688
      9781.496      68.140     -31.610
      9781.996      64.451     -31.531
      9782.496      60.761     -31.453
      9782.996      57.072     -31.374
      9783.496      53.382     -31.296
      9783.996      49.693     -31.218
      9784.496      46.004     -31.139
      9784.996      41.902     -31.068
      9785.496      37.438     -31.085
      9785.996      32.975     -31.102
      9786.496      28.512     -31.119
      9786.996      24.048     -31.136
      9787.496      19.585     -31.153
      9787.996      15.121     -31.170
      9788.496      10.658     -31.187
      9788.996       6.194     -31.204
      9789.496       5.911     -31.221
      9789.996       7.369     -31.238
      9790.496       8.768     -31.255
      9790.996       8.310     -31.272
      9791.496       7.851     -31.289
      9791.996       7.393     -31.306
      9792.496       6.934     -31.323
      9792.996       6.476     -31.340
      9793.496       6.017     -31.357
