~Version Information
 VERS.                 2.0: 
 WRAP.                  NO: 
 END.                PETRA:IHS Markit
~Well Information Block
#MNEM.UNIT       Data Type    Information
#---------    -------------   ---------------------------------
 STRT.F           2031.9959:
 STOP.F          10833.9783:
 STEP.F              0.5000:
 NULL.              -999.25:
 COMP.                           : COMPANY
 FLD.       PURT WEST            : FIELD
 LOC.                            : LOCATION
 DATE.      24-JUN-2024          : DATE
 WELL.                           : Well Name
 LABL.      42001313820000                   : Well Label
 APIN.      42001313820000       : API Number
 UWI.       42001313820000       : Unique Well Number
 NUMB.      1                    : Well Number
 OPER.      MARSHALL EXPL CO INC : Operator Name
 LEAS.      BROOKSHIRE           : Lease Name
~Parameter Block
#MNEM.UNIT           VALUE            Description
#---------    --------------------   ---------------------------------
 EKB.F                   626.0 : KB Elevation
~Curve Information Block
#MNEM.UNIT      API CODE      Curve Description
#---------    -------------   ---------------------------------
 DEPT.F                   00 000 00 00: Depth (MD)
 RES.OHM.M                00 001 00 00: Medium Resistivity
 SP.MV                    00 002 00 00: Spontaneous Potential
~A        DEPT         RES          SP
# ...
      2649.996       1.275     -17.142
      2650.496       1.280     -17.143
      2650.996       1.286     -17.144
      2651.496       1.292     -17.820
      2651.996       1.295     -18.238
      2652.496       1.295     -17.867
      2652.996       1.295     -17.496
      2653.496       1.304     -17.125
      2653.996       1.320     -16.753
      2654.496       1.345     -16.382
      2654.996       1.366     -16.010
      2655.496       1.378     -15.639
      2655.996       1.403     -15.353
      2656.496       1.402     -15.524
      2656.996       1.402     -15.695
      2657.496       1.402     -15.867
      2657.996       1.402     -16.038
      2658.496       1.397     -16.209
      2658.996       1.346     -16.381
      2659.496       1.313     -16.552
      2659.996       1.294     -16.723
      2660.496       1.294     -16.895
      2660.996       1.294     -17.066
      2661.496       1.294     -17.237
      2661.996       1.294     -17.408
      2662.496       1.309     -17.580
      2662.996       1.360     -17.751
      2663.496       1.374     -17.922
      2663.996       1.384     -18.094
      2664.496       1.393     -18.265
      2664.996       1.403     -18.345
      2665.496       1.413     -18.164
      2665.996       1.423     -17.983
      2666.496       1.433     -17.803
      2666.996       1.442     -17.622
      2667.496       1.452     -17.441
      2667.996       1.462     -17.261
      2668.496       1.472     -17.080
      2668.996       1.482     -16.899
      2669.496       1.492     -16.719
      2669.996       1.501     -16.538
      2670.496       1.511     -16.357
      2670.996       1.521     -16.177
      2671.496       1.531     -15.996
      2671.996       1.542     -15.972
      2672.496       1.556     -15.666
      2672.996       1.559     -15.365
      2673.496       1.583     -15.366
      2673.996       1.644     -15.367
      2674.496       1.618     -15.368
      2674.996       1.530     -15.369
      2675.496       1.494     -15.370
      2675.996       1.432     -15.371
      2676.496       1.383     -16.054
      2676.996       1.346     -16.465
      2677.496       1.432     -16.594
      2677.996       1.598     -17.205
      2678.496       1.644     -17.206
      2678.996       1.550     -17.207
      2679.496       1.449     -17.209
      2679.996       1.371     -17.210
      2680.496       1.301     -17.211
      2680.996       1.253     -17.212
      2681.496       1.226     -17.213
      2681.996       1.226     -17.214
      2682.496       1.418     -17.215
      2682.996       1.458     -17.217
      2683.496       1.473     -17.218
      2683.996       1.497     -16.997
      2684.496       1.509     -16.610
      2684.996       1.537     -16.611
      2685.496       1.537     -16.612
      2685.996       1.555     -16.614
      2686.496       1.561     -16.615
      2686.996       1.575     -16.616
      2687.496       1.578     -16.617
      2687.996       1.578     -17.067
      2688.496       1.578     -17.612
      2688.996       1.578     -18.312
      2689.496       1.578     -18.448
      2689.996       1.578     -18.449
      2690.496       1.578     -18.450
      2690.996       1.537     -19.061
      2691.496       1.540     -19.062
      2691.996       1.544     -19.063
      2692.496       1.547     -19.064
      2692.996       1.551     -19.065
      2693.496       1.555     -19.066
      2693.996       1.558     -19.067
      2694.496       1.562     -19.069
      2694.996       1.565     -19.070
      2695.496       1.569     -19.071
      2695.996       1.573     -19.021
      2696.496       1.576     -18.901
      2696.996       1.585     -18.781
      2697.496       1.597     -18.661
      2697.996       1.608     -18.541
      2698.496       1.620     -18.421
      2698.996       1.631     -18.301
      2699.496       1.643     -18.181
      2699.996       1.654     -18.061
      2700.496       1.665     -17.941
      2700.996       1.677     -17.821
      2701.496       1.688     -17.701
      2701.996       1.700     -17.581
      2702.496       1.711     -17.461
      2702.996       1.723     -17.341
      2703.496       1.731     -17.221
      2703.996       1.731     -17.101
      2704.496       1.723     -16.980
      2704.996       1.686     -16.860
      2705.496       1.642     -16.740
      2705.996       1.626     -16.696
      2706.496       1.619     -16.814
      2706.996       1.619     -16.932
      2707.496       1.619     -17.050
      2707.996       1.622     -17.168
      2708.496       1.708     -17.286
      2708.996       1.728     -17.404
      2709.496       1.731     -17.522
      2709.996       1.747     -17.640
      2710.496       1.754     -17.758
      2710.996       1.741     -17.876
      2711.496       1.688     -17.906
      2711.996       1.655     -17.924
      2712.496       1.582     -17.942
      2712.996       1.532     -17.960
      2713.496       1.469     -17.978
      2713.996       1.456     -17.996
      2714.496       1.436     -18.014
      2714.996       1.436     -18.032
      2715.496       1.436     -18.051
      2715.996       1.436     -18.069
      2716.496       1.436     -18.087
      2716.996       1.436     -18.105
      2717.496       1.436     -18.123
      2717.996       1.436     -18.141
      2718.496       1.435     -18.159
      2718.996       1.456     -18.177
      2719.496       1.484     -18.195
      2719.996       1.494     -18.213
      2720.496       1.520     -18.232
      2720.996       1.549     -18.250
      2721.496       1.579     -18.268
      2721.996       1.597     -18.286
      2722.496       1.639     -18.304
      2722.996       1.606     -18.322
      2723.496       1.506     -18.340
      2723.996       1.444     -18.358
      2724.496       1.376     -18.376
      2724.996       1.325     -18.394
      2725.496       1.278     -18.412
      2725.996       1.226     -18.430
      2726.496       1.220     -18.448
      2726.996       1.206     -18.467
      2727.496       1.206     -18.485
      2727.996       1.206     -18.503
      2728.496       1.206     -18.521
      2728.996       1.214     -18.528
      2729.496       1.250     -18.455
      2729.996       1.291     -18.382
      2730.496       1.325     -18.309
      2730.996       1.359     -18.237
      2731.496       1.436     -18.164
      2731.996       1.485     -18.091
      2732.496       1.517     -18.018
      2732.996       1.533     -17.945
      2733.496       1.554     -17.941
      2733.996       1.563     -17.942
      2734.496       1.574     -17.943
      2734.996       1.587     -17.944
      2735.496       1.632     -17.945
      2735.996       1.663     -17.946
      2736.496       1.695     -17.948
      2736.996       1.727     -17.949
      2737.496       1.744     -18.246
      2737.996       1.798     -18.557
      2738.496       1.834     -18.558
      2738.996       1.872     -18.562
      2739.496       1.871     -19.171
      2739.996       1.871     -19.172
      2740.496       1.801     -19.173
      2740.996       1.768     -19.174
      2741.496       1.735     -19.175
      2741.996       1.715     -19.176
      2742.496       1.693     -18.935
      2742.996       1.682     -18.267
      2743.496       1.638     -17.723
      2743.996       1.638     -17.355
      2744.496       1.638     -17.356
      2744.996       1.637     -17.357
      2745.496       1.617     -17.358
      2745.996       1.616     -17.359
      2746.496       1.616     -17.360
      2746.996       1.615     -17.361
      2747.496       1.609     -17.363
      2747.996       1.603     -17.364
      2748.496       1.597     -17.365
      2748.996       1.591     -17.366
      2749.496       1.585     -17.367
      2749.996       1.579     -17.368
      2750.496       1.573     -17.369
      2750.996       1.567     -17.371
      2751.496       1.561     -17.372
      2751.996       1.555     -17.373
      2752.496       1.552     -17.374
