~Version Information
 VERS.                 2.0: 
 WRAP.                  NO: 
 END.                PETRA:IHS Markit
~Well Information Block
#MNEM.UNIT       Data Type    Information
#---------    -------------   ---------------------------------
 STRT.F           2232.9955:
 STOP.F          11856.9763:
 STEP.F              0.5000:
 NULL.              -999.25:
 COMP.                           : COMPANY
 FLD.       PLUM JELLY           : FIELD
 LOC.                            : LOCATION
 DATE.      24-JUN-2024          : DATE
 WELL.                           : Well Name
 LABL.      42001313930000                   : Well Label
 APIN.      42001313930000       : API Number
 UWI.       42001313930000       : Unique Well Number
 NUMB.      1                    : Well Number
 OPER.      BOIS D ARC INC       : Operator Name
 LEAS.      SACK TRUST GAS UNIT  : Lease Name
~Parameter Block
#MNEM.UNIT           VALUE            Description
#---------    --------------------   ---------------------------------
 EKB.F                   496.0 : KB Elevation
~Curve Information Block
#MNEM.UNIT      API CODE      Curve Description
#---------    -------------   ---------------------------------
 DEPT.F                   00 000 00 00: Depth (MD)
 RES.OHM.M                00 001 00 00: Medium Resistivity
 SP.MV                    00 002 00 00: Spontaneous Potential
~A        DEPT         RES          SP
# ...
     10472.996     179.279     -27.217
     10473.496     192.695     -27.553
     10473.996     206.111     -27.889
     10474.496     219.528     -28.226
     10474.996     232.944     -28.562
     10475.496     244.286     -29.177
     10475.996     238.167     -30.156
     10476.496     232.047     -31.134
     10476.996     225.927     -32.112
     10477.496     226.134     -33.091
     10477.996     227.219     -34.069
     10478.496     227.933     -35.048
     10478.996     227.943     -36.026
     10479.496     227.952     -37.005
     10479.996     227.961     -37.983
     10480.496     227.970     -38.962
     10480.996     230.739     -39.940
     10481.496     232.481     -40.919
     10481.996     235.229     -41.897
     10482.496     237.976     -42.958
     10482.996     240.724     -44.625
     10483.496     243.472     -46.293
     10483.996     246.219     -47.960
     10484.496     248.082     -49.627
     10484.996     248.092     -51.294
     10485.496     250.096     -52.961
     10485.996     251.859     -54.629
     10486.496     256.740     -56.296
     10486.996     260.366     -57.963
     10487.496     260.377     -59.630
     10487.996     260.387     -59.918
     10488.496     256.875     -58.998
     10488.996     252.123     -58.077
     10489.496     238.781     -57.157
     10489.996     214.386     -56.236
     10490.496     179.829     -55.316
     10490.996     145.273     -54.201
     10491.496     118.981     -52.659
     10491.996      98.377     -51.117
     10492.496      77.773     -49.574
     10492.996      57.169     -48.032
     10493.496      36.611     -46.490
     10493.996      26.913     -44.947
     10494.496      17.216     -43.467
     10494.996      13.818     -42.035
     10495.496      20.997     -40.603
     10495.996      28.175     -39.171
     10496.496      35.354     -37.739
     10496.996      42.532     -36.307
     10497.496      49.711     -34.875
     10497.996      56.889     -33.443
     10498.496      54.760     -32.642
     10498.996      49.678     -32.311
     10499.496      44.595     -31.980
     10499.996      39.513     -31.649
     10500.496      34.430     -31.317
     10500.996      29.348     -30.986
     10501.496      24.265     -30.655
     10501.996     135.070     -30.324
     10502.496     250.050     -29.992
     10502.996     237.816     -29.661
     10503.496     225.583     -29.330
     10503.996     213.349     -28.999
     10504.496     201.116     -28.667
     10504.996     188.882     -28.336
     10505.496     176.649     -28.005
     10505.996     164.416     -27.674
     10506.496     152.182     -27.548
     10506.996     157.646     -27.472
     10507.496     179.113     -27.396
     10507.996     200.580     -27.320
     10508.496     222.048     -27.244
     10508.996     243.515     -27.168
     10509.496     245.955     -27.091
     10509.996     242.527     -27.015
     10510.496     239.676     -26.939
     10510.996     239.123     -26.863
     10511.496     238.569     -26.787
     10511.996     238.015     -26.711
     10512.496     237.461     -26.635
     10512.996     236.970     -26.558
     10513.496     236.979     -26.595
     10513.996     239.857     -26.652
     10514.496     239.867     -26.708
     10514.996     245.762     -26.765
     10515.496     252.025     -26.822
     10515.996     254.771     -26.878
     10516.496     254.781     -26.935
     10516.996     257.394     -26.991
     10517.496     257.886     -27.048
     10517.996     264.231     -27.322
     10518.496     267.386     -27.610
     10518.996     267.397     -27.899
     10519.496     265.037     -28.187
     10519.996     240.052     -28.475
     10520.496     211.072     -28.764
     10520.996     182.092     -29.052
     10521.496     153.113     -29.340
     10521.996     124.133     -29.628
     10522.496      97.769     -27.169
     10522.996      85.371     -24.647
     10523.496      72.973     -22.125
     10523.996      60.575     -19.604
     10524.496      48.177     -17.082
     10524.996      35.779     -14.560
     10525.496      23.381     -12.793
     10525.996      14.125     -12.259
     10526.496      14.492     -11.725
     10526.996      14.859     -11.191
     10527.496      15.226     -10.657
     10527.996      15.592     -10.123
     10528.496      55.822      -9.589
     10528.996     102.304      -9.056
     10529.496     148.786      -8.522
     10529.996     195.267      -8.129
     10530.496     241.749      -7.833
     10530.996     287.472      -7.537
     10531.496     268.451      -7.242
     10531.996     249.430      -6.946
     10532.496     230.409      -6.650
     10532.996     211.388      -6.354
     10533.496     192.367      -6.059
     10533.996     173.346      -5.763
     10534.496     154.326      -5.467
     10534.996     135.305      -5.172
     10535.496     116.284      -4.876
     10535.996      97.263      -4.580
     10536.496      78.242      -4.285
     10536.996      59.221      -3.989
     10537.496      40.200      -3.693
     10537.996      58.141      -3.397
     10538.496      98.560      -3.102
     10538.996     138.980      -3.042
     10539.496     179.399      -3.003
     10539.996     219.818      -2.964
     10540.496     260.238      -2.925
     10540.996     285.746      -2.886
     10541.496     278.844      -2.848
     10541.996     271.942      -2.809
     10542.496     265.039      -2.770
     10542.996     258.137      -2.731
     10543.496     251.167      -2.692
     10543.996     243.815      -2.653
     10544.496     236.464      -2.614
     10544.996     229.112      -2.575
     10545.496     223.720      -2.537
     10545.996     215.905      -2.607
     10546.496     203.343      -2.683
     10546.996     198.323      -2.759
     10547.496     196.018      -2.835
     10547.996     191.052      -2.911
     10548.496     187.517      -2.987
     10548.996     184.046      -3.063
     10549.496     180.640      -3.139
     10549.996     171.082      -3.215
     10550.496     167.915      -3.291
     10550.996      92.264      -3.367
     10551.496      65.156      -3.443
     10551.996      49.947      -3.519
     10552.496      34.738      -3.313
     10552.996      19.529      -2.898
     10553.496      13.064      -2.484
     10553.996      14.788      -2.070
     10554.496      16.511      -1.655
     10554.996      18.234      -1.241
     10555.496      19.957      -0.826
     10555.996      21.329      -0.412
     10556.496      20.576       0.003
     10556.996      19.824       0.417
     10557.496      19.072       0.601
     10557.996      18.320       0.557
     10558.496      17.568       0.513
     10558.996      16.816       0.470
     10559.496      16.063       0.426
     10559.996      15.311       0.382
     10560.496      14.559       0.339
     10560.996      75.970       0.295
     10561.496     250.123       0.251
     10561.996     231.146       0.207
     10562.496     202.038       0.164
     10562.996     198.639       0.130
     10563.496     198.647       0.281
     10563.996     198.655       0.432
     10564.496     198.663       0.583
     10564.996     198.671       0.733
     10565.496     161.633       0.884
     10565.996     128.691       1.035
     10566.496     134.072       1.205
     10566.996     139.453       1.581
     10567.496     144.834       1.958
     10567.996     150.215       2.335
     10568.496     120.938       2.711
     10568.996      88.371       3.088
     10569.496      55.805       3.465
     10569.996      41.021       3.841
     10570.496      37.583       4.218
     10570.996      34.144       4.594
     10571.496      29.401       4.971
     10571.996      20.603       5.348
     10572.496      17.211       5.724
     10572.996      17.435       6.101
     10573.496      17.658       6.414
     10573.996      17.881       6.506
     10574.496      17.533       6.599
     10574.996      17.057       6.692
     10575.496      16.580       6.785
