~Version Information
 VERS.                 2.0: 
 WRAP.                  NO: 
 END.                PETRA:IHS Markit
~Well Information Block
#MNEM.UNIT       Data Type    Information
#---------    -------------   ---------------------------------
 STRT.F           2031.9959:
 STOP.F          10833.9783:
 STEP.F              0.5000:
 NULL.              -999.25:
 COMP.                           : COMPANY
 FLD.       PURT WEST            : FIELD
 LOC.                            : LOCATION
 DATE.      24-JUN-2024          : DATE
 WELL.                           : Well Name
 LABL.      42001313820000                   : Well Label
 APIN.      42001313820000       : API Number
 UWI.       42001313820000       : Unique Well Number
 NUMB.      1                    : Well Number
 OPER.      MARSHALL EXPL CO INC : Operator Name
 LEAS.      BROOKSHIRE           : Lease Name
~Parameter Block
#MNEM.UNIT           VALUE            Description
#---------    --------------------   ---------------------------------
 EKB.F                   626.0 : KB Elevation
~Curve Information Block
#MNEM.UNIT      API CODE      Curve Description
#---------    -------------   ---------------------------------
 DEPT.F                   00 000 00 00: Depth (MD)
 RES.OHM.M                00 001 00 00: Medium Resistivity
 SP.MV                    00 002 00 00: Spontaneous Potential
~A        DEPT         RES          SP
# ...
      4297.996       2.028      -4.607
      4298.496       2.014      -4.710
      4298.996       2.000      -4.813
      4299.496       1.986      -4.917
      4299.996       1.971      -5.020
      4300.496       1.842      -5.649
      4300.996       1.689      -5.650
      4301.496       1.556      -5.651
      4301.996       1.463      -5.652
      4302.496       1.463      -5.915
      4302.996       1.509      -6.264
      4303.496       1.570      -6.265
      4303.996       1.724      -6.266
      4304.496       1.774      -6.268
      4304.996       1.955      -6.269
      4305.496       2.069      -6.270
      4305.996       1.998      -6.271
      4306.496       1.926      -6.272
      4306.996       1.855      -6.273
      4307.496       1.784      -6.274
      4307.996       1.739      -6.276
      4308.496       1.882      -6.277
      4308.996       2.079      -6.278
      4309.496       2.119      -6.889
      4309.996       2.123      -6.890
      4310.496       2.123      -7.437
      4310.996       2.121      -8.147
      4311.496       2.082      -8.351
      4311.996       2.019      -8.556
      4312.496       1.934      -8.722
      4312.996       1.986      -8.723
      4313.496       2.070      -8.724
      4313.996       2.095      -8.725
      4314.496       2.056      -8.726
      4314.996       1.917      -8.727
      4315.496       1.847      -8.728
      4315.996       1.913      -8.729
      4316.496       2.011      -8.731
      4316.996       2.110      -8.732
      4317.496       2.208      -8.733
      4317.996       2.307      -8.734
      4318.496       2.406      -8.735
      4318.996       2.504      -8.736
      4319.496       2.581      -8.737
      4319.996       2.485      -8.739
      4320.496       2.388      -8.740
      4320.996       2.292      -9.960
      4321.496       2.196     -10.812
      4321.996       2.100     -11.627
      4322.496       2.003     -13.619
      4322.996       1.907     -14.230
      4323.496       1.811     -15.282
      4323.996       1.714     -17.888
      4324.496       1.672     -19.337
      4324.996       2.314     -21.366
      4325.496       2.956     -24.012
      4325.996       3.598     -25.415
      4326.496       4.154     -27.253
      4326.996       3.785     -28.872
      4327.496       3.417     -30.182
      4327.996       3.048     -30.591
      4328.496       2.679     -31.309
      4328.996       2.311     -32.123
      4329.496       3.618     -32.758
      4329.996       4.988     -33.225
      4330.496       6.358     -33.692
      4330.996       7.728     -34.159
      4331.496       8.101     -34.625
      4331.996       6.771     -34.960
      4332.496       5.441     -34.961
      4332.996       4.110     -34.218
      4333.496       2.780     -32.132
      4333.996       2.790     -30.899
      4334.496       3.176     -28.963
      4334.996       3.563     -26.893
      4335.496       3.949     -24.824
      4335.996       4.335     -22.754
      4336.496       4.722     -20.684
      4336.996       5.108     -18.615
      4337.496       5.494     -16.545
      4337.996       4.911     -14.475
      4338.496       3.405     -12.406
      4338.996       2.084     -10.336
      4339.496       2.266      -9.488
      4339.996       2.447      -9.664
      4340.496       2.629      -9.840
      4340.996       2.494     -10.017
      4341.496       2.242     -10.193
      4341.996       2.281     -10.370
      4342.496       2.320     -10.546
      4342.996       2.358     -10.722
      4343.496       2.397     -10.899
      4343.996       2.436     -11.075
      4344.496       2.421     -11.233
      4344.996       2.360     -11.234
      4345.496       2.299     -11.235
      4345.996       2.238     -11.236
      4346.496       2.176     -11.238
      4346.996       2.115     -11.239
      4347.496       2.054     -11.240
      4347.996       1.993     -11.241
      4348.496       1.932     -11.242
      4348.996       1.930     -11.243
      4349.496       2.015     -11.244
      4349.996       2.146     -10.694
      4350.496       2.511     -10.637
      4350.996       2.695     -10.638
      4351.496       2.706     -10.639
      4351.996       2.473     -10.640
      4352.496       2.343     -10.641
      4352.996       2.552     -10.935
      4353.496       2.711     -11.612
      4353.996       2.604     -12.471
      4354.496       2.497     -13.649
      4354.996       2.389     -13.878
      4355.496       2.282     -14.693
      4355.996       2.174     -15.310
      4356.496       2.067     -15.854
      4356.996       2.071     -17.743
      4357.496       2.124     -18.556
      4357.996       2.177     -19.195
      4358.496       2.229     -19.259
      4358.996       2.282     -19.324
      4359.496       2.282     -19.388
      4359.996       2.070     -19.452
      4360.496       2.013     -19.516
      4360.996       1.902     -19.580
      4361.496       1.757     -19.644
      4361.996       1.757     -19.708
      4362.496       1.757     -19.772
      4362.996       1.848     -19.616
      4363.496       1.990     -19.276
      4363.996       2.080     -18.935
      4364.496       2.216     -18.595
      4364.996       2.351     -18.255
      4365.496       2.486     -17.915
      4365.996       2.622     -17.575
      4366.496       2.757     -17.234
      4366.996       2.601     -16.894
      4367.496       2.433     -16.554
      4367.996       2.264     -16.214
      4368.496       2.096     -15.873
      4368.996       2.039     -15.533
      4369.496       2.049     -15.193
      4369.996       2.059     -14.853
      4370.496       2.068     -14.513
      4370.996       2.078     -14.172
      4371.496       2.088     -13.832
      4371.996       2.041     -13.731
      4372.496       1.996     -12.944
      4372.996       1.979     -12.126
      4373.496       1.979     -11.909
      4373.996       1.979     -11.097
      4374.496       2.013     -10.691
      4374.996       2.083      -8.863
      4375.496       2.123      -8.864
      4375.996       2.144      -7.649
      4376.496       2.002      -7.650
      4376.996       1.953      -7.651
      4377.496       1.953      -8.111
      4377.996       1.976      -9.480
      4378.496       2.032      -9.481
      4378.996       2.022     -10.092
      4379.496       1.932     -10.764
      4379.996       1.879     -11.313
      4380.496       1.802     -12.531
      4380.996       1.802     -12.532
      4381.496       2.123     -12.533
      4381.996       2.628     -12.047
      4382.496       2.790     -11.226
      4382.996       2.951      -9.947
      4383.496       3.111      -9.538
      4383.996       2.940      -8.883
      4384.496       2.770      -8.555
      4384.996       2.599      -7.669
      4385.496       2.429      -7.671
      4385.996       2.258      -7.318
      4386.496       2.087      -7.063
      4386.996       2.024      -7.064
      4387.496       2.181      -7.065
      4387.996       2.248      -7.066
      4388.496       2.290      -7.068
      4388.996       2.194      -7.198
      4389.496       2.075      -7.471
      4389.996       1.916      -7.870
      4390.496       1.846      -8.685
      4390.996       1.802      -8.899
      4391.496       1.801      -9.299
      4391.996       1.801     -10.121
      4392.496       1.951     -10.122
      4392.996       1.951     -10.229
      4393.496       1.846     -10.638
      4393.996       1.756     -10.728
      4394.496       1.711     -10.417
      4394.996       1.773     -10.106
      4395.496       1.896      -9.795
      4395.996       2.071      -9.484
      4396.496       2.193      -9.173
      4396.996       2.201      -8.862
      4397.496       2.163      -8.551
      4397.996       2.124      -8.241
      4398.496       2.086      -7.929
      4398.996       2.048      -7.619
      4399.496       2.009      -7.308
      4399.996       1.971      -6.997
      4400.496       1.933      -6.686
