~Version Information
 VERS.                 2.0: 
 WRAP.                  NO: 
 END.                PETRA:IHS Markit
~Well Information Block
#MNEM.UNIT       Data Type    Information
#---------    -------------   ---------------------------------
 STRT.F           2232.9955:
 STOP.F          11856.9763:
 STEP.F              0.5000:
 NULL.              -999.25:
 COMP.                           : COMPANY
 FLD.       PLUM JELLY           : FIELD
 LOC.                            : LOCATION
 DATE.      24-JUN-2024          : DATE
 WELL.                           : Well Name
 LABL.      42001313930000                   : Well Label
 APIN.      42001313930000       : API Number
 UWI.       42001313930000       : Unique Well Number
 NUMB.      1                    : Well Number
 OPER.      BOIS D ARC INC       : Operator Name
 LEAS.      SACK TRUST GAS UNIT  : Lease Name
~Parameter Block
#MNEM.UNIT           VALUE            Description
#---------    --------------------   ---------------------------------
 EKB.F                   496.0 : KB Elevation
~Curve Information Block
#MNEM.UNIT      API CODE      Curve Description
#---------    -------------   ---------------------------------
 DEPT.F                   00 000 00 00: Depth (MD)
 RES.OHM.M                00 001 00 00: Medium Resistivity
 SP.MV                    00 002 00 00: Spontaneous Potential
~A        DEPT         RES          SP
# ...
     11708.996      21.505       6.264
     11709.496      19.352       6.347
     11709.996      17.200       6.431
     11710.496      15.048       6.514
     11710.996      14.575       5.996
     11711.496      14.232       4.424
     11711.996      13.888       2.851
     11712.496      13.544       1.278
     11712.996      13.200      -0.294
     11713.496      12.857      -1.867
     11713.996      12.513      -3.440
     11714.496      12.169      -5.012
     11714.996      11.826      -6.585
     11715.496      11.482      -8.158
     11715.996      11.139      -9.730
     11716.496      12.559     -11.076
     11716.996      18.059     -11.035
     11717.496      23.560     -10.994
     11717.996      29.061     -10.954
     11718.496      34.561     -10.913
     11718.996      40.062     -10.873
     11719.496      45.562     -10.832
     11719.996      45.230     -10.791
     11720.496      40.634     -10.751
     11720.996      36.038     -10.710
     11721.496      31.443     -10.669
     11721.996      26.847     -10.629
     11722.496      22.252     -10.588
     11722.996      17.656     -10.547
     11723.496      13.060      -9.636
     11723.996      18.526      -8.516
     11724.496      27.537      -7.395
     11724.996      33.951      -6.275
     11725.496      30.840      -5.154
     11725.996      27.729      -4.375
     11726.496      24.618      -4.721
     11726.996      21.507      -5.066
     11727.496      18.396      -5.412
     11727.996      15.285      -5.758
     11728.496      20.393      -5.432
     11728.996      25.517      -4.878
     11729.496      25.162      -4.324
     11729.996      23.379      -3.771
     11730.496      21.596      -3.217
     11730.996      19.813      -2.759
     11731.496      18.031      -3.162
     11731.996      17.497      -3.565
     11732.496      18.556      -3.969
     11732.996      18.529      -4.372
     11733.496      17.775      -4.775
     11733.996      17.021      -5.178
     11734.496      16.268      -5.581
     11734.996      15.514      -5.984
     11735.496      14.760      -6.388
     11735.996      14.516      -6.791
     11736.496      21.909      -7.496
     11736.996      29.302      -8.262
     11737.496      36.696      -9.029
     11737.996      41.666      -9.795
     11738.496      40.442     -10.561
     11738.996      39.218     -11.327
     11739.496      37.994     -12.093
     11739.996      35.150     -12.860
     11740.496      29.832     -13.626
     11740.996      24.514     -14.392
     11741.496      19.196     -15.158
     11741.996      13.879     -15.924
     11742.496       9.239     -16.690
     11742.996      11.961     -17.456
     11743.496      14.684     -18.223
     11743.996      16.510     -16.825
     11744.496      16.039     -15.299
     11744.996      15.568     -13.772
     11745.496      15.097     -12.246
     11745.996      14.626     -10.720
     11746.496      14.155      -9.193
     11746.996      15.404      -7.667
     11747.496      18.732      -6.141
     11747.996      22.060      -4.614
     11748.496      25.359      -3.088
     11748.996      24.139      -1.562
     11749.496      22.919      -0.035
     11749.996      21.699       0.532
     11750.496      20.479       0.636
     11750.996      19.259       0.741
     11751.496      18.039       0.845
     11751.996      16.820       0.949
     11752.496      15.600       1.053
     11752.996      14.380       1.157
     11753.496      13.160       1.261
     11753.996      11.940       1.365
     11754.496      17.341       1.469
     11754.996      25.201       0.888
     11755.496      33.060      -0.302
     11755.996      40.486      -1.492
     11756.496      38.308      -2.682
     11756.996      36.129      -3.872
     11757.496      33.951      -5.062
     11757.996      31.772      -6.252
     11758.496      29.593      -7.443
     11758.996      27.415      -8.633
     11759.496      25.236      -9.823
     11759.996      23.058     -11.013
     11760.496      20.879     -12.203
     11760.996      19.028     -13.393
     11761.496      24.301     -14.584
     11761.996      29.573     -15.838
     11762.496      34.846     -17.487
     11762.996      40.118     -19.135
     11763.496      45.391     -20.783
     11763.996      50.664     -22.432
     11764.496      54.666     -24.080
     11764.996      43.740     -25.728
     11765.496      32.815     -27.164
     11765.996      21.889     -28.409
     11766.496      10.963     -29.654
     11766.996       9.195     -30.900
     11767.496      11.612     -32.145
     11767.996      14.028     -33.390
     11768.496      16.445     -34.635
     11768.996      16.475     -35.881
     11769.496      15.650     -37.126
     11769.996      14.826     -37.764
     11770.496      14.002     -37.317
     11770.996      13.178     -36.871
     11771.496      12.353     -36.424
     11771.996      10.966     -35.977
     11772.496       9.449     -35.531
     11772.996       7.933     -35.084
     11773.496       8.063     -34.638
     11773.996      12.323     -34.065
     11774.496      16.584     -32.924
     11774.996      20.845     -31.782
     11775.496      25.106     -30.641
     11775.996      29.367     -29.500
     11776.496      33.628     -28.359
     11776.996      37.888     -27.218
     11777.496      41.020     -26.077
     11777.996      42.858     -24.936
     11778.496      44.695     -24.778
     11778.996      44.448     -25.537
     11779.496      40.648     -26.296
     11779.996      36.847     -27.055
     11780.496      33.046     -27.814
     11780.996      29.245     -28.572
     11781.496      25.445     -29.331
     11781.996      21.644     -30.090
     11782.496      20.399     -30.849
     11782.996      21.674     -31.608
     11783.496      22.949     -32.367
     11783.996      22.982     -33.126
     11784.496      21.412     -33.880
     11784.996      19.842     -34.614
     11785.496      18.272     -35.349
     11785.996      16.702     -36.084
     11786.496      15.132     -36.819
     11786.996      13.562     -37.553
     11787.496      13.240     -38.288
     11787.996      13.393     -39.023
     11788.496      13.547     -39.204
     11788.996      13.850     -38.730
     11789.496      14.266     -38.256
     11789.996      14.682     -37.782
     11790.496      15.099     -37.335
     11790.996      13.604     -36.981
     11791.496      12.316     -35.616
     11791.996      11.029     -34.251
     11792.496       9.741     -33.945
     11792.996      11.130     -32.373
     11793.496      13.571     -29.066
     11793.996      16.012     -25.759
     11794.496      18.453     -22.452
     11794.996      20.894     -19.145
     11795.496      23.335     -17.268
     11795.996      25.776     -17.852
     11796.496      28.217     -18.437
     11796.996      30.658     -19.022
     11797.496      27.244     -19.606
     11797.996      23.265     -20.191
     11798.496      19.286     -20.776
     11798.996      15.307     -21.044
     11799.496      11.328     -20.490
     11799.996      12.798     -19.936
     11800.496      15.523     -19.383
     11800.996      18.248     -18.829
     11801.496      20.974     -18.275
     11801.996      21.012     -17.721
     11802.496      20.366     -17.167
     11802.996      19.721     -16.613
     11803.496      19.075     -16.060
     11803.996      18.429     -15.506
     11804.496      17.784     -14.952
     11804.996      19.116     -15.284
     11805.496      24.817     -15.630
     11805.996      30.517     -15.976
     11806.496      36.218     -16.321
     11806.996      41.919     -16.131
     11807.496      44.121     -15.402
     11807.996      31.754     -14.672
     11808.496      19.388     -13.943
     11808.996      13.655     -13.214
     11809.496      13.389     -12.484
     11809.996      13.124     -11.755
     11810.496      12.858     -11.026
     11810.996      12.593     -10.296
     11811.496      12.328      -9.567
