~Version Information
 VERS.                 2.0: 
 WRAP.                  NO: 
 END.                PETRA:IHS Markit
~Well Information Block
#MNEM.UNIT       Data Type    Information
#---------    -------------   ---------------------------------
 STRT.F           2232.9955:
 STOP.F          11856.9763:
 STEP.F              0.5000:
 NULL.              -999.25:
 COMP.                           : COMPANY
 FLD.       PLUM JELLY           : FIELD
 LOC.                            : LOCATION
 DATE.      24-JUN-2024          : DATE
 WELL.                           : Well Name
 LABL.      42001313930000                   : Well Label
 APIN.      42001313930000       : API Number
 UWI.       42001313930000       : Unique Well Number
 NUMB.      1                    : Well Number
 OPER.      BOIS D ARC INC       : Operator Name
 LEAS.      SACK TRUST GAS UNIT  : Lease Name
~Parameter Block
#MNEM.UNIT           VALUE            Description
#---------    --------------------   ---------------------------------
 EKB.F                   496.0 : KB Elevation
~Curve Information Block
#MNEM.UNIT      API CODE      Curve Description
#---------    -------------   ---------------------------------
 DEPT.F                   00 000 00 00: Depth (MD)
 RES.OHM.M                00 001 00 00: Medium Resistivity
 SP.MV                    00 002 00 00: Spontaneous Potential
~A        DEPT         RES          SP
# ...
      2850.996       1.430      -0.783
      2851.496       1.458      -0.782
      2851.996       1.486      -0.780
      2852.496       1.514      -0.778
      2852.996       1.542      -0.777
      2853.496       1.570      -0.775
      2853.996       1.598      -0.773
      2854.496       1.626      -0.771
      2854.996       1.654      -0.770
      2855.496       1.682      -0.768
      2855.996       1.694      -0.766
      2856.496       1.678      -0.765
      2856.996       1.661      -0.763
      2857.496       1.645      -0.761
      2857.996       1.628      -0.760
      2858.496       1.611      -0.758
      2858.996       1.594      -0.756
      2859.496       1.578      -0.755
      2859.996       1.561      -0.753
      2860.496       1.544      -0.751
      2860.996       1.528      -0.757
      2861.496       1.511      -0.764
      2861.996       1.494      -0.771
      2862.496       1.478      -0.778
      2862.996       1.461      -0.786
      2863.496       1.422      -0.793
      2863.996       1.370      -0.800
      2864.496       1.319      -0.807
      2864.996       1.267      -0.814
      2865.496       1.216      -0.822
      2865.996       1.164      -0.829
      2866.496       1.113      -0.836
      2866.996       1.061      -0.843
      2867.496       1.113      -0.850
      2867.996       1.188      -0.858
      2868.496       1.262      -0.865
      2868.996       1.337      -0.872
      2869.496       1.411      -0.879
      2869.996       1.486      -0.886
      2870.496       1.505      -0.894
      2870.996       1.500      -0.901
      2871.496       1.494      -0.908
      2871.996       1.488      -0.915
      2872.496       1.482      -0.922
      2872.996       1.476      -0.930
      2873.496       1.471      -0.937
      2873.996       1.465      -0.944
      2874.496       1.459      -0.951
      2874.996       1.453      -0.959
      2875.496       1.447      -0.966
      2875.996       1.442      -0.973
      2876.496       1.459      -0.980
      2876.996       1.494      -0.987
      2877.496       1.528      -0.995
      2877.996       1.538      -1.002
      2878.496       1.519      -1.009
      2878.996       1.499      -1.016
      2879.496       1.480      -1.024
      2879.996       1.460      -1.031
      2880.496       1.441      -1.038
      2880.996       1.425      -1.045
      2881.496       1.484      -1.052
      2881.996       1.542      -1.060
      2882.496       1.601      -1.067
      2882.996       1.660      -1.074
      2883.496       1.718      -1.081
      2883.996       1.777      -1.088
      2884.496       1.835      -1.096
      2884.996       1.894      -1.103
      2885.496       1.952      -1.110
      2885.996       1.973      -1.117
      2886.496       1.977      -1.124
      2886.996       1.982      -1.132
      2887.496       1.987      -1.139
      2887.996       1.992      -1.146
      2888.496       1.975      -1.153
      2888.996       1.947      -1.160
      2889.496       1.918      -1.168
      2889.996       1.890      -1.214
      2890.496       1.861      -1.351
      2890.996       1.833      -1.489
      2891.496       1.805      -1.626
      2891.996       1.776      -1.764
      2892.496       1.748      -1.901
      2892.996       1.719      -2.039
      2893.496       1.691      -2.176
      2893.996       1.671      -2.314
      2894.496       1.735      -2.451
      2894.996       1.799      -2.588
      2895.496       1.863      -2.726
      2895.996       1.927      -2.863
      2896.496       1.991      -3.001
      2896.996       2.055      -3.138
      2897.496       2.119      -3.276
      2897.996       2.183      -3.413
      2898.496       2.208      -3.551
      2898.996       2.167      -3.688
      2899.496       2.127      -3.826
      2899.996       2.086      -3.963
      2900.496       2.045      -4.101
      2900.996       2.005      -4.238
      2901.496       1.964      -4.375
      2901.996       1.923      -4.513
      2902.496       1.883      -4.650
      2902.996       2.054      -4.746
      2903.496       2.436      -4.612
      2903.996       2.386      -4.478
      2904.496       2.337      -4.344
      2904.996       2.288      -4.210
      2905.496       2.239      -4.076
      2905.996       2.189      -3.942
      2906.496       2.140      -3.808
      2906.996       2.091      -3.674
      2907.496       2.042      -3.540
      2907.996       1.992      -3.406
      2908.496       2.002      -3.272
      2908.996       2.051      -3.138
      2909.496       2.092      -3.004
      2909.996       2.063      -2.870
      2910.496       2.034      -2.736
      2910.996       2.005      -2.602
      2911.496       1.976      -2.468
      2911.996       1.946      -2.334
      2912.496       1.917      -2.200
      2912.996       1.888      -2.076
      2913.496       1.859      -1.960
      2913.996       1.829      -1.843
      2914.496       1.839      -1.728
      2914.996       1.890      -1.611
      2915.496       1.941      -1.495
      2915.996       1.955      -1.379
      2916.496       1.900      -1.263
      2916.996       1.846      -1.147
      2917.496       1.791      -1.031
      2917.996       1.737      -0.915
      2918.496       1.682      -0.799
      2918.996       1.628      -0.683
      2919.496       1.573      -0.567
      2919.996       1.519      -0.451
      2920.496       1.545      -0.335
      2920.996       1.577      -0.219
      2921.496       1.609      -0.103
      2921.996       1.641       0.013
      2922.496       1.673       0.130
      2922.996       1.705       0.246
      2923.496       1.737       0.362
      2923.996       1.768       0.478
      2924.496       1.800       0.594
      2924.996       1.804       0.710
      2925.496       1.780       0.826
      2925.996       1.756       0.942
      2926.496       1.732       1.023
      2926.996       1.709       1.003
      2927.496       1.685       0.982
      2927.996       1.661       0.962
      2928.496       1.637       0.941
      2928.996       1.614       0.921
      2929.496       1.590       0.901
      2929.996       1.581       0.880
      2930.496       1.613       0.860
      2930.996       1.645       0.839
      2931.496       1.677       0.819
      2931.996       1.709       0.799
      2932.496       1.741       0.778
      2932.996       1.773       0.758
      2933.496       1.744       0.737
      2933.996       1.713       0.717
      2934.496       1.682       0.697
      2934.996       1.651       0.676
      2935.496       1.620       0.656
      2935.996       1.589       0.635
      2936.496       1.559       0.615
      2936.996       1.553       0.595
      2937.496       1.619       0.574
      2937.996       1.685       0.554
      2938.496       1.751       0.652
      2938.996       1.816       0.794
      2939.496       1.882       0.936
      2939.996       1.948       1.079
      2940.496       2.014       1.221
      2940.996       1.984       1.363
      2941.496       1.931       1.505
      2941.996       1.879       1.648
      2942.496       1.826       1.790
      2942.996       1.774       1.932
      2943.496       1.721       2.075
      2943.996       1.669       2.217
      2944.496       1.617       2.359
      2944.996       1.564       2.502
      2945.496       1.512       2.644
      2945.996       1.459       2.786
      2946.496       1.407       2.928
      2946.996       1.354       3.071
      2947.496       1.354       3.213
      2947.996       1.363       3.355
      2948.496       1.372       3.498
      2948.996       1.381       3.640
      2949.496       1.390       3.677
      2949.996       1.398       3.630
      2950.496       1.407       3.582
      2950.996       1.416       3.535
      2951.496       1.425       3.487
      2951.996       1.424       3.440
      2952.496       1.404       3.393
      2952.996       1.385       3.346
      2953.496       1.365       3.298
