~Version Information
 VERS.                 2.0: 
 WRAP.                  NO: 
 END.                PETRA:IHS Markit
~Well Information Block
#MNEM.UNIT       Data Type    Information
#---------    -------------   ---------------------------------
 STRT.F           2232.9955:
 STOP.F          11856.9763:
 STEP.F              0.5000:
 NULL.              -999.25:
 COMP.                           : COMPANY
 FLD.       PLUM JELLY           : FIELD
 LOC.                            : LOCATION
 DATE.      24-JUN-2024          : DATE
 WELL.                           : Well Name
 LABL.      42001313930000                   : Well Label
 APIN.      42001313930000       : API Number
 UWI.       42001313930000       : Unique Well Number
 NUMB.      1                    : Well Number
 OPER.      BOIS D ARC INC       : Operator Name
 LEAS.      SACK TRUST GAS UNIT  : Lease Name
~Parameter Block
#MNEM.UNIT           VALUE            Description
#---------    --------------------   ---------------------------------
 EKB.F                   496.0 : KB Elevation
~Curve Information Block
#MNEM.UNIT      API CODE      Curve Description
#---------    -------------   ---------------------------------
 DEPT.F                   00 000 00 00: Depth (MD)
 RES.OHM.M                00 001 00 00: Medium Resistivity
 SP.MV                    00 002 00 00: Spontaneous Potential
~A        DEPT         RES          SP
# ...
     11090.996     410.720    -176.064
     11091.496     392.902    -176.646
     11091.996     375.083    -177.228
     11092.496     489.917    -177.810
     11092.996     780.881    -178.392
     11093.496    1071.844    -178.975
     11093.996    1362.808    -179.557
     11094.496    1538.537    -180.139
     11094.996    1348.862    -180.721
     11095.496    1159.186    -181.303
     11095.996     969.511    -181.886
     11096.496     779.836    -182.468
     11096.996    1184.147    -183.050
     11097.496    1023.753    -183.631
     11097.996     863.358    -184.188
     11098.496     702.963    -184.744
     11098.996     542.569    -185.301
     11099.496     382.174    -185.858
     11099.996     388.240    -186.415
     11100.496     439.411    -186.972
     11100.996     490.581    -187.529
     11101.496     484.529    -188.086
     11101.996     466.720    -188.643
     11102.496     448.912    -189.199
     11102.996     431.103    -189.756
     11103.496     413.295    -190.313
     11103.996     395.486    -190.870
     11104.496    1364.628    -191.427
     11104.996    1252.503    -191.984
     11105.496    1140.377    -192.541
     11105.996    1028.252    -193.151
     11106.496     916.127    -193.882
     11106.996     804.002    -194.613
     11107.496     691.877    -195.344
     11107.996     579.752    -196.075
     11108.496     467.627    -196.806
     11108.996     355.502    -197.536
     11109.496     243.377    -198.267
     11109.996    1354.951    -198.998
     11110.496    1231.430    -199.729
     11110.996    1107.908    -200.460
     11111.496     984.387    -201.191
     11111.996     860.866    -201.922
     11112.496     737.344    -202.653
     11112.996     613.823    -203.383
     11113.496     490.302    -204.114
     11113.996     366.780    -204.845
     11114.496     405.630    -205.576
     11114.996     626.168    -206.307
     11115.496     846.706    -207.038
     11115.996    1067.245    -207.769
     11116.496    1287.783    -208.499
     11116.996    1508.321    -208.887
     11117.496    1728.860    -208.542
     11117.996    1523.678    -208.197
     11118.496    1279.606    -207.852
     11118.996    1035.534    -207.507
     11119.496     791.462    -207.162
     11119.996     547.390    -206.817
     11120.496    1073.254    -206.472
     11120.996    1054.361    -206.126
     11121.496     969.823    -205.781
     11121.996     885.285    -205.436
     11122.496     800.747    -205.091
     11122.996     698.061    -204.746
     11123.496     532.246    -204.401
     11123.996     366.431    -204.056
     11124.496     200.616    -203.858
     11124.996     732.663    -204.298
     11125.496    1494.748    -204.737
     11125.996    1390.651    -205.177
     11126.496    1242.415    -205.616
     11126.996    1094.178    -206.056
     11127.496     945.942    -206.496
     11127.996     797.705    -206.815
     11128.496     649.468    -206.272
     11128.996     508.363    -205.729
     11129.496     370.897    -205.186
     11129.996     264.521    -204.643
     11130.496     240.981    -204.100
     11130.996     217.441    -203.557
     11131.496     193.900    -203.013
     11131.996    1157.875    -202.470
     11132.496    1513.237    -201.927
     11132.996    1422.423    -201.384
     11133.496    1331.609    -200.841
     11133.996    1240.794    -200.298
     11134.496    1149.980    -199.755
     11134.996    1059.166    -199.212
     11135.496     968.352    -198.669
     11135.996     877.538    -198.126
     11136.496     786.723    -197.673
     11136.996     695.909    -197.242
     11137.496     605.095    -196.811
     11137.996     514.281    -196.380
     11138.496     423.466    -195.948
     11138.996     332.652    -195.517
     11139.496     307.659    -195.086
     11139.996     577.480    -194.655
     11140.496     847.301    -194.224
     11140.996    1117.122    -193.793
     11141.496    1051.164    -193.362
     11141.996     821.285    -192.930
     11142.496     591.407    -192.499
     11142.996     361.528    -192.068
     11143.496     462.776    -191.637
     11143.996     818.555    -191.201
     11144.496    1174.335    -190.709
     11144.996    1530.114    -190.218
     11145.496    1544.042    -189.726
     11145.996    1339.230    -189.234
     11146.496    1134.419    -188.742
     11146.996     929.607    -188.251
     11147.496     724.795    -187.759
     11147.996     519.984    -187.267
     11148.496     315.172    -186.775
     11148.996     888.754    -186.284
     11149.496    1439.444    -185.792
     11149.996    1353.732    -185.300
     11150.496    1268.021    -184.808
     11150.996    1182.310    -184.316
     11151.496    1096.599    -183.825
     11151.996    1010.888    -183.333
     11152.496     925.177    -182.788
     11152.996     839.465    -181.816
     11153.496     753.754    -180.844
     11153.996     668.043    -179.872
     11154.496     582.332    -178.900
     11154.996     496.621    -177.929
     11155.496     410.909    -176.957
     11155.996     441.539    -175.985
     11156.496     704.569    -175.013
     11156.996     967.600    -174.042
     11157.496    1230.631    -173.070
     11157.996    1477.872    -172.098
     11158.496    1602.963    -171.126
     11158.996    1646.609    -170.154
     11159.496    1496.744    -169.183
     11159.996    1346.878    -168.211
     11160.496    1197.013    -167.169
     11160.996    1047.147    -166.078
     11161.496     897.281    -164.986
     11161.996     747.416    -163.894
     11162.496     597.550    -162.802
     11162.996    1241.187    -161.710
     11163.496    1110.005    -160.618
     11163.996     978.824    -159.526
     11164.496     847.642    -158.434
     11164.996     716.461    -157.342
     11165.496     585.279    -156.250
     11165.996     496.513    -155.020
     11166.496     594.888    -153.764
     11166.996     693.263    -152.315
     11167.496     791.638    -150.722
     11167.996     890.014    -149.130
     11168.496     988.389    -147.538
     11168.996    1086.764    -145.946
     11169.496    1185.139    -144.353
     11169.996    1283.514    -142.761
     11170.496    1381.889    -141.169
     11170.996    1480.264    -139.577
     11171.496    1578.639    -137.984
     11171.996    1428.866    -136.392
     11172.496    1233.504    -134.800
     11172.996    1038.141    -133.208
     11173.496     842.779    -131.615
     11173.996     647.417    -130.023
     11174.496     452.055    -128.431
     11174.996     736.627    -126.839
     11175.496    1024.499    -125.246
     11175.996    1142.399    -123.654
     11176.496    1014.989    -122.062
     11176.996     887.579    -120.470
     11177.496     760.168    -118.877
     11177.996     632.758    -117.285
     11178.496     505.348    -115.693
     11178.996     377.938    -114.032
     11179.496     316.692    -111.470
     11179.996     256.239    -108.909
     11180.496     195.785    -106.347
     11180.996     135.332    -103.786
     11181.496    1035.759    -101.225
     11181.996     945.403     -98.663
     11182.496     855.048     -96.102
     11182.996     764.692     -93.540
     11183.496     674.336     -90.979
     11183.996     583.981     -88.417
     11184.496     493.625     -85.856
     11184.996     403.270     -83.294
     11185.496     312.914     -80.733
     11185.996     222.558     -78.171
     11186.496     132.203     -75.610
     11186.996     674.541     -73.048
     11187.496     591.030     -70.487
     11187.996     507.519     -67.925
     11188.496     424.008     -65.364
     11188.996     340.497     -62.803
     11189.496     256.986     -60.241
     11189.996     173.476     -57.679
     11190.496      89.965     -55.118
     11190.996     829.816     -52.557
     11191.496     778.815     -49.995
     11191.996     727.813     -47.804
     11192.496     676.812     -45.655
     11192.996     625.811     -43.505
     11193.496     574.810     -41.356
