~Version Information
 VERS.                 2.0: 
 WRAP.                  NO: 
 END.                PETRA:IHS Markit
~Well Information Block
#MNEM.UNIT       Data Type    Information
#---------    -------------   ---------------------------------
 STRT.F           2031.9959:
 STOP.F          10833.9783:
 STEP.F              0.5000:
 NULL.              -999.25:
 COMP.                           : COMPANY
 FLD.       PURT WEST            : FIELD
 LOC.                            : LOCATION
 DATE.      24-JUN-2024          : DATE
 WELL.                           : Well Name
 LABL.      42001313820000                   : Well Label
 APIN.      42001313820000       : API Number
 UWI.       42001313820000       : Unique Well Number
 NUMB.      1                    : Well Number
 OPER.      MARSHALL EXPL CO INC : Operator Name
 LEAS.      BROOKSHIRE           : Lease Name
~Parameter Block
#MNEM.UNIT           VALUE            Description
#---------    --------------------   ---------------------------------
 EKB.F                   626.0 : KB Elevation
~Curve Information Block
#MNEM.UNIT      API CODE      Curve Description
#---------    -------------   ---------------------------------
 DEPT.F                   00 000 00 00: Depth (MD)
 RES.OHM.M                00 001 00 00: Medium Resistivity
 SP.MV                    00 002 00 00: Spontaneous Potential
~A        DEPT         RES          SP
      2031.996     -999.25      36.394
      2032.496     -999.25      35.883
      2032.996     -999.25      35.372
      2033.496     -999.25      34.861
      2033.996     -999.25      34.349
      2034.496     -999.25      33.838
      2034.996     -999.25      33.327
      2035.496     -999.25      32.816
      2035.996     -999.25      32.372
      2036.496     -999.25      32.370
      2036.996     -999.25      32.369
      2037.496     -999.25      32.368
      2037.996     -999.25      32.367
      2038.496     -999.25      32.366
      2038.996     -999.25      32.365
      2039.496     -999.25      32.364
      2039.996     -999.25      31.334
      2040.496     -999.25      30.706
      2040.996     -999.25      30.078
      2041.496     -999.25      29.450
      2041.996     -999.25      28.822
      2042.496     -999.25      28.195
      2042.996     -999.25      27.567
      2043.496     -999.25      26.939
      2043.996     -999.25      26.311
      2044.496     -999.25      25.684
      2044.996     -999.25      25.654
      2045.496     -999.25      25.652
      2045.996     -999.25      25.651
      2046.496     -999.25      25.650
      2046.996     -999.25      25.649
      2047.496     -999.25      25.648
      2047.996     -999.25      25.647
      2048.496     -999.25      25.646
      2048.996     -999.25      25.645
      2049.496     -999.25      25.643
      2049.996     -999.25      25.642
      2050.496     -999.25      25.669
      2050.996     -999.25      26.247
      2051.496     -999.25      26.245
      2051.996     -999.25      26.244
      2052.496     -999.25      26.243
      2052.996     -999.25      26.242
      2053.496     -999.25      26.241
      2053.996     -999.25      26.240
      2054.496     -999.25      26.239
      2054.996     -999.25      26.198
      2055.496     -999.25      25.790
      2055.996     -999.25      25.234
      2056.496     -999.25      24.582
      2056.996     -999.25      23.929
      2057.496     -999.25      23.276
      2057.996     -999.25      22.542
      2058.496     -999.25      21.795
      2058.996     -999.25      21.047
      2059.496     -999.25      20.300
      2059.996     -999.25      19.552
      2060.496     -999.25      18.805
      2060.996     -999.25      18.057
      2061.496     -999.25      17.310
      2061.996     -999.25      16.562
      2062.496     -999.25      16.474
      2062.996     -999.25      16.473
      2063.496     -999.25      16.472
      2063.996     -999.25      16.471
      2064.496     -999.25      16.469
      2064.996     -999.25      16.468
      2065.496     -999.25      16.467
      2065.996     -999.25      16.466
      2066.496     -999.25      16.465
      2066.996     -999.25      15.857
      2067.496     -999.25      14.884
      2067.996     -999.25      13.506
      2068.496     -999.25      13.222
      2068.996     -999.25      13.017
      2069.496     -999.25      12.812
      2069.996     -999.25      12.606
      2070.496     -999.25      12.401
      2070.996     -999.25      12.196
      2071.496     -999.25      11.991
      2071.996     -999.25      11.786
      2072.496     -999.25      11.580
      2072.996     -999.25      11.375
      2073.496     -999.25      11.170
      2073.996     -999.25      10.962
      2074.496     -999.25      10.461
      2074.996     -999.25       9.961
      2075.496     -999.25       9.460
      2075.996     -999.25       8.959
      2076.496     -999.25       8.459
      2076.996     -999.25       7.958
      2077.496     -999.25       7.457
      2077.996     -999.25       6.957
      2078.496     -999.25       6.456
      2078.996     -999.25       5.955
      2079.496     -999.25       5.454
      2079.996     -999.25       4.954
      2080.496     -999.25       4.453
      2080.996     -999.25       3.952
      2081.496     -999.25       3.452
      2081.996     -999.25       2.951
      2082.496     -999.25       2.450
      2082.996     -999.25       1.950
      2083.496     -999.25       1.449
      2083.996     -999.25       0.948
      2084.496     -999.25       0.448
      2084.996     -999.25      -0.053
      2085.496     -999.25      -0.554
      2085.996     -999.25      -0.349
      2086.496     -999.25      -0.013
      2086.996     -999.25       0.323
      2087.496     -999.25       0.659
      2087.996     -999.25       0.995
      2088.496     -999.25       1.331
      2088.996     -999.25       1.667
      2089.496     -999.25       2.003
      2089.996     -999.25       2.340
      2090.496     -999.25       2.675
      2090.996     -999.25       3.012
      2091.496     -999.25       3.348
      2091.996     -999.25       3.519
      2092.496     -999.25       3.049
      2092.996     -999.25       2.579
      2093.496     -999.25       2.108
      2093.996     -999.25       1.637
      2094.496     -999.25       1.167
      2094.996     -999.25       0.697
      2095.496     -999.25       0.226
      2095.996     -999.25      -0.244
      2096.496     -999.25      -0.715
      2096.996     -999.25      -1.185
      2097.496     -999.25      -1.656
      2097.996     -999.25      -2.126
      2098.496     -999.25      -2.597
      2098.996     -999.25      -3.067
      2099.496     -999.25      -3.538
      2099.996     -999.25      -4.008
      2100.496     -999.25      -4.479
      2100.996     -999.25      -4.949
      2101.496     -999.25      -5.420
      2101.996     -999.25      -5.890
      2102.496     -999.25      -6.360
      2102.996     -999.25      -6.831
      2103.496     -999.25      -7.301
      2103.996     -999.25      -7.772
      2104.496     -999.25      -7.777
      2104.996     -999.25      -7.395
      2105.496     -999.25      -7.014
      2105.996     -999.25      -6.633
      2106.496     -999.25      -6.251
      2106.996     -999.25      -5.870
      2107.496     -999.25      -5.488
      2107.996     -999.25      -5.107
      2108.496     -999.25      -4.725
      2108.996     -999.25      -4.344
      2109.496     -999.25      -3.962
      2109.996     -999.25      -3.914
      2110.496     -999.25      -4.368
      2110.996     -999.25      -4.822
      2111.496     -999.25      -5.277
      2111.996     -999.25      -5.731
      2112.496     -999.25      -6.186
      2112.996     -999.25      -6.640
      2113.496     -999.25      -7.337
      2113.996     -999.25      -8.052
      2114.496     -999.25      -8.304
      2114.996     -999.25      -8.556
      2115.496     -999.25      -8.808
      2115.996     -999.25      -9.060
      2116.496     -999.25      -9.313
      2116.996     -999.25      -9.565
      2117.496     -999.25      -9.817
      2117.996     -999.25     -10.069
      2118.496     -999.25     -10.322
      2118.996     -999.25     -10.245
      2119.496     -999.25      -9.805
      2119.996     -999.25      -9.364
      2120.496     -999.25      -8.924
      2120.996     -999.25      -8.484
      2121.496     -999.25      -8.044
      2121.996     -999.25      -7.604
      2122.496     -999.25      -7.163
      2122.996     -999.25      -6.723
      2123.496     -999.25      -6.283
      2123.996     -999.25      -6.144
      2124.496     -999.25      -5.595
      2124.996     -999.25      -5.596
      2125.496     -999.25      -3.768
      2125.996     -999.25      -3.769
      2126.496     -999.25      -3.771
      2126.996     -999.25      -3.772
      2127.496     -999.25      -3.980
      2127.996     -999.25      -4.525
      2128.496     -999.25      -5.033
      2128.996     -999.25      -5.306
      2129.496     -999.25      -5.580
      2129.996     -999.25      -6.583
      2130.496     -999.25      -7.666
      2130.996     -999.25      -8.046
      2131.496     -999.25      -8.310
      2131.996     -999.25      -9.268
      2132.496     -999.25      -9.539
      2132.996     -999.25     -10.016
      2133.496     -999.25     -10.830
      2133.996     -999.25     -11.646
      2134.496     -999.25     -11.709
