~Version Information
 VERS.                 2.0: 
 WRAP.                  NO: 
 END.                PETRA:IHS Markit
~Well Information Block
#MNEM.UNIT       Data Type    Information
#---------    -------------   ---------------------------------
 STRT.F           2232.9955:
 STOP.F          11856.9763:
 STEP.F              0.5000:
 NULL.              -999.25:
 COMP.                           : COMPANY
 FLD.       PLUM JELLY           : FIELD
 LOC.                            : LOCATION
 DATE.      24-JUN-2024          : DATE
 WELL.                           : Well Name
 LABL.      42001313930000                   : Well Label
 APIN.      42001313930000       : API Number
 UWI.       42001313930000       : Unique Well Number
 NUMB.      1                    : Well Number
 OPER.      BOIS D ARC INC       : Operator Name
 LEAS.      SACK TRUST GAS UNIT  : Lease Name
~Parameter Block
#MNEM.UNIT           VALUE            Description
#---------    --------------------   ---------------------------------
 EKB.F                   496.0 : KB Elevation
~Curve Information Block
#MNEM.UNIT      API CODE      Curve Description
#---------    -------------   ---------------------------------
 DEPT.F                   00 000 00 00: Depth (MD)
 RES.OHM.M                00 001 00 00: Medium Resistivity
 SP.MV                    00 002 00 00: Spontaneous Potential
~A        DEPT         RES          SP
# ...
      4807.996       1.673       3.155
      4808.496       1.626       3.128
      4808.996       1.579       3.101
      4809.496       1.569       3.074
      4809.996       1.645       3.047
      4810.496       1.720       3.020
      4810.996       1.796       2.993
      4811.496       1.872       2.966
      4811.996       1.907       2.939
      4812.496       1.869       2.912
      4812.996       1.831       2.885
      4813.496       1.794       2.858
      4813.996       1.756       2.831
      4814.496       1.718       2.804
      4814.996       1.680       2.777
      4815.496       1.642       2.750
      4815.996       1.604       2.723
      4816.496       1.645       2.696
      4816.996       1.688       2.760
      4817.496       1.730       2.872
      4817.996       1.772       2.982
      4818.496       1.815       3.093
      4818.996       1.857       3.204
      4819.496       1.899       3.315
      4819.996       1.907       3.426
      4820.496       1.877       3.537
      4820.996       1.847       3.648
      4821.496       1.817       3.759
      4821.996       1.787       3.870
      4822.496       1.769       3.981
      4822.996       1.774       4.092
      4823.496       1.780       4.203
      4823.996       1.786       4.314
      4824.496       1.782       4.425
      4824.996       1.770       4.536
      4825.496       1.758       4.647
      4825.996       1.746       4.758
      4826.496       1.734       4.599
      4826.996       1.723       4.288
      4827.496       1.711       3.978
      4827.996       1.725       3.667
      4828.496       1.764       3.357
      4828.996       1.804       3.046
      4829.496       1.843       2.736
      4829.996       1.873       2.425
      4830.496       1.834       2.204
      4830.996       1.796       2.174
      4831.496       1.757       2.144
      4831.996       1.719       2.115
      4832.496       1.681       2.085
      4832.996       1.642       2.055
      4833.496       1.604       2.026
      4833.996       1.565       1.996
      4834.496       1.540       1.966
      4834.996       1.633       1.936
      4835.496       1.726       1.907
      4835.996       1.818       1.877
      4836.496       1.911       1.847
      4836.996       2.003       1.817
      4837.496       2.034       1.788
      4837.996       2.018       1.758
      4838.496       2.001       1.728
      4838.996       1.984       1.698
      4839.496       1.968       1.669
      4839.996       1.951       1.639
      4840.496       2.004       1.609
      4840.996       2.073       1.579
      4841.496       2.104       1.550
      4841.996       2.057       1.520
      4842.496       2.009       1.490
      4842.996       1.962       1.460
      4843.496       1.914       1.431
      4843.996       1.867       1.401
      4844.496       1.819       1.371
      4844.996       1.903       1.341
      4845.496       2.005       1.312
      4845.996       2.108       1.282
      4846.496       2.210       1.252
      4846.996       2.313       1.201
      4847.496       2.415       1.083
      4847.996       2.518       0.965
      4848.496       2.620       0.846
      4848.996       2.723       0.728
      4849.496       2.726       0.610
      4849.996       2.664       0.492
      4850.496       2.601       0.373
      4850.996       2.539       0.255
      4851.496       2.476       0.137
      4851.996       2.414       0.019
      4852.496       2.352      -0.099
      4852.996       2.289      -0.218
      4853.496       2.227      -0.336
      4853.996       2.279      -0.454
      4854.496       2.418      -0.572
      4854.996       2.540      -0.691
      4855.496       2.524      -0.809
      4855.996       2.508      -0.927
      4856.496       2.493      -1.045
      4856.996       2.522      -1.163
      4857.496       2.665      -1.282
      4857.996       2.808      -1.513
      4858.496       2.790      -1.830
      4858.996       2.739      -2.147
      4859.496       2.721      -2.465
      4859.996       2.805      -2.782
      4860.496       2.890      -3.099
      4860.996       2.974      -3.416
      4861.496       3.058      -3.733
      4861.996       3.098      -4.050
      4862.496       3.014      -4.367
      4862.996       2.930      -4.684
      4863.496       2.903      -5.001
      4863.996       2.903      -5.319
      4864.496       2.903      -5.636
      4864.996       2.904      -5.953
      4865.496       2.970      -6.270
      4865.996       3.262      -6.587
      4866.496       3.554      -6.904
      4866.996       3.720      -6.742
      4867.496       3.419      -6.309
      4867.996       3.117      -5.877
      4868.496       2.815      -5.444
      4868.996       2.994      -5.011
      4869.496       3.262      -4.579
      4869.996       3.531      -4.146
      4870.496       3.799      -3.714
      4870.996       4.067      -3.281
      4871.496       3.787      -2.849
      4871.996       3.503      -2.416
      4872.496       3.220      -1.984
      4872.996       3.189      -1.551
      4873.496       3.291      -1.118
      4873.996       3.392      -0.743
      4874.496       3.493      -0.654
      4874.996       3.507      -0.564
      4875.496       3.307      -0.475
      4875.996       3.107      -0.386
      4876.496       2.908      -0.296
      4876.996       2.708      -0.207
      4877.496       2.726      -0.117
      4877.996       2.856      -0.028
      4878.496       2.987       0.062
      4878.996       3.118       0.151
      4879.496       3.011       0.241
      4879.996       2.891       0.330
      4880.496       2.771       0.420
      4880.996       2.651       0.509
      4881.496       2.569       0.599
      4881.996       2.545       0.688
      4882.496       2.522       0.777
      4882.996       2.498       0.655
      4883.496       2.475       0.225
      4883.996       2.451      -0.205
      4884.496       2.428      -0.635
      4884.996       2.628      -1.065
      4885.496       2.830      -1.495
      4885.996       3.032      -1.925
      4886.496       3.080      -2.355
      4886.996       2.837      -2.785
      4887.496       2.593      -3.215
      4887.996       2.349      -3.644
      4888.496       2.303      -4.074
      4888.996       2.708      -4.504
      4889.496       3.114      -4.934
      4889.996       3.305      -5.364
      4890.496       3.162      -5.794
      4890.996       3.019      -6.224
      4891.496       2.877      -6.654
      4891.996       2.734      -7.084
      4892.496       2.591      -7.457
      4892.996       2.695      -7.494
      4893.496       3.050      -7.532
      4893.996       3.405      -7.569
      4894.496       3.471      -7.606
      4894.996       3.284      -7.643
      4895.496       3.098      -7.680
      4895.996       2.911      -7.718
      4896.496       2.724      -7.755
      4896.996       2.957      -7.792
      4897.496       3.229      -7.829
      4897.996       3.329      -7.867
      4898.496       3.260      -7.904
      4898.996       3.192      -7.941
      4899.496       3.124      -7.741
      4899.996       3.055      -7.476
      4900.496       3.366      -7.211
      4900.996       3.605      -6.946
      4901.496       3.549      -6.681
      4901.996       3.493      -6.417
      4902.496       3.437      -6.152
      4902.996       3.381      -5.887
      4903.496       3.378      -5.622
      4903.996       3.397      -5.357
      4904.496       3.415      -5.092
      4904.996       3.434      -4.827
      4905.496       3.405      -4.562
      4905.996       3.248      -4.297
      4906.496       3.091      -4.032
      4906.996       2.934      -3.767
      4907.496       2.777      -4.054
      4907.996       2.621      -4.345
      4908.496       2.464      -4.635
      4908.996       2.307      -4.926
      4909.496       2.256      -5.216
      4909.996       2.381      -5.507
      4910.496       2.506      -5.798
