~Version Information
 VERS.                 2.0: 
 WRAP.                  NO: 
 END.                PETRA:IHS Markit
~Well Information Block
#MNEM.UNIT       Data Type    Information
#---------    -------------   ---------------------------------
 STRT.F           2232.9955:
 STOP.F          11856.9763:
 STEP.F              0.5000:
 NULL.              -999.25:
 COMP.                           : COMPANY
 FLD.       PLUM JELLY           : FIELD
 LOC.                            : LOCATION
 DATE.      24-JUN-2024          : DATE
 WELL.                           : Well Name
 LABL.      42001313930000                   : Well Label
 APIN.      42001313930000       : API Number
 UWI.       42001313930000       : Unique Well Number
 NUMB.      1                    : Well Number
 OPER.      BOIS D ARC INC       : Operator Name
 LEAS.      SACK TRUST GAS UNIT  : Lease Name
~Parameter Block
#MNEM.UNIT           VALUE            Description
#---------    --------------------   ---------------------------------
 EKB.F                   496.0 : KB Elevation
~Curve Information Block
#MNEM.UNIT      API CODE      Curve Description
#---------    -------------   ---------------------------------
 DEPT.F                   00 000 00 00: Depth (MD)
 RES.OHM.M                00 001 00 00: Medium Resistivity
 SP.MV                    00 002 00 00: Spontaneous Potential
~A        DEPT         RES          SP
# ...
      9854.996      33.909      -3.688
      9855.496      19.088      -3.522
      9855.996       4.266      -3.356
      9856.496       4.289      -3.190
      9856.996       6.166      -3.024
      9857.496       8.043      -2.858
      9857.996       9.920      -2.693
      9858.496      11.498      -2.527
      9858.996       9.552      -2.361
      9859.496       7.606      -2.282
      9859.996       5.661      -2.468
      9860.496       3.715      -2.654
      9860.996       3.466      -2.840
      9861.496       7.472      -3.026
      9861.996       8.556      -3.213
      9862.496       7.510      -3.399
      9862.996       6.463      -3.585
      9863.496       5.417      -3.771
      9863.996       4.371      -3.417
      9864.496       3.324      -3.032
      9864.996       2.360      -2.647
      9865.496       5.854      -2.263
      9865.996       9.347      -1.878
      9866.496      11.908      -1.493
      9866.996      11.084      -1.109
      9867.496      10.260      -0.724
      9867.996       9.436      -0.339
      9868.496       8.612       0.045
      9868.996       7.788       0.430
      9869.496       6.964       0.815
      9869.996       6.140       1.200
      9870.496       5.814       1.584
      9870.996       9.915       1.969
      9871.496      14.016       2.354
      9871.996      14.992       2.738
      9872.496      13.667       2.999
      9872.996      12.341       2.984
      9873.496      11.016       2.969
      9873.996       9.691       2.954
      9874.496       8.365       2.939
      9874.996       7.040       2.924
      9875.496       5.714       2.909
      9875.996       4.389       2.894
      9876.496       3.063       2.879
      9876.996       3.087       2.864
      9877.496       4.200       2.849
      9877.996       5.313       2.834
      9878.496       6.426       2.819
      9878.996       7.181       2.804
      9879.496       5.666       2.789
      9879.996       4.152       2.774
      9880.496       2.637       2.759
      9880.996       4.518       2.744
      9881.496       6.574       2.729
      9881.996       8.630       2.714
      9882.496       8.044       2.699
      9882.996       7.140       2.684
      9883.496       6.236       2.669
      9883.996       5.332       2.654
      9884.496       4.428       2.639
      9884.996       3.524       2.624
      9885.496       2.619       2.609
      9885.996       3.977       2.594
      9886.496       6.124       2.579
      9886.996       8.271       2.564
      9887.496      10.419       2.549
      9887.996      12.566       2.525
      9888.496      14.714       2.447
      9888.996      16.861       2.370
      9889.496      19.009       2.293
      9889.996      21.156       2.215
      9890.496      23.304       2.138
      9890.996      24.962       2.061
      9891.496      22.394       1.984
      9891.996      19.826       1.906
      9892.496      17.258       1.829
      9892.996      14.690       1.752
      9893.496      12.122       1.674
      9893.996       9.554       1.597
      9894.496       6.986       1.520
      9894.996      51.818       1.442
      9895.496      98.656       1.365
      9895.996     145.493       1.288
      9896.496     192.331       1.210
      9896.996     228.120       1.133
      9897.496     179.130       1.056
      9897.996     130.139       0.783
      9898.496      81.149       0.233
      9898.996      32.158      -0.318
      9899.496      10.706      -0.868
      9899.996      16.564      -1.419
      9900.496      22.423      -1.969
      9900.996      28.282      -2.520
      9901.496      34.140      -3.070
      9901.996      39.999      -3.620
      9902.496      45.858      -4.171
      9902.996      42.045      -4.721
      9903.496      37.842      -5.272
      9903.996      33.638      -5.782
      9904.496      29.435      -6.104
      9904.996      25.231      -6.427
      9905.496      21.028      -6.750
      9905.996      16.824      -7.073
      9906.496      12.620      -7.396
      9906.996       8.417      -7.719
      9907.496      10.078      -8.042
      9907.996      16.346      -8.364
      9908.496      14.991      -8.687
      9908.996      13.635      -9.010
      9909.496      12.280      -9.333
      9909.996      10.924      -9.656
      9910.496       9.569      -9.979
      9910.996       9.010     -10.302
      9911.496      34.234     -10.624
      9911.996      59.458     -10.913
      9912.496      84.682     -11.028
      9912.996      92.688     -11.143
      9913.496      80.075     -11.257
      9913.996      67.463     -11.372
      9914.496      54.850     -11.487
      9914.996      42.237     -11.602
      9915.496      29.624     -11.716
      9915.996      25.143     -11.831
      9916.496      29.003     -11.946
      9916.996      32.863     -12.061
      9917.496      34.269     -12.176
      9917.996      33.734     -12.290
      9918.496      33.200     -12.405
      9918.996      32.665     -12.520
      9919.496      32.315     -12.635
      9919.996      34.549     -12.750
      9920.496      36.782     -12.864
      9920.996      39.056     -12.970
      9921.496      46.996     -13.057
      9921.996      54.937     -13.143
      9922.496      53.049     -13.230
      9922.996      46.947     -13.316
      9923.496      40.845     -13.403
      9923.996      34.742     -13.489
      9924.496      28.640     -13.576
      9924.996      22.538     -13.662
      9925.496      16.435     -13.749
      9925.996      16.756     -13.835
      9926.496      25.063     -13.922
      9926.996      33.370     -14.009
      9927.496      41.678     -14.095
      9927.996      49.985     -14.182
      9928.496      58.292     -14.268
      9928.996      58.023     -14.355
      9929.496      45.699     -14.441
      9929.996      33.375     -14.528
      9930.496      21.052     -14.614
      9930.996      10.621     -14.701
      9931.496      10.477     -14.787
      9931.996      10.332     -14.874
      9932.496      10.188     -14.960
      9932.996      10.044     -14.908
      9933.496       9.923     -14.810
      9933.996      10.597     -14.712
      9934.496      11.271     -14.614
      9934.996      11.945     -14.515
      9935.496      12.619     -14.417
      9935.996      13.293     -14.319
      9936.496      13.967     -14.221
      9936.996      48.267     -14.123
      9937.496      86.847     -14.025
      9937.996     125.427     -13.927
      9938.496     151.296     -13.194
      9938.996     141.166     -12.443
      9939.496     131.035     -11.693
      9939.996     120.905     -10.942
      9940.496     110.774     -10.192
      9940.996     100.644      -9.441
      9941.496      90.215      -8.691
      9941.996      78.814      -7.940
      9942.496      67.414      -7.190
      9942.996      56.014      -6.439
      9943.496      44.614      -5.689
      9943.996      33.214      -4.938
      9944.496      21.814      -4.453
      9944.996      18.815      -4.253
      9945.496      27.836      -4.053
      9945.996      36.857      -3.853
      9946.496      35.923      -3.654
      9946.996      32.586      -3.454
      9947.496      29.250      -3.254
      9947.996      25.913      -3.054
      9948.496      22.576      -2.854
      9948.996      19.239      -2.654
      9949.496      15.903      -2.454
      9949.996      12.566      -2.254
      9950.496      14.454      -2.054
      9950.996      24.496      -1.854
      9951.496      34.538      -1.654
      9951.996      31.164      -1.454
      9952.496      27.019      -1.254
      9952.996      22.875      -1.054
      9953.496      18.730      -0.879
      9953.996      14.586      -0.862
      9954.496      14.015      -0.844
      9954.996      13.607      -0.827
      9955.496      13.199      -0.809
      9955.996      13.633      -0.792
      9956.496      14.252      -0.775
      9956.996      14.871      -0.757
      9957.496      15.490      -0.740
