~Version Information
 VERS.                 2.0: 
 WRAP.                  NO: 
 END.                PETRA:IHS Markit
~Well Information Block
#MNEM.UNIT       Data Type    Information
#---------    -------------   ---------------------------------
 STRT.F           1965.9961:
 STOP.F          11003.9780:
 STEP.F              0.5000:
 NULL.              -999.25:
 COMP.                           : COMPANY
 FLD.       WILDCAT              : FIELD
 LOC.                            : LOCATION
 DATE.      24-JUN-2024          : DATE
 WELL.                           : Well Name
 LABL.      42001312650000                   : Well Label
 APIN.      42001312650000       : API Number
 UWI.       42001312650000       : Unique Well Number
 NUMB.      1                    : Well Number
 OPER.      MAY PETROLEUM INC    : Operator Name
 LEAS.      COOK R R             : Lease Name
~Parameter Block
#MNEM.UNIT           VALUE            Description
#---------    --------------------   ---------------------------------
 EKB.F                   595.0 : KB Elevation
~Curve Information Block
#MNEM.UNIT      API CODE      Curve Description
#---------    -------------   ---------------------------------
 DEPT.F                   00 000 00 00: Depth (MD)
 RES.OHM.M                00 001 00 00: Medium Resistivity
 SP.MV                    00 002 00 00: Spontaneous Potential
~A        DEPT         RES          SP
# ...
      4334.996       4.019     -26.566
      4335.496       3.182     -25.784
      4335.996       2.890     -24.666
      4336.496       2.599     -24.080
      4336.996       2.307     -23.492
      4337.496       2.015     -22.787
      4337.996       1.791     -22.178
      4338.496       1.673     -21.738
      4338.996       1.554     -21.153
      4339.496       1.451     -20.306
      4339.996       1.419     -19.622
      4340.496       1.388     -19.622
      4340.996       1.378     -19.196
      4341.496       1.390     -18.771
      4341.996       1.425     -18.771
      4342.496       1.440     -18.343
      4342.996       1.430     -18.343
      4343.496       1.405     -18.342
      4343.996       1.366     -18.319
      4344.496       1.348     -17.896
      4344.996       1.331     -17.832
      4345.496       1.298     -17.767
      4345.996       1.280     -17.703
      4346.496       1.275     -17.638
      4346.996       1.275     -17.573
      4347.496       1.275     -17.509
      4347.996       1.275     -17.444
      4348.496       1.282     -17.380
      4348.996       1.306     -17.315
      4349.496       1.324     -17.251
      4349.996       1.340     -17.186
      4350.496       1.356     -17.122
      4350.996       1.363     -17.057
      4351.496       1.378     -16.992
      4351.996       1.378     -16.928
      4352.496       1.404     -16.863
      4352.996       1.425     -16.799
      4353.496       1.432     -16.734
      4353.996       1.450     -16.669
      4354.496       1.467     -16.605
      4354.996       1.480     -16.540
      4355.496       1.498     -16.476
      4355.996       1.526     -16.411
      4356.496       1.575     -16.347
      4356.996       1.575     -16.282
      4357.496       1.575     -16.218
      4357.996       1.575     -16.153
      4358.496       1.481     -16.088
      4358.996       1.404     -16.024
      4359.496       1.361     -15.959
      4359.996       1.333     -15.895
      4360.496       1.300     -15.830
      4360.996       1.272     -15.789
      4361.496       1.250     -15.880
      4361.996       1.221     -15.972
      4362.496       1.221     -16.064
      4362.996       1.234     -16.155
      4363.496       1.246     -16.247
      4363.996       1.258     -16.338
      4364.496       1.271     -16.430
      4364.996       1.283     -16.522
      4365.496       1.296     -16.613
      4365.996       1.308     -16.705
      4366.496       1.320     -16.796
      4366.996       1.333     -16.888
      4367.496       1.345     -16.980
      4367.996       1.361     -17.071
      4368.496       1.379     -17.163
      4368.996       1.396     -17.254
      4369.496       1.414     -17.346
      4369.996       1.431     -17.437
      4370.496       1.449     -17.505
      4370.996       1.466     -17.559
      4371.496       1.484     -17.613
      4371.996       1.502     -17.668
      4372.496       1.519     -17.722
      4372.996       1.536     -17.776
      4373.496       1.603     -17.830
      4373.996       1.629     -17.885
      4374.496       1.629     -17.939
      4374.996       1.650     -17.993
      4375.496       1.665     -18.048
      4375.996       1.665     -18.102
      4376.496       1.662     -18.156
      4376.996       1.616     -18.210
      4377.496       1.588     -18.265
      4377.996       1.560     -18.337
      4378.496       1.523     -18.529
      4378.996       1.507     -18.721
      4379.496       1.507     -18.738
      4379.996       1.524     -18.738
      4380.496       1.524     -18.737
      4380.996       1.524     -18.737
      4381.496       1.513     -18.736
      4381.996       1.478     -18.736
      4382.496       1.474     -18.735
      4382.996       1.458     -18.735
      4383.496       1.458     -18.735
      4383.996       1.458     -18.734
      4384.496       1.491     -18.734
      4384.996       1.505     -18.733
      4385.496       1.668     -18.733
      4385.996       1.834     -18.732
      4386.496       1.781     -18.732
      4386.996       1.728     -18.732
      4387.496       1.675     -18.731
      4387.996       1.622     -18.731
      4388.496       1.569     -18.730
      4388.996       1.557     -18.730
      4389.496       1.590     -18.863
      4389.996       1.623     -19.431
      4390.496       1.656     -19.732
      4390.996       1.689     -19.940
      4391.496       1.722     -20.148
      4391.996       1.755     -20.357
      4392.496       1.788     -20.565
      4392.996       1.820     -20.773
      4393.496       1.821     -20.981
      4393.996       1.821     -21.189
      4394.496       1.821     -21.116
      4394.996       1.821     -20.837
      4395.496       1.814     -20.558
      4395.996       1.781     -20.279
      4396.496       1.765     -20.000
      4396.996       1.723     -19.721
      4397.496       1.627     -19.442
      4397.996       1.571     -19.162
      4398.496       1.529     -18.883
      4398.996       1.490     -18.604
      4399.496       1.429     -18.325
      4399.996       1.403     -18.046
      4400.496       1.378     -17.767
      4400.996       1.324     -17.488
      4401.496       1.320     -17.209
      4401.996       1.320     -16.930
      4402.496       1.321     -16.651
      4402.996       1.330     -16.371
      4403.496       1.349     -16.163
      4403.996       1.350     -16.163
      4404.496       1.350     -16.162
      4404.996       1.350     -16.162
      4405.496       1.343     -16.162
      4405.996       1.327     -16.161
      4406.496       1.306     -16.161
      4406.996       1.278     -16.506
      4407.496       1.278     -16.585
      4407.996       1.263     -16.584
      4408.496       1.263     -16.584
      4408.996       1.275     -16.583
      4409.496       1.335     -16.583
      4409.996       1.414     -16.582
      4410.496       1.454     -17.009
      4410.996       1.569     -17.009
      4411.496       1.742     -17.423
      4411.996       1.970     -17.858
      4412.496       1.907     -17.857
      4412.996       1.843     -17.857
      4413.496       1.779     -17.856
      4413.996       1.715     -17.856
      4414.496       1.652     -18.085
      4414.996       1.588     -18.280
      4415.496       1.524     -18.280
      4415.996       1.534     -18.279
      4416.496       1.780     -18.279
      4416.996       2.022     -18.278
      4417.496       2.033     -18.278
      4417.996       1.929     -18.277
      4418.496       1.843     -18.277
      4418.996       1.771     -18.276
      4419.496       1.710     -18.276
      4419.996       1.650     -18.276
      4420.496       1.585     -18.275
      4420.996       1.489     -18.275
      4421.496       1.448     -18.274
      4421.996       1.387     -18.274
      4422.496       1.366     -18.273
      4422.996       1.336     -18.273
      4423.496       1.340     -18.273
      4423.996       1.474     -18.272
      4424.496       1.563     -18.272
      4424.996       1.618     -18.271
      4425.496       1.549     -18.271
      4425.996       1.531     -18.270
      4426.496       1.509     -18.270
      4426.996       1.509     -18.270
      4427.496       1.538     -18.395
      4427.996       1.596     -19.121
      4428.496       1.809     -19.327
      4428.996       1.882     -20.098
      4429.496       2.070     -20.396
      4429.996       2.178     -22.430
      4430.496       2.285     -24.407
      4430.996       2.388     -25.527
      4431.496       2.465     -26.644
      4431.996       2.542     -27.765
      4432.496       2.618     -28.684
      4432.996       2.695     -30.091
      4433.496       2.772     -30.117
      4433.996       2.902     -29.301
      4434.496       2.902     -28.115
      4434.996       2.902     -27.117
      4435.496       2.571     -26.131
      4435.996       2.400     -24.987
      4436.496       2.280     -24.012
      4436.996       2.158     -23.427
      4437.496       2.008     -22.841
