~Version Information
 VERS.                 2.0: 
 WRAP.                  NO: 
 END.                PETRA:IHS Markit
~Well Information Block
#MNEM.UNIT       Data Type    Information
#---------    -------------   ---------------------------------
 STRT.F           1965.9961:
 STOP.F          11003.9780:
 STEP.F              0.5000:
 NULL.              -999.25:
 COMP.                           : COMPANY
 FLD.       WILDCAT              : FIELD
 LOC.                            : LOCATION
 DATE.      24-JUN-2024          : DATE
 WELL.                           : Well Name
 LABL.      42001312650000                   : Well Label
 APIN.      42001312650000       : API Number
 UWI.       42001312650000       : Unique Well Number
 NUMB.      1                    : Well Number
 OPER.      MAY PETROLEUM INC    : Operator Name
 LEAS.      COOK R R             : Lease Name
~Parameter Block
#MNEM.UNIT           VALUE            Description
#---------    --------------------   ---------------------------------
 EKB.F                   595.0 : KB Elevation
~Curve Information Block
#MNEM.UNIT      API CODE      Curve Description
#---------    -------------   ---------------------------------
 DEPT.F                   00 000 00 00: Depth (MD)
 RES.OHM.M                00 001 00 00: Medium Resistivity
 SP.MV                    00 002 00 00: Spontaneous Potential
~A        DEPT         RES          SP
      1965.996      10.648     -999.25
      1966.496      10.145     -999.25
      1966.996       9.642     -999.25
      1967.496       9.139     -999.25
      1967.996       8.636     -999.25
      1968.496       8.133     -999.25
      1968.996       7.629     -31.050
      1969.496       7.126     -31.025
      1969.996       7.192     -31.001
      1970.496       7.515     -30.976
      1970.996       7.838     -30.952
      1971.496       8.160     -30.927
      1971.996       8.483     -30.902
      1972.496       8.020     -30.878
      1972.996       7.487     -30.853
      1973.496       6.954     -30.829
      1973.996       6.421     -30.804
      1974.496       5.887     -30.780
      1974.996       5.354     -30.755
      1975.496       5.127     -30.730
      1975.996       5.292     -30.706
      1976.496       5.456     -30.681
      1976.996       5.620     -30.657
      1977.496       5.455     -30.632
      1977.996       5.224     -30.608
      1978.496       4.992     -30.319
      1978.996       4.761     -30.011
      1979.496       4.529     -29.703
      1979.996       4.319     -29.395
      1980.496       4.282     -29.087
      1980.996       4.328     -28.779
      1981.496       4.484     -28.471
      1981.996       4.526     -28.163
      1982.496       4.203     -27.855
      1982.996       4.059     -27.547
      1983.496       4.016     -27.239
      1983.996       3.919     -26.931
      1984.496       3.885     -26.772
      1984.996       3.816     -26.771
      1985.496       3.791     -26.771
      1985.996       3.791     -26.770
      1986.496       3.889     -26.770
      1986.996       3.961     -26.770
      1987.496       4.141     -26.769
      1987.996       4.253     -26.769
      1988.496       4.353     -26.768
      1988.996       4.453     -26.768
      1989.496       4.640     -26.767
      1989.996       4.854     -26.767
      1990.496       5.067     -26.767
      1990.996       5.380     -26.766
      1991.496       5.707     -26.766
      1991.996       5.366     -26.765
      1992.496       5.025     -26.765
      1992.996       4.900     -26.764
      1993.496       5.037     -26.764
      1993.996       5.173     -26.763
      1994.496       5.309     -26.763
      1994.996       5.446     -26.763
      1995.496       5.582     -26.762
      1995.996       5.718     -26.762
      1996.496       5.855     -26.761
      1996.996       5.862     -26.761
      1997.496       5.788     -26.760
      1997.996       5.715     -26.760
      1998.496       5.641     -26.759
      1998.996       5.681     -26.759
      1999.496       6.012     -26.759
      1999.996       6.324     -26.758
      2000.496       6.614     -26.758
      2000.996       6.904     -26.757
      2001.496       7.194     -26.757
      2001.996       6.881     -26.756
      2002.496       6.527     -26.756
      2002.996       6.430     -26.756
      2003.496       6.722     -26.755
      2003.996       7.014     -26.755
      2004.496       7.306     -26.754
      2004.996       7.598     -26.754
      2005.496       7.408     -26.753
      2005.996       6.926     -26.753
      2006.496       6.443     -26.719
      2006.996       5.960     -26.683
      2007.496       6.115     -26.646
      2007.996       6.473     -26.610
      2008.496       6.830     -26.573
      2008.996       6.845     -26.537
      2009.496       6.776     -26.500
      2009.996       6.707     -26.464
      2010.496       6.637     -26.427
      2010.996       6.602     -26.391
      2011.496       6.602     -26.355
      2011.996       6.641     -26.323
      2012.496       6.837     -26.323
      2012.996       7.493     -26.322
      2013.496       8.272     -25.897
      2013.996       9.051     -25.896
      2014.496       9.830     -25.896
      2014.996      10.609     -25.706
      2015.496      11.365     -25.512
      2015.996      11.388     -25.467
      2016.496      11.411     -25.467
      2016.996      11.434     -25.466
      2017.496      11.457     -25.466
      2017.996      11.480     -25.466
      2018.496      11.298     -25.465
      2018.996      10.926     -25.465
      2019.496      10.555     -25.464
      2019.996      10.184     -25.464
      2020.496       9.812     -25.463
      2020.996      10.291     -25.463
      2021.496      11.637     -25.463
      2021.996      12.984     -24.320
      2022.496      14.331     -23.132
      2022.996      15.678     -21.944
      2023.496      14.747     -20.756
      2023.996       9.389     -19.535
      2024.496       4.031     -18.295
      2024.996       0.322     -17.056
      2025.496       0.879     -15.817
      2025.996       1.437     -14.577
      2026.496       1.994     -13.338
      2026.996       2.551     -12.099
      2027.496       3.108     -10.860
      2027.996       3.666      -9.678
      2028.496       4.223      -9.191
      2028.996       4.812      -8.704
      2029.496       5.782      -8.217
      2029.996       6.751      -7.730
      2030.496       7.721      -7.586
      2030.996       8.690      -7.586
      2031.496       9.619      -7.585
      2031.996       9.370      -7.585
      2032.496       9.122      -7.584
      2032.996       8.873      -7.584
      2033.496       8.625      -7.583
      2033.996       8.376      -7.583
      2034.496       8.127      -7.583
      2034.996       7.879      -7.582
      2035.496       7.630      -7.582
      2035.996       7.381      -7.581
      2036.496       7.133      -7.668
      2036.996       6.934      -8.005
      2037.496       6.830      -8.385
      2037.996       7.630      -9.281
      2038.496       7.715      -9.281
      2038.996       7.670      -9.281
      2039.496       7.324      -9.280
      2039.996       6.910      -9.280
      2040.496       6.566      -9.279
      2040.996       6.264      -9.104
      2041.496       6.078      -8.409
      2041.996       5.934      -7.715
      2042.496       5.676      -7.021
      2042.996       5.596      -6.327
      2043.496       5.596      -5.633
      2043.996       5.625      -4.938
      2044.496       5.962      -4.244
      2044.996       6.198      -3.650
      2045.496       6.678      -3.318
      2045.996       6.907      -2.985
      2046.496       7.034      -2.653
      2046.996       7.379      -2.320
      2047.496       7.787      -2.038
      2047.996       8.188      -2.581
      2048.496       8.588      -2.866
      2048.996       8.989      -3.830
      2049.496       8.980      -4.166
      2049.996       8.437      -4.069
      2050.496       7.978      -3.924
      2050.996       7.247      -3.778
      2051.496       7.068      -3.633
      2051.996       6.718      -3.488
      2052.496       6.619      -3.343
      2052.996       6.865      -3.198
      2053.496       7.402      -3.053
      2053.996       7.812      -2.908
      2054.496       7.941      -3.481
      2054.996       8.069      -4.188
      2055.496       8.198      -4.895
      2055.996       8.326      -5.435
      2056.496       8.434      -5.230
      2056.996       8.537      -3.867
      2057.496       8.624      -3.413
      2057.996       8.690      -2.959
      2058.496       8.769      -2.505
      2058.996       8.882      -2.051
      2059.496       9.015      -1.597
      2059.996       9.015      -1.194
      2060.496       9.015      -1.398
      2060.996       9.015      -1.602
      2061.496       9.016      -1.807
      2061.996       8.971      -2.011
      2062.496       8.812      -2.216
      2062.996       8.657      -2.420
      2063.496       8.478      -2.624
      2063.996       8.262      -2.829
      2064.496       8.252      -3.033
      2064.996       8.071      -3.237
      2065.496       8.071      -3.576
      2065.996       8.141      -3.975
      2066.496       8.231      -4.374
      2066.996       8.197      -4.773
      2067.496       8.163      -5.172
      2067.996       8.130      -5.571
      2068.496       8.096      -5.970
