~Version Information
 VERS.                 2.0: 
 WRAP.                  NO: 
 END.                PETRA:IHS Markit
~Well Information Block
#MNEM.UNIT       Data Type    Information
#---------    -------------   ---------------------------------
 STRT.F           2232.9955:
 STOP.F          11856.9763:
 STEP.F              0.5000:
 NULL.              -999.25:
 COMP.                           : COMPANY
 FLD.       PLUM JELLY           : FIELD
 LOC.                            : LOCATION
 DATE.      24-JUN-2024          : DATE
 WELL.                           : Well Name
 LABL.      42001313930000                   : Well Label
 APIN.      42001313930000       : API Number
 UWI.       42001313930000       : Unique Well Number
 NUMB.      1                    : Well Number
 OPER.      BOIS D ARC INC       : Operator Name
 LEAS.      SACK TRUST GAS UNIT  : Lease Name
~Parameter Block
#MNEM.UNIT           VALUE            Description
#---------    --------------------   ---------------------------------
 EKB.F                   496.0 : KB Elevation
~Curve Information Block
#MNEM.UNIT      API CODE      Curve Description
#---------    -------------   ---------------------------------
 DEPT.F                   00 000 00 00: Depth (MD)
 RES.OHM.M                00 001 00 00: Medium Resistivity
 SP.MV                    00 002 00 00: Spontaneous Potential
~A        DEPT         RES          SP
# ...
      6661.996       6.726     -17.510
      6662.496       7.410     -17.658
      6662.996       8.094     -17.837
      6663.496       8.058     -18.016
      6663.996       7.516     -18.196
      6664.496       6.974     -18.375
      6664.996       6.433     -18.554
      6665.496       5.891     -18.750
      6665.996       5.349     -18.971
      6666.496       8.006     -19.191
      6666.996      13.084     -19.411
      6667.496      17.196     -19.631
      6667.996      15.333     -19.851
      6668.496      13.469     -20.071
      6668.996      11.605     -20.060
      6669.496       9.741     -19.692
      6669.996      13.402     -19.324
      6670.496      17.244     -18.956
      6670.996      19.759     -18.588
      6671.496      18.021     -18.220
      6671.996      16.283     -16.454
      6672.496      14.545     -15.619
      6672.996      12.807     -14.784
      6673.496      11.069     -14.473
      6673.996      10.372     -14.173
      6674.496       9.992     -13.867
      6674.996       9.611     -13.032
      6675.496       9.231     -12.388
      6675.996       8.851     -11.891
      6676.496       8.470     -11.586
      6676.996       8.046     -11.328
      6677.496       7.493     -11.115
      6677.996       6.940     -10.903
      6678.496       6.386     -10.691
      6678.996       5.833     -10.478
      6679.496       5.280     -10.266
      6679.996       4.726     -10.053
      6680.496       4.173      -9.841
      6680.996       3.620      -9.629
      6681.496       3.066      -9.416
      6681.996       2.513      -9.204
      6682.496       2.115      -8.992
      6682.996       2.163      -8.779
      6683.496       2.210      -8.567
      6683.996       2.258      -8.355
      6684.496       2.305      -8.142
      6684.996       2.353      -7.930
      6685.496       2.400      -7.718
      6685.996       2.448      -7.505
      6686.496       2.495      -7.293
      6686.996       2.543      -7.080
      6687.496       2.448      -6.868
      6687.996       2.327      -6.656
      6688.496       2.206      -6.443
      6688.996       2.085      -6.231
      6689.496       1.964      -6.065
      6689.996       1.843      -5.966
      6690.496       1.722      -5.867
      6690.996       1.601      -5.768
      6691.496       1.480      -5.668
      6691.996       1.359      -5.569
      6692.496       1.239      -5.470
      6692.996       1.118      -5.370
      6693.496       0.997      -5.271
      6693.996       0.977      -5.172
      6694.496       1.047      -5.073
      6694.996       1.117      -4.974
      6695.496       1.146      -4.874
      6695.996       1.131      -4.775
      6696.496       1.116      -4.676
      6696.996       1.101      -4.577
      6697.496       1.086      -4.477
      6697.996       1.527      -4.378
      6698.496       1.970      -4.279
      6698.996       2.413      -4.180
      6699.496       2.857      -4.080
      6699.996       3.300      -3.981
      6700.496       3.743      -3.882
      6700.996       3.289      -3.783
      6701.496       2.572      -3.684
      6701.996       1.856      -3.584
      6702.496       1.139      -3.485
      6702.996       1.035      -3.525
      6703.496       1.130      -3.605
      6703.996       1.225      -3.685
      6704.496       1.320      -3.765
      6704.996       1.415      -3.845
      6705.496       1.510      -3.925
      6705.996       1.592      -4.005
      6706.496       1.514      -4.085
      6706.996       1.437      -4.165
      6707.496       1.360      -4.245
      6707.996       1.282      -4.324
      6708.496       1.205      -4.404
      6708.996       1.127      -4.484
      6709.496       1.050      -4.564
      6709.996       0.973      -4.644
      6710.496       0.895      -4.724
      6710.996       0.818      -4.804
      6711.496       0.789      -4.884
      6711.996       0.816      -4.964
      6712.496       0.842      -5.044
      6712.996       0.869      -5.124
      6713.496       0.896      -5.204
      6713.996       0.922      -5.284
      6714.496       0.949      -5.364
      6714.996       0.976      -5.443
      6715.496       0.949      -5.523
      6715.996       0.921      -5.603
      6716.496       0.894      -5.683
      6716.996       0.913      -5.763
      6717.496       0.949      -5.843
      6717.996       0.934      -5.923
      6718.496       0.911      -6.003
      6718.996       0.889      -6.028
      6719.496       0.867      -6.050
      6719.996       0.845      -6.072
      6720.496       0.823      -6.093
      6720.996       0.801      -6.115
      6721.496       0.834      -6.137
      6721.996       0.882      -6.158
      6722.496       0.930      -6.180
      6722.996       0.978      -6.202
      6723.496       1.026      -6.223
      6723.996       1.051      -6.245
      6724.496       1.004      -6.267
      6724.996       0.957      -6.288
      6725.496       0.910      -6.310
      6725.996       0.863      -6.332
      6726.496       0.816      -6.353
      6726.996       0.887      -6.375
      6727.496       0.959      -6.397
      6727.996       1.030      -6.418
      6728.496       1.068      -6.440
      6728.996       1.046      -6.462
      6729.496       1.023      -6.483
      6729.996       1.001      -6.365
      6730.496       0.978      -6.181
      6730.996       0.956      -5.997
      6731.496       0.933      -5.813
      6731.996       1.346      -5.629
      6732.496       1.614      -5.445
      6732.996       1.539      -5.260
      6733.496       1.464      -5.076
      6733.996       1.390      -4.892
      6734.496       1.315      -4.708
      6734.996       1.241      -4.524
      6735.496       1.166      -4.340
      6735.996       1.092      -4.156
      6736.496       1.017      -3.971
      6736.996       1.106      -3.787
      6737.496       1.237      -3.603
      6737.996       1.368      -3.419
      6738.496       1.499      -3.354
      6738.996       1.630      -3.371
      6739.496       1.761      -3.389
      6739.996       1.893      -3.406
      6740.496       2.024      -3.423
      6740.996       2.155      -3.441
      6741.496       2.286      -3.458
      6741.996       2.417      -3.475
      6742.496       2.549      -3.493
      6742.996       2.415      -3.510
      6743.496       2.147      -3.527
      6743.996       1.880      -3.545
      6744.496       1.612      -3.562
      6744.996       1.344      -3.579
      6745.496       1.094      -3.597
      6745.996       1.167      -3.614
      6746.496       1.239      -3.631
      6746.996       1.312      -3.649
      6747.496       1.384      -3.666
      6747.996       1.457      -3.683
      6748.496       1.457      -3.701
      6748.996       1.393      -3.718
      6749.496       1.328      -3.735
      6749.996       1.582      -3.753
      6750.496       1.867      -3.770
      6750.996       2.151      -3.787
      6751.496       2.436      -3.805
      6751.996       2.721      -3.872
      6752.496       3.006      -4.093
      6752.996       3.291      -4.313
      6753.496       3.576      -4.533
      6753.996       3.861      -4.753
      6754.496       4.146      -4.973
      6754.996       3.639      -5.193
      6755.496       2.950      -5.420
      6755.996       2.260      -5.673
      6756.496       1.680      -5.925
      6756.996       3.210      -6.177
      6757.496       4.741      -6.429
      6757.996       6.271      -6.682
      6758.496       7.802      -6.934
      6758.996       9.332      -7.186
      6759.496      10.863      -7.439
      6759.996      12.393      -7.691
      6760.496      13.924      -7.943
      6760.996      13.793      -8.195
      6761.496      13.354      -8.448
      6761.996      12.916      -8.700
      6762.496      12.477      -8.952
      6762.996      12.039      -9.205
      6763.496      11.601      -9.457
      6763.996      11.162      -9.709
      6764.496      10.724      -9.961
