~Version Information
 VERS.                 2.0: 
 WRAP.                  NO: 
 END.                PETRA:IHS Markit
~Well Information Block
#MNEM.UNIT       Data Type    Information
#---------    -------------   ---------------------------------
 STRT.F           2031.9959:
 STOP.F          10833.9783:
 STEP.F              0.5000:
 NULL.              -999.25:
 COMP.                           : COMPANY
 FLD.       PURT WEST            : FIELD
 LOC.                            : LOCATION
 DATE.      24-JUN-2024          : DATE
 WELL.                           : Well Name
 LABL.      42001313820000                   : Well Label
 APIN.      42001313820000       : API Number
 UWI.       42001313820000       : Unique Well Number
 NUMB.      1                    : Well Number
 OPER.      MARSHALL EXPL CO INC : Operator Name
 LEAS.      BROOKSHIRE           : Lease Name
~Parameter Block
#MNEM.UNIT           VALUE            Description
#---------    --------------------   ---------------------------------
 EKB.F                   626.0 : KB Elevation
~Curve Information Block
#MNEM.UNIT      API CODE      Curve Description
#---------    -------------   ---------------------------------
 DEPT.F                   00 000 00 00: Depth (MD)
 RES.OHM.M                00 001 00 00: Medium Resistivity
 SP.MV                    00 002 00 00: Spontaneous Potential
~A        DEPT         RES          SP
# ...
      6048.996       3.410     -50.624
      6049.496       3.054     -51.033
      6049.996       2.698     -50.218
      6050.496       2.342     -49.397
      6050.996       1.986     -48.576
      6051.496       1.778     -47.755
      6051.996       2.082     -46.934
      6052.496       2.385     -46.113
      6052.996       2.689     -45.292
      6053.496       2.993     -44.471
      6053.996       3.296     -43.650
      6054.496       3.226     -42.829
      6054.996       3.028     -42.011
      6055.496       2.831     -41.912
      6055.996       2.633     -41.432
      6056.496       2.435     -40.197
      6056.996       2.238     -38.260
      6057.496       2.099     -38.261
      6057.996       1.962     -38.262
      6058.496       1.826     -39.633
      6058.996       1.689     -40.448
      6059.496       1.552     -42.473
      6059.996       1.415     -45.251
      6060.496       1.279     -48.074
      6060.996       2.624     -48.622
      6061.496       4.527     -49.233
      6061.996       5.628     -49.234
      6062.496       5.018     -49.235
      6062.996       4.407     -49.083
      6063.496       3.797     -47.521
      6063.996       3.187     -45.622
      6064.496       2.576     -42.128
      6064.996       1.966     -40.714
      6065.496       1.355     -40.105
      6065.996       1.383     -40.106
      6066.496       1.557     -40.108
      6066.996       1.731     -40.109
      6067.496       1.905     -40.357
      6067.996       2.079     -41.623
      6068.496       2.254     -44.429
      6068.996       2.542     -45.646
      6069.496       2.901     -47.643
      6069.996       3.261     -48.103
      6070.496       3.620     -68.645
      6070.996       3.683     -81.435
      6071.496       3.449     -86.459
      6071.996       3.215     -85.455
      6072.496       2.981     -84.450
      6072.996       2.747     -83.445
      6073.496       2.514     -82.441
      6073.996       2.342     -81.436
      6074.496       2.195     -80.431
      6074.996       2.047     -76.707
      6075.496       1.900     -65.892
      6075.996       1.753     -56.605
      6076.496       1.605     -57.013
      6076.996       1.458     -57.422
      6077.496       1.311     -57.830
      6077.996       2.667     -58.239
      6078.496       4.532     -58.408
      6078.996       6.396     -58.409
      6079.496       8.261     -58.410
      6079.996      10.126     -58.412
      6080.496      10.181     -55.869
      6080.996       9.352     -55.051
      6081.496       8.523     -54.231
      6081.996       7.694     -51.806
      6082.496       6.866     -50.138
      6082.996       6.037     -49.318
      6083.496       5.208     -46.660
      6083.996       4.379     -45.435
      6084.496       2.651     -43.194
      6084.996       1.855     -41.979
      6085.496       1.683     -40.928
      6085.996       1.511     -39.542
      6086.496       1.339     -38.933
      6086.996       1.270     -37.856
      6087.496       1.413     -37.110
      6087.996       1.555     -37.111
      6088.496       1.698     -36.003
      6088.996       1.841     -34.677
      6089.496       1.984     -33.751
      6089.996       2.103     -33.460
      6090.496       2.020     -33.461
      6090.996       1.936     -33.462
      6091.496       1.853     -33.463
      6091.996       1.769     -33.464
      6092.496       1.686     -33.465
      6092.996       1.602     -33.467
      6093.496       1.519     -34.989
      6093.996       1.998     -36.611
      6094.496       2.518     -38.231
      6094.996       3.038     -40.452
      6095.496       3.557     -41.736
      6095.996       3.289     -43.762
      6096.496       2.954     -43.831
      6096.996       2.620     -43.832
      6097.496       2.286     -42.614
      6097.996       1.951     -42.615
      6098.496       1.617     -42.616
      6098.996       1.468     -42.617
      6099.496       1.780     -42.618
      6099.996       1.739     -42.619
      6100.496       1.675     -42.620
      6100.996       1.669     -42.815
      6101.496       2.174     -43.632
      6101.996       2.809     -45.658
      6102.496       3.234     -47.500
      6102.996       3.659     -46.491
      6103.496       4.084     -44.456
      6103.996       3.744     -43.848
      6104.496       3.046     -43.849
      6104.996       2.744     -43.822
      6105.496       2.972     -43.242
      6105.996       3.200     -43.243
      6106.496       3.428     -43.244
      6106.996       2.978     -43.245
      6107.496       2.449     -43.246
      6107.996       2.184     -44.526
      6108.496       2.005     -45.340
      6108.996       1.829     -46.152
      6109.496       1.832     -46.969
      6109.996       5.061     -47.785
      6110.496       6.803     -49.667
      6110.996       6.022     -50.565
      6111.496       5.240     -50.566
      6111.996       4.459     -48.862
      6112.496       3.677     -45.953
      6112.996       2.896     -43.044
      6113.496       2.115     -41.368
      6113.996       1.726     -40.339
      6114.496       1.573     -39.310
      6114.996       1.420     -38.998
      6115.496       1.359     -38.999
      6115.996       1.366     -39.000
      6116.496       1.392     -39.001
      6116.996       1.523     -39.002
      6117.496       1.582     -39.004
      6117.996       1.986     -39.605
      6118.496       2.255     -42.422
      6118.996       2.178     -44.042
      6119.496       2.001     -45.663
      6119.996       1.825     -47.021
      6120.496       1.649     -48.372
      6120.996       1.472     -49.916
      6121.496       1.296     -51.537
      6121.996       1.544     -53.157
      6122.496       1.813     -54.778
      6122.996       2.082     -56.399
      6123.496       2.351     -58.019
      6123.996       2.620     -63.849
      6124.496       2.889     -71.508
      6124.996       2.840     -79.168
      6125.496       2.715     -86.828
      6125.996       2.589     -94.479
      6126.496       2.464    -100.003
      6126.996       2.339    -105.526
      6127.496       2.213    -107.532
      6127.996       2.088    -107.942
      6128.496       1.963    -108.351
      6128.996       1.838    -108.760
      6129.496       1.713     -96.139
      6129.996       1.656     -84.384
      6130.496       1.623     -79.760
      6130.996       1.590     -75.135
      6131.496       1.558     -70.511
      6131.996       1.525     -67.334
      6132.496       1.492     -68.418
      6132.996       1.540     -69.501
      6133.496       1.788     -70.585
      6133.996       2.527     -71.668
      6134.496       2.779     -73.756
      6134.996       3.066     -74.575
      6135.496       3.354     -75.391
      6135.996       3.642     -77.420
      6136.496       3.930     -79.862
      6136.996       4.218     -79.863
      6137.496       4.289     -80.471
      6137.996       4.068     -80.475
      6138.496       3.847     -80.476
      6138.996       3.625     -79.223
      6139.496       3.404     -73.363
      6139.996       2.810     -68.210
      6140.496       2.344     -61.748
      6140.996       1.487     -55.286
      6141.496       1.437     -48.824
      6141.996       1.387     -47.884
      6142.496       1.337     -46.960
      6142.996       1.287     -46.037
      6143.496       1.237     -45.113
      6143.996       1.187     -44.190
      6144.496       1.137     -43.273
      6144.996       1.096     -42.454
      6145.496       1.096     -41.020
      6145.996       1.096     -40.897
      6146.496       1.139     -40.289
      6146.996       1.179     -40.290
      6147.496       1.218     -40.184
      6147.996       1.258     -39.682
      6148.496       1.297     -39.684
      6148.996       1.337     -39.685
      6149.496       1.376     -39.686
      6149.996       1.415     -39.687
      6150.496       1.489     -39.688
      6150.996       1.584     -39.863
      6151.496       1.678     -40.273
