~Version Information
 VERS.                 2.0: 
 WRAP.                  NO: 
 END.                PETRA:IHS Markit
~Well Information Block
#MNEM.UNIT       Data Type    Information
#---------    -------------   ---------------------------------
 STRT.F           2232.9955:
 STOP.F          11856.9763:
 STEP.F              0.5000:
 NULL.              -999.25:
 COMP.                           : COMPANY
 FLD.       PLUM JELLY           : FIELD
 LOC.                            : LOCATION
 DATE.      24-JUN-2024          : DATE
 WELL.                           : Well Name
 LABL.      42001313930000                   : Well Label
 APIN.      42001313930000       : API Number
 UWI.       42001313930000       : Unique Well Number
 NUMB.      1                    : Well Number
 OPER.      BOIS D ARC INC       : Operator Name
 LEAS.      SACK TRUST GAS UNIT  : Lease Name
~Parameter Block
#MNEM.UNIT           VALUE            Description
#---------    --------------------   ---------------------------------
 EKB.F                   496.0 : KB Elevation
~Curve Information Block
#MNEM.UNIT      API CODE      Curve Description
#---------    -------------   ---------------------------------
 DEPT.F                   00 000 00 00: Depth (MD)
 RES.OHM.M                00 001 00 00: Medium Resistivity
 SP.MV                    00 002 00 00: Spontaneous Potential
~A        DEPT         RES          SP
# ...
      5425.996       1.184       1.092
      5426.496       1.185       1.094
      5426.996       1.187       1.056
      5427.496       1.206       1.012
      5427.996       1.261       0.968
      5428.496       1.315       0.924
      5428.996       1.369       0.881
      5429.496       1.424       0.837
      5429.996       1.447       0.793
      5430.496       1.414       0.750
      5430.996       1.381       0.706
      5431.496       1.348       0.662
      5431.996       1.315       0.619
      5432.496       1.282       0.876
      5432.996       1.249       1.542
      5433.496       1.216       2.208
      5433.996       1.188       2.646
      5434.496       1.162       2.542
      5434.996       1.136       2.437
      5435.496       1.111       2.332
      5435.996       1.085       2.228
      5436.496       1.059       2.123
      5436.996       1.034       2.018
      5437.496       1.008       1.913
      5437.996       1.111       1.809
      5438.496       1.127       1.704
      5438.996       1.098       1.599
      5439.496       1.068       1.495
      5439.996       1.039       1.390
      5440.496       1.009       1.285
      5440.996       0.980       1.181
      5441.496       0.950       1.178
      5441.996       0.921       1.232
      5442.496       0.891       1.287
      5442.996       0.965       1.341
      5443.496       1.096       1.396
      5443.996       1.182       1.450
      5444.496       1.154       1.505
      5444.996       1.126       1.559
      5445.496       1.098       1.614
      5445.996       1.088       1.668
      5446.496       1.106       1.723
      5446.996       1.123       1.777
      5447.496       1.141       1.832
      5447.996       1.158       1.886
      5448.496       1.175       1.941
      5448.996       1.193       1.995
      5449.496       1.210       2.050
      5449.996       1.228       2.104
      5450.496       1.216       2.159
      5450.996       1.185       2.213
      5451.496       1.154       2.329
      5451.996       1.123       2.448
      5452.496       1.092       2.567
      5452.996       1.061       2.686
      5453.496       1.030       2.805
      5453.996       0.999       2.924
      5454.496       1.069       3.042
      5454.996       1.157       3.161
      5455.496       1.246       3.280
      5455.996       1.335       3.399
      5456.496       1.423       3.518
      5456.996       1.512       3.636
      5457.496       1.509       3.755
      5457.996       1.476       3.874
      5458.496       1.443       3.993
      5458.996       1.439       4.111
      5459.496       1.461       4.230
      5459.996       1.482       4.349
      5460.496       1.504       4.468
      5460.996       1.526       4.587
      5461.496       1.548       4.705
      5461.996       1.569       4.824
      5462.496       1.591       4.641
      5462.996       1.613       4.372
      5463.496       1.635       4.103
      5463.996       1.657       3.834
      5464.496       1.678       3.565
      5464.996       1.700       3.296
      5465.496       1.722       3.027
      5465.996       1.744       2.758
      5466.496       1.766       2.488
      5466.996       1.787       2.219
      5467.496       1.809       1.950
      5467.996       1.831       1.681
      5468.496       1.813       1.412
      5468.996       1.772       1.143
      5469.496       1.734       0.874
      5469.996       1.776       0.605
      5470.496       1.817       0.336
      5470.996       1.859       0.067
      5471.496       1.901      -0.203
      5471.996       1.943      -1.282
      5472.496       1.984      -2.930
      5472.996       2.026      -4.578
      5473.496       2.068      -6.227
      5473.996       2.110      -7.875
      5474.496       2.152      -9.523
      5474.996       2.153     -11.172
      5475.496       2.087     -16.579
      5475.996       2.022     -22.089
      5476.496       1.957     -27.598
      5476.996       1.892     -33.108
      5477.496       1.826     -38.617
      5477.996       2.220     -44.406
      5478.496       2.994     -52.097
      5478.996       3.769     -59.788
      5479.496       4.544     -67.346
      5479.996       5.318     -68.537
      5480.496       6.093     -69.727
      5480.996       6.868     -70.917
      5481.496       7.642     -72.107
      5481.996       8.417     -73.297
      5482.496       9.192     -74.487
      5482.996       9.966     -75.677
      5483.496      10.741     -76.357
      5483.996       8.825     -74.586
      5484.496       6.704     -72.815
      5484.996       4.583     -71.045
      5485.496       2.463     -69.274
      5485.996       1.550     -67.503
      5486.496       1.508     -65.733
      5486.996       1.466     -63.962
      5487.496       1.424     -61.404
      5487.996       1.382     -56.371
      5488.496       1.340     -51.338
      5488.996       1.298     -46.305
      5489.496       1.256     -41.272
      5489.996       1.214     -36.239
      5490.496       1.172     -35.947
      5490.996       1.337     -39.369
      5491.496       1.533     -42.790
      5491.996       1.729     -46.212
      5492.496       1.926     -49.633
      5492.996       2.122     -53.055
      5493.496       2.318     -53.965
      5493.996       2.515     -49.934
      5494.496       2.711     -45.903
      5494.996       2.867     -41.872
      5495.496       2.983     -37.841
      5495.996       3.098     -33.810
      5496.496       3.064     -29.779
      5496.996       2.808     -25.748
      5497.496       2.552     -22.963
      5497.996       2.296     -24.805
      5498.496       2.040     -26.646
      5498.996       1.784     -28.488
      5499.496       1.528     -30.329
      5499.996       1.531     -32.171
      5500.496       1.738     -34.013
      5500.996       1.946     -35.854
      5501.496       2.153     -37.696
      5501.996       2.361     -39.537
      5502.496       2.568     -36.607
      5502.996       2.776     -33.198
      5503.496       2.983     -29.789
      5503.996       3.191     -26.380
      5504.496       3.158     -22.970
      5504.996       2.920     -19.561
      5505.496       2.683     -16.152
      5505.996       2.445     -12.743
      5506.496       2.208     -11.629
      5506.996       1.970     -11.628
      5507.496       1.860     -11.626
      5507.996       1.891     -11.624
      5508.496       1.922     -12.224
      5508.996       1.953     -14.903
      5509.496       1.984     -17.581
      5509.996       2.016     -20.260
      5510.496       2.047     -23.108
      5510.996       2.078     -26.890
      5511.496       2.109     -30.673
      5511.996       2.141     -34.456
      5512.496       2.172     -38.239
      5512.996       2.203     -42.022
      5513.496       2.234     -45.804
      5513.996       2.265     -49.587
      5514.496       2.297     -53.370
      5514.996       2.328     -59.536
      5515.496       2.359     -66.387
      5515.996       2.390     -69.888
      5516.496       2.422     -70.068
      5516.996       2.334     -70.247
      5517.496       2.159     -70.426
      5517.996       1.985     -70.605
      5518.496       1.811     -70.785
      5518.996       1.636     -71.571
      5519.496       1.462     -72.552
      5519.996       1.287     -73.534
      5520.496       1.113     -74.515
      5520.996       0.938     -75.496
      5521.496       1.092     -76.477
      5521.996       1.385     -77.458
      5522.496       1.677     -78.439
      5522.996       1.970     -78.930
      5523.496       2.262     -78.264
      5523.996       2.555     -77.598
      5524.496       2.440     -76.932
      5524.996       2.323     -76.266
      5525.496       2.206     -75.600
      5525.996       2.089     -74.934
      5526.496       1.972     -74.268
      5526.996       1.855     -73.602
      5527.496       1.738     -72.936
      5527.996       1.620     -72.270
      5528.496       1.503     -71.604
