~Version Information
 VERS.                 2.0: 
 WRAP.                  NO: 
 END.                PETRA:IHS Markit
~Well Information Block
#MNEM.UNIT       Data Type    Information
#---------    -------------   ---------------------------------
 STRT.F           2031.9959:
 STOP.F          10833.9783:
 STEP.F              0.5000:
 NULL.              -999.25:
 COMP.                           : COMPANY
 FLD.       PURT WEST            : FIELD
 LOC.                            : LOCATION
 DATE.      24-JUN-2024          : DATE
 WELL.                           : Well Name
 LABL.      42001313820000                   : Well Label
 APIN.      42001313820000       : API Number
 UWI.       42001313820000       : Unique Well Number
 NUMB.      1                    : Well Number
 OPER.      MARSHALL EXPL CO INC : Operator Name
 LEAS.      BROOKSHIRE           : Lease Name
~Parameter Block
#MNEM.UNIT           VALUE            Description
#---------    --------------------   ---------------------------------
 EKB.F                   626.0 : KB Elevation
~Curve Information Block
#MNEM.UNIT      API CODE      Curve Description
#---------    -------------   ---------------------------------
 DEPT.F                   00 000 00 00: Depth (MD)
 RES.OHM.M                00 001 00 00: Medium Resistivity
 SP.MV                    00 002 00 00: Spontaneous Potential
~A        DEPT         RES          SP
# ...
      5533.996       0.698     -85.311
      5534.496       0.739     -84.234
      5534.996       0.792     -83.667
      5535.496       0.812     -81.891
      5535.996       0.856     -81.416
      5536.496       0.892     -79.016
      5536.996       0.892     -77.936
      5537.496       0.878     -77.286
      5537.996       0.855     -76.677
      5538.496       0.834     -74.852
      5538.996       0.804     -75.755
      5539.496       0.783     -76.971
      5539.996       0.756     -80.270
      5540.496       0.734     -82.517
      5540.996       0.720     -84.139
      5541.496       0.682     -85.760
      5541.996       0.634     -86.433
      5542.496       0.515     -86.434
      5542.996       0.489     -86.435
      5543.496       0.489     -84.707
      5543.996       0.516     -82.937
      5544.496       0.597     -81.167
      5544.996       0.645     -79.398
      5545.496       0.677     -77.628
      5545.996       0.719     -77.194
      5546.496       0.696     -77.058
      5546.996       0.629     -76.923
      5547.496       0.592     -76.787
      5547.996       0.524     -76.700
      5548.496       0.495     -76.701
      5548.996       0.465     -75.486
      5549.496       0.435     -74.720
      5549.996       0.422     -74.312
      5550.496       0.422     -63.661
      5550.996       0.423     -58.818
      5551.496       0.473     -53.896
      5551.996       0.501     -47.082
      5552.496       0.575     -40.268
      5552.996       0.636     -33.455
      5553.496       0.686     -26.641
      5553.996       0.748     -20.120
      5554.496       0.862     -21.740
      5554.996       1.183     -23.360
      5555.496       1.505     -24.980
      5555.996       1.826     -36.659
      5556.496       2.148     -41.595
      5556.996       2.470     -44.800
      5557.496       2.751     -48.006
      5557.996       2.589     -51.211
      5558.496       2.427     -54.417
      5558.996       2.265     -57.622
      5559.496       2.103     -60.828
      5559.996       1.941     -68.324
      5560.496       1.779     -78.567
      5560.996       1.591     -79.380
      5561.496       1.319     -80.194
      5561.996       1.202     -80.997
      5562.496       1.150     -80.550
      5562.996       0.952     -77.546
      5563.496       0.952     -75.067
      5563.996       0.953     -72.859
      5564.496       0.984     -70.367
      5564.996       1.042     -68.243
      5565.496       1.103     -66.175
      5565.996       1.194     -64.107
      5566.496       1.331     -57.982
      5566.996       1.440     -51.521
      5567.496       1.558     -45.060
      5567.996       1.570     -41.055
      5568.496       1.599     -41.780
      5568.996       1.600     -42.504
      5569.496       1.600     -43.229
      5569.996       1.600     -43.953
      5570.496       1.600     -44.678
      5570.996       1.600     -45.403
      5571.496       1.600     -45.687
      5571.996       1.600     -45.689
      5572.496       1.605     -45.690
      5572.996       1.668     -45.691
      5573.496       1.758     -47.823
      5573.996       1.774     -50.243
      5574.496       1.851     -52.664
      5574.996       1.887     -59.148
      5575.496       1.944     -59.828
      5575.996       2.020     -60.508
      5576.496       2.117     -61.187
      5576.996       2.261     -61.867
      5577.496       2.278     -62.075
      5577.996       2.417     -61.950
      5578.496       2.449     -61.825
      5578.996       2.449     -61.700
      5579.496       2.347     -61.575
      5579.996       2.304     -61.450
      5580.496       2.260     -61.325
      5580.996       2.132     -61.201
      5581.496       2.092     -61.076
      5581.996       1.995     -60.951
      5582.496       1.927     -60.940
      5582.996       1.869     -60.941
      5583.496       1.808     -59.833
      5583.996       1.760     -54.052
      5584.496       1.755     -51.945
      5584.996       1.849     -49.837
      5585.496       1.930     -47.730
      5585.996       2.074     -45.623
      5586.496       2.115     -43.515
      5586.996       2.171     -41.408
      5587.496       2.160     -39.301
      5587.996       2.128     -34.883
      5588.496       2.028     -30.114
      5588.996       1.954     -25.345
      5589.496       1.789     -20.577
      5589.996       1.676     -18.028
      5590.496       1.607     -17.482
      5590.996       1.485     -16.936
      5591.496       1.421     -16.390
      5591.996       1.393     -15.275
      5592.496       1.366     -15.276
      5592.996       1.339     -15.277
      5593.496       1.312     -14.672
      5593.996       1.285     -14.673
      5594.496       1.259     -14.674
      5594.996       1.232     -14.675
      5595.496       1.218     -14.676
      5595.996       1.325     -14.677
      5596.496       1.433     -16.817
      5596.996       1.541     -19.233
      5597.496       1.648     -21.160
      5597.996       1.756     -22.960
      5598.496       1.863     -32.487
      5598.996       1.971     -34.902
      5599.496       2.060     -41.795
      5599.996       2.006     -49.831
      5600.496       1.952     -55.122
      5600.996       1.898     -57.009
      5601.496       1.844     -58.896
      5601.996       1.790     -60.783
      5602.496       1.753     -62.670
      5602.996       1.753     -62.816
      5603.496       1.753     -62.817
      5603.996       1.787     -62.818
      5604.496       1.839     -62.819
      5604.996       1.868     -62.821
      5605.496       1.891     -62.822
      5605.996       1.923     -62.645
      5606.496       1.960     -60.196
      5606.996       1.976     -58.511
      5607.496       1.976     -52.725
      5607.996       1.976     -46.940
      5608.496       1.972     -41.155
      5608.996       1.876     -35.370
      5609.496       1.788     -30.685
      5609.996       1.669     -26.490
      5610.496       1.534     -22.294
      5610.996       1.534     -18.261
      5611.496       1.637     -16.610
      5611.996       1.701     -14.959
      5612.496       1.767     -14.715
      5612.996       1.911     -14.716
      5613.496       2.002     -14.212
      5613.996       2.056     -12.889
      5614.496       2.114     -12.568
      5614.996       2.283     -11.747
      5615.496       2.449      -9.847
      5615.996       2.609      -9.494
      5616.496       2.801      -8.672
      5616.996       2.945      -6.804
      5617.496       2.682      -6.806
      5617.996       2.420      -6.807
      5618.496       2.157      -7.741
      5618.996       1.847     -10.614
      5619.496       1.775     -12.232
      5619.996       1.764     -13.338
      5620.496       1.751     -14.424
      5620.996       1.798     -15.121
      5621.496       1.989     -15.664
      5621.996       2.056     -16.562
      5622.496       1.891     -16.394
      5622.996       1.755     -16.161
      5623.496       1.616     -15.929
      5623.996       1.529     -15.696
      5624.496       1.470     -15.463
      5624.996       1.448     -15.230
      5625.496       1.434     -14.998
      5625.996       1.434     -14.765
      5626.496       1.519     -14.532
      5626.996       1.699     -14.300
      5627.496       1.827     -13.979
      5627.996       2.095     -13.458
      5628.496       2.611     -12.937
      5628.996       2.409     -12.416
      5629.496       2.039     -11.895
      5629.996       1.829     -11.374
      5630.496       1.393     -10.853
      5630.996       1.359     -10.332
      5631.496       1.359      -9.883
      5631.996       1.749     -11.104
      5632.496       2.105     -11.625
      5632.996       2.028     -14.472
      5633.496       1.908     -16.284
      5633.996       1.788     -20.624
      5634.496       1.668     -23.603
      5634.996       1.548     -26.806
      5635.496       1.472     -31.568
      5635.996       1.472     -37.479
      5636.496       1.824     -43.391
