~Version Information
 VERS.                 2.0: 
 WRAP.                  NO: 
 END.                PETRA:IHS Markit
~Well Information Block
#MNEM.UNIT       Data Type    Information
#---------    -------------   ---------------------------------
 STRT.F           2031.9959:
 STOP.F          10833.9783:
 STEP.F              0.5000:
 NULL.              -999.25:
 COMP.                           : COMPANY
 FLD.       PURT WEST            : FIELD
 LOC.                            : LOCATION
 DATE.      24-JUN-2024          : DATE
 WELL.                           : Well Name
 LABL.      42001313820000                   : Well Label
 APIN.      42001313820000       : API Number
 UWI.       42001313820000       : Unique Well Number
 NUMB.      1                    : Well Number
 OPER.      MARSHALL EXPL CO INC : Operator Name
 LEAS.      BROOKSHIRE           : Lease Name
~Parameter Block
#MNEM.UNIT           VALUE            Description
#---------    --------------------   ---------------------------------
 EKB.F                   626.0 : KB Elevation
~Curve Information Block
#MNEM.UNIT      API CODE      Curve Description
#---------    -------------   ---------------------------------
 DEPT.F                   00 000 00 00: Depth (MD)
 RES.OHM.M                00 001 00 00: Medium Resistivity
 SP.MV                    00 002 00 00: Spontaneous Potential
~A        DEPT         RES          SP
# ...
      4915.996       4.447     -21.664
      4916.496       4.366     -21.665
      4916.996       4.206     -20.760
      4917.496       4.053     -20.054
      4917.996       3.950     -18.821
      4918.496       3.712     -17.388
      4918.996       3.577     -16.568
      4919.496       3.307     -16.191
      4919.996       3.090     -15.582
      4920.496       2.922     -15.331
      4920.996       2.736     -14.510
      4921.496       2.679     -14.299
      4921.996       4.271     -13.757
      4922.496       4.168     -13.273
      4922.996       3.478     -13.153
      4923.496       2.492     -13.154
      4923.996       2.126     -12.134
      4924.496       2.080     -11.245
      4924.996       2.122     -11.117
      4925.496       2.268     -10.989
      4925.996       3.126     -10.860
      4926.496       3.757     -10.732
      4926.996       3.854     -10.604
      4927.496       3.783     -10.476
      4927.996       3.629     -10.348
      4928.496       3.543     -10.220
      4928.996       3.450     -10.212
      4929.496       3.138     -10.672
      4929.996       2.130     -11.132
      4930.496       2.286     -11.592
      4930.996       3.327     -12.052
      4931.496       4.325     -12.511
      4931.996       4.285     -12.971
      4932.496       4.246     -13.431
      4932.996       4.207     -13.891
      4933.496       4.167     -14.351
      4933.996       4.128     -14.811
      4934.496       4.088     -15.271
      4934.996       4.049     -15.719
      4935.496       3.940     -16.129
      4935.996       3.940     -16.228
      4936.496       4.231     -16.229
      4936.996       4.397     -16.230
      4937.496       4.567     -16.232
      4937.996       5.072     -16.233
      4938.496       5.268     -16.234
      4938.996       5.307     -16.235
      4939.496       4.895     -16.236
      4939.996       4.897     -16.237
      4940.496       5.227     -16.238
      4940.996       5.569     -16.105
      4941.496       5.528     -15.695
      4941.996       4.890     -14.939
      4942.496       4.204     -14.414
      4942.996       3.912     -13.198
      4943.496       3.466     -11.980
      4943.996       3.165     -11.981
      4944.496       2.859     -11.372
      4944.996       2.675     -11.374
      4945.496       2.238     -11.375
      4945.996       2.194     -11.376
      4946.496       2.534     -11.377
      4946.996       2.874     -11.378
      4947.496       3.213     -11.379
      4947.996       3.553     -11.380
      4948.496       3.882     -11.568
      4948.996       3.741     -11.977
      4949.496       3.600     -11.993
      4949.996       3.458     -11.995
      4950.496       3.317     -11.996
      4950.996       3.176     -11.997
      4951.496       3.035     -12.133
      4951.996       3.083     -12.406
      4952.496       3.269     -12.817
      4952.996       3.455     -13.630
      4953.496       3.641     -13.966
      4953.996       3.827     -14.149
      4954.496       3.857     -14.332
      4954.996       3.817     -14.515
      4955.496       3.778     -14.697
      4955.996       3.739     -14.880
      4956.496       3.700     -15.063
      4956.996       3.660     -15.246
      4957.496       3.697     -15.429
      4957.996       3.871     -15.612
      4958.496       4.101     -15.794
      4958.996       4.651     -15.977
      4959.496       4.520     -16.160
      4959.996       4.254     -16.177
      4960.496       3.987     -15.864
      4960.996       3.721     -15.550
      4961.496       3.455     -15.236
      4961.996       3.495     -14.922
      4962.496       3.618     -14.608
      4962.996       3.742     -14.294
      4963.496       3.801     -13.980
      4963.996       3.696     -13.666
      4964.496       3.591     -13.352
      4964.996       3.486     -13.248
      4965.496       3.381     -13.393
      4965.996       3.277     -14.206
      4966.496       3.172     -14.468
      4966.996       3.067     -14.469
      4967.496       2.962     -14.470
      4967.996       2.857     -14.471
      4968.496       3.132     -13.079
      4968.996       3.341     -12.038
      4969.496       3.565     -12.039
      4969.996       3.648     -11.430
      4970.496       3.470     -11.431
      4970.996       3.261     -11.432
      4971.496       3.120     -11.434
      4971.996       3.004     -11.435
      4972.496       2.815     -11.436
      4972.996       2.708     -11.437
      4973.496       2.707     -11.438
      4973.996       2.707     -11.439
      4974.496       2.732     -11.440
      4974.996       2.867     -11.441
      4975.496       3.216     -11.503
      4975.996       3.380     -12.054
      4976.496       3.421     -12.665
      4976.996       3.068     -12.666
      4977.496       2.854     -12.667
      4977.996       2.697     -12.668
      4978.496       2.473     -12.669
      4978.996       2.134     -12.670
      4979.496       2.085     -12.671
      4979.996       2.611     -12.672
      4980.496       2.860     -12.674
      4980.996       3.067     -13.193
      4981.496       3.273     -13.892
      4981.996       3.480     -14.503
      4982.496       3.687     -14.504
      4982.996       3.893     -14.505
      4983.496       4.100     -14.506
      4983.996       4.215     -14.508
      4984.496       4.043     -14.509
      4984.996       3.871     -14.510
      4985.496       3.699     -14.511
      4985.996       3.527     -14.192
      4986.496       3.408     -13.297
      4986.996       3.507     -12.711
      4987.496       3.887     -12.597
      4987.996       3.961     -12.188
      4988.496       3.979     -12.082
      4988.996       3.823     -11.473
      4989.496       3.649     -11.474
      4989.996       2.605     -11.476
      4990.496       1.945     -11.477
      4990.996       2.442     -11.478
      4991.496       2.939     -11.479
      4991.996       3.437     -11.480
      4992.496       3.805     -11.481
      4992.996       3.717     -12.092
      4993.496       3.629     -12.828
      4993.996       3.541     -13.237
      4994.496       3.452     -14.021
      4994.996       3.364     -15.142
      4995.496       3.276     -15.143
      4995.996       3.742     -15.144
      4996.496       3.887     -15.146
      4996.996       3.982     -15.147
      4997.496       4.057     -15.148
      4997.996       4.087     -15.149
      4998.496       4.042     -15.150
      4998.996       3.874     -15.151
      4999.496       3.434     -15.152
      4999.996       3.371     -15.153
      5000.496       3.346     -15.155
      5000.996       3.346     -15.156
      5001.496       3.408     -15.157
      5001.996       3.722     -15.158
      5002.496       3.722     -15.159
      5002.996       3.675     -15.160
      5003.496       3.405     -15.161
      5003.996       3.280     -15.163
      5004.496       3.214     -15.164
      5004.996       3.214     -15.165
      5005.496       3.214     -15.533
      5005.996       3.569     -16.348
      5006.496       3.708     -16.388
      5006.996       3.801     -16.389
      5007.496       3.693     -16.972
      5007.996       3.585     -16.998
      5008.496       3.478     -16.999
      5008.996       3.370     -17.000
      5009.496       3.262     -17.001
      5009.996       3.154     -17.002
      5010.496       3.128     -17.006
      5010.996       3.627     -17.416
      5011.496       3.671     -18.035
      5011.996       3.739     -18.850
      5012.496       3.945     -20.268
      5012.996       4.083     -20.664
      5013.496       4.048     -21.275
      5013.996       3.918     -21.276
      5014.496       3.775     -21.277
      5014.996       3.557     -20.630
      5015.496       3.447     -19.788
      5015.996       3.287     -18.899
      5016.496       3.540     -18.009
      5016.996       3.824     -17.120
      5017.496       4.481     -16.231
      5017.996       4.567     -15.342
      5018.496       4.460     -14.453
