~Version Information
 VERS.                 2.0: 
 WRAP.                  NO: 
 END.                PETRA:IHS Markit
~Well Information Block
#MNEM.UNIT       Data Type    Information
#---------    -------------   ---------------------------------
 STRT.F           1965.9961:
 STOP.F          11003.9780:
 STEP.F              0.5000:
 NULL.              -999.25:
 COMP.                           : COMPANY
 FLD.       WILDCAT              : FIELD
 LOC.                            : LOCATION
 DATE.      24-JUN-2024          : DATE
 WELL.                           : Well Name
 LABL.      42001312650000                   : Well Label
 APIN.      42001312650000       : API Number
 UWI.       42001312650000       : Unique Well Number
 NUMB.      1                    : Well Number
 OPER.      MAY PETROLEUM INC    : Operator Name
 LEAS.      COOK R R             : Lease Name
~Parameter Block
#MNEM.UNIT           VALUE            Description
#---------    --------------------   ---------------------------------
 EKB.F                   595.0 : KB Elevation
~Curve Information Block
#MNEM.UNIT      API CODE      Curve Description
#---------    -------------   ---------------------------------
 DEPT.F                   00 000 00 00: Depth (MD)
 RES.OHM.M                00 001 00 00: Medium Resistivity
 SP.MV                    00 002 00 00: Spontaneous Potential
~A        DEPT         RES          SP
# ...
      5570.996       1.837      -8.169
      5571.496       1.849      -8.342
      5571.996       1.972      -8.342
      5572.496       2.171      -8.341
      5572.996       2.390      -8.341
      5573.496       2.861      -8.340
      5573.996       3.145      -8.340
      5574.496       3.430      -8.339
      5574.996       3.714      -8.339
      5575.496       3.999      -8.829
      5575.996       4.283      -9.615
      5576.496       4.568     -11.131
      5576.996       4.852     -14.730
      5577.496       4.760     -15.851
      5577.996       4.533     -18.635
      5578.496       4.305     -23.138
      5578.996       4.078     -27.641
      5579.496       3.851     -32.144
      5579.996       3.623     -36.648
      5580.496       3.396     -40.234
      5580.996       3.169     -42.846
      5581.496       2.941     -45.459
      5581.996       2.714     -48.071
      5582.496       2.487     -50.683
      5582.996       2.345     -53.295
      5583.496       2.248     -54.568
      5583.996       2.080     -55.765
      5584.496       1.900     -56.963
      5584.996       1.560     -58.161
      5585.496       1.473     -59.359
      5585.996       1.376     -59.813
      5586.496       1.109     -60.238
      5586.996       0.864     -60.237
      5587.496       0.624     -60.237
      5587.996       0.561     -60.236
      5588.496       0.598     -60.236
      5588.996       0.634     -59.826
      5589.496       0.671     -58.533
      5589.996       0.708     -57.359
      5590.496       0.791     -56.773
      5590.996       1.068     -54.209
      5591.496       1.371     -53.234
      5591.996       1.512     -50.334
      5592.496       1.589     -48.893
      5592.996       1.667     -47.754
      5593.496       1.744     -46.869
      5593.996       1.727     -45.984
      5594.496       1.612     -45.643
      5594.996       1.557     -46.763
      5595.496       1.557     -47.883
      5595.996       1.696     -49.002
      5596.496       1.989     -50.123
      5596.996       3.342     -50.442
      5597.496       4.024     -50.442
      5597.996       4.909     -50.441
      5598.496       5.794     -49.508
      5598.996       6.679     -47.485
      5599.496       7.564     -45.444
      5599.996       8.449     -44.504
      5600.496       8.550     -43.163
      5600.996       7.936     -40.273
      5601.496       7.323     -31.873
      5601.996       6.710     -23.474
      5602.496       6.097     -15.075
      5602.996       5.484      -9.909
      5603.496       4.871      -8.721
      5603.996       4.258      -7.532
      5604.496       3.645      -7.691
      5604.996       3.764      -8.398
      5605.496       4.282      -9.515
      5605.996       8.064     -10.439
      5606.496       7.324     -10.438
      5606.996       6.585     -10.438
      5607.496       5.846     -10.438
      5607.996       5.106      -9.938
      5608.496       4.367      -9.354
      5608.996       3.628      -8.767
      5609.496       2.888      -7.612
      5609.996       2.149      -6.733
      5610.496       1.763      -6.181
      5610.996       1.862      -6.181
      5611.496       1.961      -6.181
      5611.996       2.060      -6.355
      5612.496       2.160      -8.065
      5612.996       2.259      -8.470
      5613.496       2.358      -8.731
      5613.996       2.457      -8.730
      5614.496       2.556      -8.730
      5614.996       2.656      -8.729
      5615.496       2.755      -8.729
      5615.996       2.854      -9.104
      5616.496       2.953      -9.580
      5616.996       3.137     -11.093
      5617.496       3.277     -16.823
      5617.996       3.567     -18.078
      5618.496       3.940     -20.025
      5618.996       4.487     -21.143
      5619.496       4.555     -22.160
      5619.996       4.398     -23.130
      5620.496       4.155     -24.100
      5620.996       4.014     -25.071
      5621.496       3.873     -26.041
      5621.996       3.436     -27.012
      5622.496       3.187     -27.982
      5622.996       2.896     -28.953
      5623.496       2.678     -29.606
      5623.996       2.534     -29.702
      5624.496       2.469     -29.797
      5624.996       2.350     -29.892
      5625.496       2.274     -29.988
      5625.996       2.209     -36.827
      5626.496       2.134     -40.311
      5626.996       2.055     -40.880
      5627.496       1.990     -41.481
      5627.996       1.939     -41.481
      5628.496       1.888     -41.481
      5628.996       1.837     -41.480
      5629.496       1.760     -39.200
      5629.996       1.705     -38.213
      5630.496       1.652     -36.179
      5630.996       1.595     -34.828
      5631.496       1.541     -31.866
      5631.996       1.527     -27.722
      5632.496       1.508     -23.578
      5632.996       1.508     -19.434
      5633.496       1.534     -15.290
      5633.996       1.600     -11.146
      5634.496       1.645      -9.297
      5634.996       1.786      -8.338
      5635.496       1.917      -7.377
      5635.996       1.946      -6.417
      5636.496       1.967      -5.457
      5636.996       2.018      -4.497
      5637.496       2.055      -4.456
      5637.996       2.131      -4.029
      5638.496       2.205      -4.028
      5638.996       2.245      -4.028
      5639.496       2.328      -4.027
      5639.996       2.399      -4.027
      5640.496       2.441      -4.026
      5640.996       2.572      -4.026
      5641.496       2.632      -4.453
      5641.996       2.708      -4.555
      5642.496       2.833      -4.841
      5642.996       3.204      -5.126
      5643.496       3.204      -5.301
      5643.996       3.204      -5.300
      5644.496       3.172      -5.300
      5644.996       2.986      -5.300
      5645.496       2.845      -5.299
      5645.996       2.746      -5.299
      5646.496       2.609      -5.298
      5646.996       2.511      -5.301
      5647.496       2.490      -5.722
      5647.996       2.483      -5.722
      5648.496       2.515      -5.745
      5648.996       2.796      -6.653
      5649.496       3.257      -6.939
      5649.996       3.957      -7.474
      5650.496       4.522      -8.744
      5650.996       5.086      -9.986
      5651.496       4.852     -10.838
      5651.996       4.593     -12.363
      5652.496       4.333     -16.077
      5652.996       4.073     -18.451
      5653.496       3.814     -20.825
      5653.996       3.554     -23.199
      5654.496       3.295     -25.573
      5654.996       3.079     -27.947
      5655.496       2.838     -30.321
      5655.996       2.639     -32.695
      5656.496       2.373     -35.069
      5656.996       2.276     -37.443
      5657.496       2.067     -41.741
      5657.996       1.946     -51.838
      5658.496       1.850     -52.957
      5658.996       1.786     -54.075
      5659.496       1.605     -55.194
      5659.996       1.378     -56.313
      5660.496       1.260     -57.431
      5660.996       1.203     -58.511
      5661.496       1.140     -59.079
      5661.996       1.011     -59.647
      5662.496       0.830     -60.214
      5662.996       0.758     -60.782
      5663.496       0.654     -61.349
      5663.996       0.585     -61.917
      5664.496       0.565     -62.486
      5664.996       0.563     -62.724
      5665.496       0.563     -62.723
      5665.996       0.790     -62.931
      5666.496       0.852     -63.147
      5666.996       1.007     -63.147
      5667.496       1.097     -63.146
      5667.996       1.138     -60.598
      5668.496       1.155     -59.561
      5668.996       1.212     -58.526
      5669.496       1.460     -57.490
      5669.996       1.176     -56.454
      5670.496       1.022     -55.419
      5670.996       0.931     -54.693
      5671.496       0.813     -54.938
      5671.996       0.747     -55.183
      5672.496       0.691     -55.428
      5672.996       0.635     -55.673
      5673.496       0.579     -55.918
