~Version Information
 VERS.                 2.0: 
 WRAP.                  NO: 
 END.                PETRA:IHS Markit
~Well Information Block
#MNEM.UNIT       Data Type    Information
#---------    -------------   ---------------------------------
 STRT.F           2031.9959:
 STOP.F          10833.9783:
 STEP.F              0.5000:
 NULL.              -999.25:
 COMP.                           : COMPANY
 FLD.       PURT WEST            : FIELD
 LOC.                            : LOCATION
 DATE.      24-JUN-2024          : DATE
 WELL.                           : Well Name
 LABL.      42001313820000                   : Well Label
 APIN.      42001313820000       : API Number
 UWI.       42001313820000       : Unique Well Number
 NUMB.      1                    : Well Number
 OPER.      MARSHALL EXPL CO INC : Operator Name
 LEAS.      BROOKSHIRE           : Lease Name
~Parameter Block
#MNEM.UNIT           VALUE            Description
#---------    --------------------   ---------------------------------
 EKB.F                   626.0 : KB Elevation
~Curve Information Block
#MNEM.UNIT      API CODE      Curve Description
#---------    -------------   ---------------------------------
 DEPT.F                   00 000 00 00: Depth (MD)
 RES.OHM.M                00 001 00 00: Medium Resistivity
 SP.MV                    00 002 00 00: Spontaneous Potential
~A        DEPT         RES          SP
# ...
      7181.996      43.913     -64.551
      7182.496      42.169     -64.451
      7182.996      32.919     -64.350
      7183.496      29.349     -64.249
      7183.996      25.780     -64.148
      7184.496      22.210     -64.048
      7184.996      22.234     -64.152
      7185.496      23.487     -65.334
      7185.996      24.739     -66.516
      7186.496      25.794     -67.697
      7186.996      24.981     -68.879
      7187.496      18.823     -70.061
      7187.996      17.296     -71.243
      7188.496      15.177     -72.424
      7188.996      14.072     -73.606
      7189.496      13.940     -75.546
      7189.996      13.720     -76.482
      7190.496      14.731     -77.374
      7190.996      21.312     -77.375
      7191.496      20.129     -77.376
      7191.996      18.945     -77.378
      7192.496      18.265     -76.772
      7192.996      21.241     -76.773
      7193.496      24.218     -76.775
      7193.996      27.194     -76.776
      7194.496      30.171     -76.777
      7194.996      31.835     -76.778
      7195.496      30.776     -76.779
      7195.996      29.717     -76.780
      7196.496      28.659     -76.781
      7196.996      27.600     -76.782
      7197.496      26.541     -76.784
      7197.996      25.482     -76.785
      7198.496      24.423     -76.786
      7198.996      23.364     -76.787
      7199.496      22.305     -76.472
      7199.996      23.530     -75.946
      7200.496      29.966     -75.571
      7200.996      36.401     -75.528
      7201.496      38.033     -74.225
      7201.996      36.879     -73.817
      7202.496      35.724     -72.492
      7202.996      34.570     -72.083
      7203.496      33.415     -71.425
      7203.996      32.261     -70.604
      7204.496      67.804     -70.099
      7204.996      67.928     -68.963
      7205.496      58.998     -68.881
      7205.996      50.069     -68.273
      7206.496      41.140     -68.274
      7206.996      32.210     -68.275
      7207.496      33.602     -68.276
      7207.996      45.195     -68.277
      7208.496      56.788     -69.047
      7208.996      65.223     -69.862
      7209.496      61.243     -70.392
      7209.996      57.263     -70.717
      7210.496      53.284     -70.906
      7210.996      49.304     -71.315
      7211.496      45.324     -72.332
      7211.996      41.344     -73.308
      7212.496      37.365     -74.351
      7212.996      34.352     -75.166
      7213.496      31.376     -76.357
      7213.996      28.400     -77.718
      7214.496      25.424     -78.568
      7214.996      22.447     -80.056
      7215.496      19.471     -80.463
      7215.996      19.480     -82.044
      7216.496      23.839     -83.295
      7216.996      21.292     -84.107
      7217.496      18.745     -84.315
      7217.996      16.931     -85.132
      7218.496      20.453     -85.358
      7218.996      23.974     -86.155
      7219.496      27.496     -86.968
      7219.996      30.835     -87.486
      7220.496      29.916     -87.799
      7220.996      28.996     -88.201
      7221.496      28.077     -89.015
      7221.996      27.157     -89.021
      7222.496      26.238     -89.022
      7222.996      25.319     -89.024
      7223.496      24.399     -89.025
      7223.996      22.949     -88.858
      7224.496      22.121     -88.537
      7224.996      22.073     -88.216
      7225.496      20.884     -87.895
      7225.996      18.788     -87.574
      7226.496      17.544     -87.254
      7226.996      16.903     -86.933
      7227.496      16.069     -86.612
      7227.996      15.402     -86.291
      7228.496      14.736     -85.970
      7228.996      15.778     -85.650
      7229.496      17.135     -85.329
      7229.996      18.492     -85.008
      7230.496      19.849     -84.687
      7230.996      21.206     -84.366
      7231.496      22.562     -84.046
      7231.996      23.919     -83.725
      7232.496      25.276     -83.404
      7232.996      25.534     -83.083
      7233.496      24.722     -82.763
      7233.996      23.909     -82.442
      7234.496      23.096     -81.845
      7234.996      22.283     -81.135
      7235.496      21.470     -80.424
      7235.996      20.658     -79.713
      7236.496      19.845     -79.003
      7236.996      19.032     -78.292
      7237.496      18.219     -77.582
      7237.996      17.406     -76.871
      7238.496      16.593     -76.161
      7238.996      16.396     -75.450
      7239.496      17.415     -74.740
      7239.996      18.434     -74.441
      7240.496      19.453     -73.758
      7240.996      22.193     -73.227
      7241.496      25.231     -73.228
      7241.996      28.268     -72.518
      7242.496      31.306     -71.697
      7242.996      31.230     -70.792
      7243.496      30.062     -69.577
      7243.996      28.894     -68.624
      7244.496      27.727     -67.241
      7244.996      26.559     -65.759
      7245.496      25.391     -64.707
      7245.996      24.224     -64.708
      7246.496      23.056     -63.493
      7246.996      21.889     -63.494
      7247.496      20.721     -62.885
      7247.996      19.553     -62.886
      7248.496      18.386     -62.888
      7248.996      17.208     -62.889
      7249.496      16.889     -62.890
      7249.996      16.698     -62.891
      7250.496      16.698     -63.323
      7250.996      24.788     -63.867
      7251.496      25.348     -64.337
      7251.996      25.907     -64.703
      7252.496      26.468     -64.386
      7252.996      27.028     -64.069
      7253.496      26.880     -63.752
      7253.996      26.431     -63.434
      7254.496      26.107     -63.117
      7254.996      25.914     -62.800
      7255.496      25.822     -62.482
      7255.996      25.569     -62.165
      7256.496      25.553     -61.848
      7256.996      25.314     -61.531
      7257.496      25.228     -61.213
      7257.996      25.227     -60.896
      7258.496      25.732     -60.579
      7258.996      27.026     -60.409
      7259.496      27.324     -60.312
      7259.996      32.961     -60.215
      7260.496      33.590     -60.118
      7260.996      34.730     -60.021
      7261.496      33.534     -59.924
      7261.996      32.611     -59.827
      7262.496      32.008     -59.729
      7262.996      31.412     -59.632
      7263.496      30.451     -59.535
      7263.996      30.392     -59.438
      7264.496      30.391     -59.341
      7264.996      30.390     -59.244
      7265.496      30.625     -59.146
      7265.996      31.426     -59.049
      7266.496      32.422     -58.952
      7266.996      33.673     -58.855
      7267.496      37.260     -58.758
      7267.996      38.345     -58.666
      7268.496      33.080     -58.668
      7268.996      27.286     -58.669
      7269.496      25.413     -58.607
      7269.996      24.810     -58.061
      7270.496      23.964     -58.062
      7270.996      23.585     -58.063
      7271.496      25.680     -58.065
      7271.996      30.716     -58.066
      7272.496      30.496     -58.067
      7272.996      24.747     -58.068
      7273.496      22.325     -58.069
      7273.996      21.639     -58.070
      7274.496      21.235     -58.071
      7274.996      21.195     -58.073
      7275.496      21.794     -58.074
      7275.996      26.151     -58.415
      7276.496      31.276     -59.230
      7276.996      36.401     -59.953
      7277.496      41.526     -60.226
      7277.996      41.977     -60.500
      7278.496      40.641     -61.275
      7278.996      39.305     -61.737
      7279.496      37.969     -62.298
      7279.996      36.633     -62.349
      7280.496      35.297     -62.717
      7280.996      33.961     -62.961
      7281.496      32.625     -62.962
      7281.996      31.289     -62.612
      7282.496      29.953     -61.864
      7282.996      32.938     -61.115
      7283.496      34.891     -60.366
      7283.996      36.489     -59.617
      7284.496      36.739     -58.868
