~Version Information
 VERS.                 2.0: 
 WRAP.                  NO: 
 END.                PETRA:IHS Markit
~Well Information Block
#MNEM.UNIT       Data Type    Information
#---------    -------------   ---------------------------------
 STRT.F           2031.9959:
 STOP.F          10833.9783:
 STEP.F              0.5000:
 NULL.              -999.25:
 COMP.                           : COMPANY
 FLD.       PURT WEST            : FIELD
 LOC.                            : LOCATION
 DATE.      24-JUN-2024          : DATE
 WELL.                           : Well Name
 LABL.      42001313820000                   : Well Label
 APIN.      42001313820000       : API Number
 UWI.       42001313820000       : Unique Well Number
 NUMB.      1                    : Well Number
 OPER.      MARSHALL EXPL CO INC : Operator Name
 LEAS.      BROOKSHIRE           : Lease Name
~Parameter Block
#MNEM.UNIT           VALUE            Description
#---------    --------------------   ---------------------------------
 EKB.F                   626.0 : KB Elevation
~Curve Information Block
#MNEM.UNIT      API CODE      Curve Description
#---------    -------------   ---------------------------------
 DEPT.F                   00 000 00 00: Depth (MD)
 RES.OHM.M                00 001 00 00: Medium Resistivity
 SP.MV                    00 002 00 00: Spontaneous Potential
~A        DEPT         RES          SP
# ...
      3782.996       3.050     -22.944
      3783.496       3.043     -23.364
      3783.996       3.035     -24.173
      3784.496       3.027     -24.583
      3784.996       3.019     -25.194
      3785.496       3.011     -25.195
      3785.996       3.002     -25.196
      3786.496       2.994     -25.197
      3786.996       2.986     -25.198
      3787.496       2.978     -24.734
      3787.996       2.970     -23.868
      3788.496       3.014     -23.002
      3788.996       3.061     -22.135
      3789.496       3.108     -21.269
      3789.996       3.155     -20.403
      3790.496       3.203     -19.536
      3790.996       3.250     -18.670
      3791.496       3.297     -17.803
      3791.996       3.303     -16.937
      3792.496       3.303     -16.071
      3792.996       3.300     -15.204
      3793.496       3.238     -14.338
      3793.996       3.160     -13.769
      3794.496       3.078     -14.422
      3794.996       3.048     -15.074
      3795.496       3.048     -15.727
      3795.996       3.048     -16.379
      3796.496       3.048     -17.032
      3796.996       3.096     -17.684
      3797.496       3.125     -18.337
      3797.996       3.180     -18.989
      3798.496       3.215     -19.641
      3798.996       3.258     -20.294
      3799.496       3.258     -20.946
      3799.996       3.096     -21.572
      3800.496       3.007     -22.183
      3800.996       3.007     -22.184
      3801.496       3.007     -21.960
      3801.996       3.007     -21.036
      3802.496       3.007     -20.113
      3802.996       3.007     -19.189
      3803.496       3.007     -18.266
      3803.996       3.007     -17.342
      3804.496       3.027     -16.752
      3804.996       3.047     -16.882
      3805.496       3.046     -17.012
      3805.996       3.046     -17.142
      3806.496       3.046     -17.272
      3806.996       3.046     -17.402
      3807.496       3.046     -17.532
      3807.996       2.998     -17.662
      3808.496       2.970     -17.792
      3808.996       2.842     -17.922
      3809.496       2.716     -18.052
      3809.996       2.666     -18.182
      3810.496       2.631     -18.312
      3810.996       2.630     -18.442
      3811.496       2.766     -18.553
      3811.996       2.953     -18.554
      3812.496       3.128     -18.555
      3812.996       3.151     -18.417
      3813.496       3.170     -17.771
      3813.996       3.154     -17.362
      3814.496       3.034     -15.514
      3814.996       2.878     -15.133
      3815.496       2.799     -14.907
      3815.996       2.667     -14.908
      3816.496       2.630     -14.909
      3816.996       2.630     -14.910
      3817.496       2.636     -14.911
      3817.996       2.686     -14.912
      3818.496       2.738     -14.927
      3818.996       2.790     -15.743
      3819.496       2.843     -16.978
      3819.996       2.886     -17.970
      3820.496       2.860     -18.379
      3820.996       2.736     -19.427
      3821.496       2.718     -20.405
      3821.996       2.700     -20.632
      3822.496       2.810     -21.014
      3822.996       2.810     -21.015
      3823.496       2.816     -21.257
      3823.996       2.847     -21.627
      3824.496       2.885     -21.628
      3824.996       2.885     -21.629
      3825.496       2.885     -21.630
      3825.996       2.885     -21.631
      3826.496       2.885     -21.632
      3826.996       2.806     -21.634
      3827.496       2.735     -21.635
      3827.996       2.663     -21.026
      3828.496       2.619     -21.027
      3828.996       2.570     -21.028
      3829.496       2.525     -21.029
      3829.996       2.575     -20.515
      3830.496       2.596     -19.816
      3830.996       2.616     -19.817
      3831.496       2.637     -19.818
      3831.996       2.657     -19.819
      3832.496       2.678     -19.820
      3832.996       2.698     -19.821
      3833.496       2.719     -19.822
      3833.996       2.739     -19.823
      3834.496       2.760     -19.825
      3834.996       2.823     -19.826
      3835.496       2.939     -19.827
      3835.996       3.054     -20.438
      3836.496       3.170     -21.226
      3836.996       3.286     -22.040
      3837.496       3.982     -22.854
      3837.996       3.732     -23.668
      3838.496       3.483     -24.482
      3838.996       3.235     -23.852
      3839.496       2.986     -22.676
      3839.996       2.736     -21.500
      3840.496       2.487     -20.324
      3840.996       2.179     -19.148
      3841.496       2.179     -18.168
      3841.996       2.473     -17.402
      3842.496       2.627     -21.781
      3842.996       2.768     -23.985
      3843.496       2.963     -26.022
      3843.996       3.304     -28.102
      3844.496       3.547     -29.321
      3844.996       3.614     -30.833
      3845.496       3.762     -31.647
      3845.996       3.804     -32.033
      3846.496       3.864     -30.742
      3846.996       3.864     -28.829
      3847.496       2.636     -26.236
      3847.996       2.511     -25.691
      3848.496       2.442     -25.048
      3848.996       2.423     -24.224
      3849.496       2.423     -22.238
      3849.996       2.423     -21.829
      3850.496       2.423     -18.768
      3850.996       2.423     -18.033
      3851.496       2.423     -17.061
      3851.996       2.423     -16.819
      3852.496       2.423     -16.210
      3852.996       2.466     -16.594
      3853.496       2.521     -17.407
      3853.996       2.609     -18.401
      3854.496       2.784     -19.644
      3854.996       2.886     -20.460
      3855.496       3.038     -21.272
      3855.996       3.136     -21.699
      3856.496       3.188     -21.700
      3856.996       3.132     -22.311
      3857.496       3.077     -22.312
      3857.996       3.021     -22.314
      3858.496       2.966     -21.889
      3858.996       2.910     -20.670
      3859.496       2.855     -20.171
      3859.996       2.799     -19.029
      3860.496       2.744     -17.749
      3860.996       2.688     -16.229
      3861.496       2.633     -15.954
      3861.996       2.577     -15.134
      3862.496       2.522     -14.403
      3862.996       2.466     -13.798
      3863.496       2.421     -13.799
      3863.996       2.409     -13.800
      3864.496       2.376     -13.801
      3864.996       2.342     -13.802
      3865.496       2.410     -15.080
      3865.996       2.574     -15.489
      3866.496       2.738     -16.242
      3866.996       2.901     -16.243
      3867.496       3.065     -16.915
      3867.996       3.229     -17.461
      3868.496       3.393     -17.741
      3868.996       3.469     -18.683
      3869.496       3.196     -18.684
      3869.996       3.137     -18.685
      3870.496       3.040     -18.686
      3870.996       2.981     -18.688
      3871.496       2.878     -18.104
      3871.996       2.878     -17.489
      3872.496       2.878     -16.875
      3872.996       2.878     -16.261
      3873.496       2.862     -15.646
      3873.996       2.795     -15.032
      3874.496       2.722     -14.418
      3874.996       2.683     -13.804
      3875.496       2.643     -13.230
      3875.996       2.604     -13.537
      3876.496       2.564     -13.844
      3876.996       2.525     -14.152
      3877.496       2.485     -14.459
      3877.996       2.446     -14.766
      3878.496       2.482     -15.073
      3878.996       2.674     -15.380
      3879.496       2.865     -15.688
      3879.996       3.057     -15.995
      3880.496       3.249     -16.302
      3880.996       3.441     -16.609
      3881.496       3.633     -16.885
      3881.996       3.704     -16.887
      3882.496       3.591     -16.888
      3882.996       3.484     -16.889
      3883.496       3.359     -16.581
      3883.996       3.229     -15.760
      3884.496       3.095     -14.197
      3884.996       3.037     -12.893
      3885.496       2.981     -12.072
