~Version Information
 VERS.                 2.0: 
 WRAP.                  NO: 
 END.                PETRA:IHS Markit
~Well Information Block
#MNEM.UNIT       Data Type    Information
#---------    -------------   ---------------------------------
 STRT.F           1965.9961:
 STOP.F          11003.9780:
 STEP.F              0.5000:
 NULL.              -999.25:
 COMP.                           : COMPANY
 FLD.       WILDCAT              : FIELD
 LOC.                            : LOCATION
 DATE.      24-JUN-2024          : DATE
 WELL.                           : Well Name
 LABL.      42001312650000                   : Well Label
 APIN.      42001312650000       : API Number
 UWI.       42001312650000       : Unique Well Number
 NUMB.      1                    : Well Number
 OPER.      MAY PETROLEUM INC    : Operator Name
 LEAS.      COOK R R             : Lease Name
~Parameter Block
#MNEM.UNIT           VALUE            Description
#---------    --------------------   ---------------------------------
 EKB.F                   595.0 : KB Elevation
~Curve Information Block
#MNEM.UNIT      API CODE      Curve Description
#---------    -------------   ---------------------------------
 DEPT.F                   00 000 00 00: Depth (MD)
 RES.OHM.M                00 001 00 00: Medium Resistivity
 SP.MV                    00 002 00 00: Spontaneous Potential
~A        DEPT         RES          SP
# ...
      9175.996      30.235     -39.972
      9176.496      26.904     -39.866
      9176.996      23.573     -39.761
      9177.496      20.242     -39.655
      9177.996      16.911     -39.550
      9178.496      13.580     -39.444
      9178.996      10.249     -39.339
      9179.496       7.252     -39.324
      9179.996       8.581     -39.826
      9180.496       9.911     -40.328
      9180.996      11.240     -40.830
      9181.496      12.569     -41.331
      9181.996      13.899     -41.833
      9182.496      15.228     -42.335
      9182.996      16.557     -42.837
      9183.496      14.764     -43.338
      9183.996      11.477     -43.840
      9184.496       8.190     -44.342
      9184.996       4.902     -44.844
      9185.496       3.156     -45.345
      9185.996       2.758     -45.626
      9186.496       2.359     -45.626
      9186.996       1.960     -45.625
      9187.496       1.562     -45.625
      9187.996       1.163     -45.619
      9188.496       0.780     -45.033
      9188.996       0.774     -44.446
      9189.496       0.768     -43.861
      9189.996       0.762     -43.387
      9190.496       0.756     -43.096
      9190.996      10.195     -42.643
      9191.496       8.770     -42.218
      9191.996       7.344     -42.217
      9192.496       5.919     -42.352
      9192.996       4.494     -42.641
      9193.496       3.069     -43.280
      9193.996       1.644     -43.492
      9194.496       1.190     -43.492
      9194.996       1.380     -43.492
      9195.496       1.569     -43.491
      9195.996       1.782     -43.491
      9196.496       2.070     -43.490
      9196.996       2.358     -43.490
      9197.496       2.647     -43.489
      9197.996       2.646     -43.022
      9198.496       1.902     -42.729
      9198.996       1.158     -42.636
      9199.496       1.094     -42.270
      9199.996       1.327     -41.882
      9200.496       1.561     -41.353
      9200.996       1.794     -41.061
      9201.496       2.027     -40.932
      9201.996       6.995     -40.694
      9202.496       6.066     -40.506
      9202.996       5.138     -40.506
      9203.496       4.210     -40.505
      9203.996       3.282     -40.505
      9204.496       2.354     -40.504
      9204.996       1.426     -40.504
      9205.496       0.802     -40.504
      9205.996       0.788     -40.503
      9206.496       0.773     -40.503
      9206.996       0.759     -40.502
      9207.496       0.744     -40.502
      9207.996       0.730     -40.501
      9208.496       0.715     -40.501
      9208.996       0.701     -40.925
      9209.496       0.780     -40.925
      9209.996       1.462     -40.925
      9210.496       3.472     -40.924
      9210.996       9.056     -41.132
      9211.496      14.641     -41.350
      9211.996      20.225     -41.350
      9212.496      19.799     -41.349
      9212.996      15.454     -41.349
      9213.496      11.110     -41.349
      9213.996       6.766     -41.348
      9214.496       3.410     -41.348
      9214.996       1.561     -41.347
      9215.496       1.397     -41.347
      9215.996       1.234     -41.346
      9216.496       1.141     -41.346
      9216.996       1.106     -41.346
      9217.496       1.198     -41.345
      9217.996       1.332     -41.345
      9218.496       2.667     -41.230
      9218.996       2.981     -41.035
      9219.496       3.295     -40.803
      9219.996       3.608     -40.513
      9220.496       3.922     -40.490
      9220.996       4.687     -40.474
      9221.496       5.860     -40.437
      9221.996      18.785     -40.401
      9222.496      32.507     -40.365
      9222.996      46.228     -40.328
      9223.496      47.527     -40.292
      9223.996      35.815     -40.255
      9224.496      24.104     -40.219
      9224.996      12.392     -40.182
      9225.496       3.780     -40.146
      9225.996       4.313     -40.109
      9226.496       4.846     -40.073
      9226.996       5.379     -40.037
      9227.496       5.912     -40.000
      9227.996       6.445     -39.964
      9228.496       6.978     -39.927
      9228.996       8.046     -39.891
      9229.496       8.749     -39.854
      9229.996      10.752     -39.818
      9230.496      16.979     -39.782
      9230.996      17.889     -39.745
      9231.496      15.184     -39.709
      9231.996      12.479     -39.672
      9232.496       9.773     -39.636
      9232.996       7.068     -39.565
      9233.496       4.362     -39.487
      9233.996       3.421     -39.409
      9234.496       3.437     -39.332
      9234.996       3.453     -39.254
      9235.496       3.468     -39.177
      9235.996       3.484     -39.099
      9236.496       4.073     -39.022
      9236.996       5.342     -38.944
      9237.496       6.610     -38.866
      9237.996       8.506     -38.789
      9238.496      10.893     -38.773
      9238.996      13.280     -38.773
      9239.496      15.667     -38.792
      9239.996      18.054     -38.825
      9240.496      20.441     -38.859
      9240.996      22.828     -38.892
      9241.496      25.215     -38.926
      9241.996      18.295     -38.959
      9242.496       9.371     -38.993
      9242.996       5.947     -39.026
      9243.496       7.478     -39.060
      9243.996       9.010     -39.093
      9244.496      10.541     -39.127
      9244.996      17.554     -39.160
      9245.496      26.990     -39.194
      9245.996      23.911     -39.227
      9246.496      20.832     -39.261
      9246.996      17.753     -39.294
      9247.496      14.675     -39.328
      9247.996      11.596     -39.361
      9248.496       8.517     -39.395
      9248.996       5.438     -39.428
      9249.496       3.528     -39.462
      9249.996       3.244     -39.495
      9250.496       2.959     -39.529
      9250.996       2.674     -39.562
      9251.496       2.390     -39.596
      9251.996       2.721     -39.687
      9252.496       3.179     -39.845
      9252.996       3.636     -40.003
      9253.496       4.093     -40.161
      9253.996       4.551     -40.319
      9254.496       4.972     -40.477
      9254.996       5.244     -40.635
      9255.496       5.515     -40.793
      9255.996       5.787     -40.951
      9256.496       6.058     -41.109
      9256.996       8.154     -41.267
      9257.496      12.542     -41.425
      9257.996      16.931     -41.583
      9258.496      21.319     -41.740
      9258.996      25.707     -41.898
      9259.496      23.704     -42.056
      9259.996      20.845     -42.214
      9260.496      17.986     -42.372
      9260.996      15.126     -42.530
      9261.496      12.267     -42.688
      9261.996       9.408     -42.846
      9262.496       6.549     -43.004
      9262.996       3.689     -43.497
      9263.496       4.091     -43.782
      9263.996      15.078     -44.275
      9264.496      26.065     -44.281
      9264.996      37.051     -44.281
      9265.496      40.538     -44.280
      9265.996      30.306     -44.280
      9266.496      20.075     -44.279
      9266.996       9.844     -44.279
      9267.496       1.556     -43.870
      9267.996       3.098     -43.428
      9268.496       4.639     -43.003
      9268.996       4.252     -43.002
      9269.496       3.774     -43.002
      9269.996       3.296     -43.540
      9270.496       2.817     -44.106
      9270.996       2.339     -45.439
      9271.496       1.861     -45.552
      9271.996       1.383     -45.551
      9272.496       2.121     -45.551
      9272.996       5.109     -45.551
      9273.496       4.167     -45.550
      9273.996       3.225     -45.550
      9274.496       2.284     -45.381
      9274.996       1.342     -44.797
      9275.496       1.319     -43.812
      9275.996       1.699     -43.522
      9276.496       4.370     -43.040
      9276.996       2.899     -42.568
      9277.496       3.485     -42.568
      9277.996       4.071     -42.567
      9278.496       4.657     -42.423
