~Version Information
 VERS.                 2.0: 
 WRAP.                  NO: 
 END.                PETRA:IHS Markit
~Well Information Block
#MNEM.UNIT       Data Type    Information
#---------    -------------   ---------------------------------
 STRT.F           2232.9955:
 STOP.F          11856.9763:
 STEP.F              0.5000:
 NULL.              -999.25:
 COMP.                           : COMPANY
 FLD.       PLUM JELLY           : FIELD
 LOC.                            : LOCATION
 DATE.      24-JUN-2024          : DATE
 WELL.                           : Well Name
 LABL.      42001313930000                   : Well Label
 APIN.      42001313930000       : API Number
 UWI.       42001313930000       : Unique Well Number
 NUMB.      1                    : Well Number
 OPER.      BOIS D ARC INC       : Operator Name
 LEAS.      SACK TRUST GAS UNIT  : Lease Name
~Parameter Block
#MNEM.UNIT           VALUE            Description
#---------    --------------------   ---------------------------------
 EKB.F                   496.0 : KB Elevation
~Curve Information Block
#MNEM.UNIT      API CODE      Curve Description
#---------    -------------   ---------------------------------
 DEPT.F                   00 000 00 00: Depth (MD)
 RES.OHM.M                00 001 00 00: Medium Resistivity
 SP.MV                    00 002 00 00: Spontaneous Potential
~A        DEPT         RES          SP
# ...
      7279.996      27.480     -52.445
      7280.496      65.383     -52.848
      7280.996     182.209     -53.251
      7281.496     299.035     -53.654
      7281.996     415.861     -54.057
      7282.496     532.687     -54.461
      7282.996     649.513     -54.864
      7283.496     766.339     -55.284
      7283.996     883.165     -55.718
      7284.496     999.991     -56.153
      7284.996    1116.817     -56.587
      7285.496     996.881     -57.020
      7285.996     862.265     -57.455
      7286.496     727.649     -57.889
      7286.996     593.034     -58.323
      7287.496     458.418     -58.885
      7287.996     323.802     -59.920
      7288.496     189.186     -60.955
      7288.996      54.571     -61.990
      7289.496      18.388     -63.026
      7289.996      17.827     -64.061
      7290.496      17.266     -65.096
      7290.996      16.705     -66.131
      7291.496      16.144     -67.166
      7291.996      15.583     -68.201
      7292.496      15.022     -69.236
      7292.996      14.461     -70.272
      7293.496      14.782     -71.307
      7293.996      15.151     -71.953
      7294.496      15.519     -70.854
      7294.996      15.887     -69.755
      7295.496      16.256     -68.657
      7295.996      16.624     -67.558
      7296.496      16.993     -66.460
      7296.996      17.361     -65.361
      7297.496      17.730     -64.263
      7297.996      18.098     -63.164
      7298.496      18.467     -62.066
      7298.996      19.959     -60.967
      7299.496      22.015     -59.869
      7299.996      24.072     -58.770
      7300.496      26.128     -57.672
      7300.996      28.184     -56.573
      7301.496      30.241     -55.475
      7301.996      32.297     -54.445
      7302.496      32.277     -54.270
      7302.996      29.143     -54.096
      7303.496      26.009     -53.922
      7303.996      22.875     -53.747
      7304.496      19.741     -53.572
      7304.996      16.607     -53.398
      7305.496      16.886     -53.224
      7305.996      36.907     -53.049
      7306.496      56.928     -52.874
      7306.996      76.949     -52.700
      7307.496      96.971     -52.526
      7307.996      94.958     -52.377
      7308.496      81.165     -52.752
      7308.996      67.371     -53.126
      7309.496      53.578     -53.501
      7309.996      39.785     -53.875
      7310.496      25.991     -54.250
      7310.996      19.543     -54.624
      7311.496      18.734     -54.999
      7311.996      17.925     -55.373
      7312.496      17.116     -55.748
      7312.996      16.307     -56.122
      7313.496      15.498     -56.497
      7313.996      14.689     -56.871
      7314.496      13.880     -57.246
      7314.996      13.071     -57.621
      7315.496      12.262     -57.995
      7315.996      11.783     -58.370
      7316.496      16.196     -58.744
      7316.996      20.609     -59.079
      7317.496      25.022     -59.014
      7317.996      29.436     -58.949
      7318.496      33.849     -58.885
      7318.996      38.262     -58.820
      7319.496      41.174     -58.755
      7319.996      38.822     -58.691
      7320.496      36.470     -58.626
      7320.996      34.118     -58.561
      7321.496      31.766     -58.161
      7321.996      29.413     -57.698
      7322.496      27.061     -57.234
      7322.996      24.709     -56.771
      7323.496      22.357     -56.307
      7323.996      20.005     -55.843
      7324.496      17.653     -55.380
      7324.996      15.301     -54.916
      7325.496      13.541     -54.453
      7325.996      18.374     -53.989
      7326.496      23.207     -53.526
      7326.996      28.040     -53.062
      7327.496      31.270     -52.599
      7327.996      27.026     -52.135
      7328.496      26.673     -51.672
      7328.996      27.407     -51.208
      7329.496      28.142     -50.745
      7329.996      27.012     -50.281
      7330.496      24.903     -49.817
      7330.996      22.794     -49.354
      7331.496      20.685     -48.890
      7331.996      18.576     -48.842
      7332.496      16.467     -49.272
      7332.996      18.077     -49.701
      7333.496      22.477     -50.131
      7333.996      26.876     -50.561
      7334.496      31.276     -50.991
      7334.996      35.675     -51.421
      7335.496      33.414     -51.851
      7335.996      31.110     -52.281
      7336.496      28.806     -52.711
      7336.996      26.501     -53.007
      7337.496      24.197     -53.276
      7337.996      21.893     -53.545
      7338.496      19.589     -53.814
      7338.996      17.284     -54.083
      7339.496      14.980     -54.356
      7339.996      12.676     -54.679
      7340.496      14.800     -55.002
      7340.996      17.952     -55.325
      7341.496      21.104     -55.648
      7341.996      24.257     -55.971
      7342.496      22.352     -56.294
      7342.996      19.149     -56.617
      7343.496      15.947     -56.939
      7343.996      12.745     -57.262
      7344.496      12.594     -57.585
      7344.996      15.580     -57.908
      7345.496      18.566     -58.231
      7345.996      18.985     -58.554
      7346.496      18.085     -58.876
      7346.996      17.184     -59.199
      7347.496      16.283     -59.522
      7347.996      15.383     -59.845
      7348.496      15.981     -60.168
      7348.996      18.745     -60.491
      7349.496      21.509     -60.423
      7349.996      22.459     -60.292
      7350.496      21.564     -60.161
      7350.996      20.668     -60.030
      7351.496      19.773     -59.898
      7351.996      18.877     -59.767
      7352.496      18.929     -59.636
      7352.996      21.497     -59.505
      7353.496      24.066     -59.374
      7353.996      25.322     -59.243
      7354.496      23.645     -59.111
      7354.996      21.969     -58.980
      7355.496      20.293     -59.096
      7355.996      18.616     -59.266
      7356.496      16.940     -59.435
      7356.996      15.264     -59.605
      7357.496      13.587     -59.775
      7357.996      11.911     -59.945
      7358.496      12.920     -60.114
      7358.996      16.246     -60.284
      7359.496      19.572     -60.454
      7359.996      22.897     -60.624
      7360.496      23.382     -60.794
      7360.996      21.680     -60.963
      7361.496      19.978     -60.954
      7361.996      18.276     -60.866
      7362.496      16.574     -60.778
      7362.996      14.872     -60.690
      7363.496      13.170     -60.602
      7363.996      15.206     -60.514
      7364.496      18.044     -60.426
      7364.996      19.069     -60.339
      7365.496      18.491     -60.251
      7365.996      17.913     -60.163
      7366.496      17.334     -60.075
      7366.996      16.756     -59.987
      7367.496      16.178     -58.898
      7367.996      15.600     -58.354
      7368.496      15.022     -57.811
      7368.996      17.606     -57.268
      7369.496      21.271     -56.725
      7369.996      24.937     -56.182
      7370.496      26.800     -55.639
      7370.996      24.587     -55.096
      7371.496      22.373     -54.553
      7371.996      20.159     -54.010
      7372.496      17.946     -53.467
      7372.996      17.256     -52.923
      7373.496      17.734     -52.380
      7373.996      18.212     -51.837
      7374.496      17.992     -51.294
      7374.996      16.884     -50.751
      7375.496      15.775     -50.208
      7375.996      14.667     -50.328
      7376.496      13.559     -50.710
      7376.996      12.451     -51.092
      7377.496      15.362     -51.474
      7377.996      23.161     -51.856
      7378.496      30.959     -52.238
      7378.996      35.122     -52.620
      7379.496      31.552     -53.002
      7379.996      27.983     -53.384
      7380.496      24.413     -53.766
      7380.996      20.843     -54.148
      7381.496      17.274     -54.530
      7381.996      23.130     -54.526
      7382.496      32.065     -54.177
