~Version Information
 VERS.                 2.0: 
 WRAP.                  NO: 
 END.                PETRA:IHS Markit
~Well Information Block
#MNEM.UNIT       Data Type    Information
#---------    -------------   ---------------------------------
 STRT.F           1965.9961:
 STOP.F          11003.9780:
 STEP.F              0.5000:
 NULL.              -999.25:
 COMP.                           : COMPANY
 FLD.       WILDCAT              : FIELD
 LOC.                            : LOCATION
 DATE.      24-JUN-2024          : DATE
 WELL.                           : Well Name
 LABL.      42001312650000                   : Well Label
 APIN.      42001312650000       : API Number
 UWI.       42001312650000       : Unique Well Number
 NUMB.      1                    : Well Number
 OPER.      MAY PETROLEUM INC    : Operator Name
 LEAS.      COOK R R             : Lease Name
~Parameter Block
#MNEM.UNIT           VALUE            Description
#---------    --------------------   ---------------------------------
 EKB.F                   595.0 : KB Elevation
~Curve Information Block
#MNEM.UNIT      API CODE      Curve Description
#---------    -------------   ---------------------------------
 DEPT.F                   00 000 00 00: Depth (MD)
 RES.OHM.M                00 001 00 00: Medium Resistivity
 SP.MV                    00 002 00 00: Spontaneous Potential
~A        DEPT         RES          SP
# ...
     10308.996       7.099     -10.751
     10309.496       6.846     -10.673
     10309.996       5.671     -10.613
     10310.496       3.609     -10.613
     10310.996       3.268     -10.612
     10311.496       3.094     -10.612
     10311.996       2.866     -10.611
     10312.496       2.639     -10.839
     10312.996       2.527     -11.546
     10313.496       2.546     -11.833
     10313.996       2.564     -12.540
     10314.496       2.583     -12.915
     10314.996       2.602     -13.484
     10315.496       2.620     -13.587
     10315.996       4.116     -13.684
     10316.496       4.441     -13.970
     10316.996       4.921     -14.465
     10317.496       4.606     -14.751
     10317.996       4.200     -15.037
     10318.496       3.874     -15.359
     10318.996       3.574     -15.711
     10319.496       3.270     -16.076
     10319.996       3.005     -16.135
     10320.496       2.809     -16.134
     10320.996       2.643     -16.941
     10321.496       2.507     -16.986
     10321.996       2.393     -17.481
     10322.496       2.297     -17.835
     10322.996       2.230     -17.951
     10323.496       2.275     -18.259
     10323.996       2.617     -18.668
     10324.496      12.891     -19.595
     10324.996      23.922     -19.881
     10325.496      34.953     -20.789
     10325.996      45.985     -22.813
     10326.496      57.016     -24.893
     10326.996      57.779     -27.577
     10327.496      50.227     -30.261
     10327.996      42.674     -32.945
     10328.496      35.122     -35.628
     10328.996      27.570     -38.312
     10329.496      20.018     -40.996
     10329.996      12.465     -43.679
     10330.496      11.151     -46.363
     10330.996      10.230     -49.047
     10331.496       9.308     -51.730
     10331.996       8.387     -54.414
     10332.496       7.801     -57.098
     10332.996      12.037     -59.781
     10333.496       9.908     -62.354
     10333.996       7.778     -64.272
     10334.496       5.649     -66.190
     10334.996       8.035     -68.068
     10335.496      11.511     -69.006
     10335.996      14.987     -69.944
     10336.496      18.463     -70.882
     10336.996      21.939     -71.820
     10337.496      21.090     -72.850
     10337.996      18.035     -73.320
     10338.496      14.981     -74.125
     10338.996      11.926     -74.410
     10339.496       8.871     -74.839
     10339.996       5.817     -75.261
     10340.496       5.038     -75.410
     10340.996       5.077     -75.685
     10341.496       5.116     -75.685
     10341.996       5.155     -76.001
     10342.496       5.194     -76.109
     10342.996       5.233     -76.108
     10343.496       5.272     -76.108
     10343.996       5.219     -76.175
     10344.496       5.051     -76.532
     10344.996       5.010     -76.531
     10345.496       5.010     -76.531
     10345.996       5.010     -76.531
     10346.496       5.010     -76.530
     10346.996       5.010     -76.530
     10347.496       5.129     -76.529
     10347.996       7.384     -76.558
     10348.496       9.339     -76.598
     10348.996      11.295     -76.638
     10349.496      12.335     -76.677
     10349.996      13.267     -76.717
     10350.496      14.198     -76.757
     10350.996      15.130     -76.797
     10351.496      16.061     -76.836
     10351.996      16.992     -76.876
     10352.496      20.885     -76.916
     10352.996      28.756     -76.956
     10353.496      36.627     -76.995
     10353.996      21.459     -77.035
     10354.496      10.503     -77.075
     10354.996       9.619     -77.115
     10355.496       8.736     -77.154
     10355.996       7.852     -77.194
     10356.496       6.969     -77.234
     10356.996       6.085     -77.274
     10357.496       5.202     -77.313
     10357.996       4.318     -77.353
     10358.496       3.621     -77.393
     10358.996       3.248     -77.433
     10359.496       2.875     -77.472
     10359.996       2.502     -77.512
     10360.496       2.129     -77.552
     10360.996       1.756     -77.592
     10361.496       1.468     -77.632
     10361.996       1.484     -77.671
     10362.496       1.499     -77.711
     10362.996       1.514     -77.751
     10363.496       1.529     -77.790
     10363.996       1.544     -77.638
     10364.496       2.234     -77.477
     10364.996       3.383     -77.316
     10365.496       4.727     -77.155
     10365.996       6.646     -76.993
     10366.496       9.878     -76.832
     10366.996      13.109     -76.671
     10367.496      16.340     -76.510
     10367.996      16.692     -76.349
     10368.496      16.079     -76.188
     10368.996      15.467     -76.027
     10369.496      14.855     -75.865
     10369.996      14.243     -75.704
     10370.496      13.631     -75.659
     10370.996      12.540     -75.659
     10371.496      11.694     -75.659
     10371.996      11.088     -75.658
     10372.496       9.793     -75.658
     10372.996       9.545     -75.657
     10373.496      10.144     -75.703
     10373.996      10.303     -76.269
     10374.496      10.206     -76.617
     10374.996       5.752     -76.809
     10375.496       5.253     -77.135
     10375.996       4.851     -77.588
     10376.496       4.448     -77.968
     10376.996       4.045     -78.348
     10377.496       3.643     -78.728
     10377.996       3.240     -79.083
     10378.496       2.916     -79.273
     10378.996       2.735     -79.464
     10379.496       2.555     -79.998
     10379.996       2.375     -80.332
     10380.496       2.283     -80.714
     10380.996       2.283     -81.280
     10381.496       2.283     -81.848
     10381.996       2.283     -82.417
     10382.496       2.260     -82.722
     10382.996       2.124     -83.306
     10383.496       2.030     -83.305
     10383.996       1.953     -83.732
     10384.496       1.869     -83.732
     10384.996       1.777     -83.731
     10385.496       1.711     -83.731
     10385.996       1.671     -83.731
     10386.496       1.626     -83.730
     10386.996       1.579     -83.730
     10387.496       1.536     -83.729
     10387.996       1.502     -83.729
     10388.496       1.469     -83.728
     10388.996       1.418     -83.728
     10389.496       1.362     -83.728
     10389.996       1.310     -83.727
     10390.496       1.286     -83.727
     10390.996       1.284     -83.726
     10391.496       1.284     -83.726
     10391.996       1.284     -83.311
     10392.496       1.284     -83.014
     10392.996       1.284     -82.872
     10393.496       1.298     -82.647
     10393.996       1.338     -82.265
     10394.496       1.377     -82.021
     10394.996       1.417     -82.021
     10395.496       1.457     -82.020
     10395.996       1.497     -82.020
     10396.496       1.537     -82.019
     10396.996       1.577     -82.019
     10397.496       1.617     -82.019
     10397.996       1.598     -82.018
     10398.496       1.575     -82.018
     10398.996       1.551     -82.017
     10399.496       1.528     -82.017
     10399.996       1.504     -82.016
     10400.496       1.480     -82.016
     10400.996       1.457     -82.016
     10401.496       1.433     -82.015
     10401.996       1.409     -82.015
     10402.496       1.386     -82.014
     10402.996       1.362     -82.014
     10403.496       1.339     -82.013
     10403.996       1.315     -82.013
     10404.496       1.308     -82.013
     10404.996       1.342     -82.012
     10405.496       1.376     -82.012
     10405.996       1.410     -82.011
     10406.496       1.444     -82.011
     10406.996       1.478     -82.010
     10407.496       1.512     -82.010
     10407.996       1.545     -82.010
     10408.496       1.579     -82.009
     10408.996       1.608     -82.009
     10409.496       1.636     -82.189
     10409.996       1.663     -82.433
     10410.496       1.691     -82.432
     10410.996       1.718     -82.432
     10411.496       1.746     -82.431
