~Version Information
 VERS.                 2.0: 
 WRAP.                  NO: 
 END.                PETRA:IHS Markit
~Well Information Block
#MNEM.UNIT       Data Type    Information
#---------    -------------   ---------------------------------
 STRT.F           2232.9955:
 STOP.F          11856.9763:
 STEP.F              0.5000:
 NULL.              -999.25:
 COMP.                           : COMPANY
 FLD.       PLUM JELLY           : FIELD
 LOC.                            : LOCATION
 DATE.      24-JUN-2024          : DATE
 WELL.                           : Well Name
 LABL.      42001313930000                   : Well Label
 APIN.      42001313930000       : API Number
 UWI.       42001313930000       : Unique Well Number
 NUMB.      1                    : Well Number
 OPER.      BOIS D ARC INC       : Operator Name
 LEAS.      SACK TRUST GAS UNIT  : Lease Name
~Parameter Block
#MNEM.UNIT           VALUE            Description
#---------    --------------------   ---------------------------------
 EKB.F                   496.0 : KB Elevation
~Curve Information Block
#MNEM.UNIT      API CODE      Curve Description
#---------    -------------   ---------------------------------
 DEPT.F                   00 000 00 00: Depth (MD)
 RES.OHM.M                00 001 00 00: Medium Resistivity
 SP.MV                    00 002 00 00: Spontaneous Potential
~A        DEPT         RES          SP
      2232.996       1.544     -999.25
      2233.496       1.487     -999.25
      2233.996       1.430     -999.25
      2234.496       1.373     -999.25
      2234.996       1.316     -999.25
      2235.496       1.259     -999.25
      2235.996       1.306     -999.25
      2236.496       1.494     -999.25
      2236.996       1.681     -999.25
      2237.496       1.869     -999.25
      2237.996       1.832     -999.25
      2238.496       1.765     -999.25
      2238.996       1.697     -999.25
      2239.496       1.630     -999.25
      2239.996       1.562     -999.25
      2240.496       1.495     -999.25
      2240.996       1.427     -999.25
      2241.496       1.360     -999.25
      2241.996       1.317     -999.25
      2242.496       1.312     -21.048
      2242.996       1.306     -21.024
      2243.496       1.301     -21.000
      2243.996       1.296     -20.976
      2244.496       1.290     -20.952
      2244.996       1.285     -20.928
      2245.496       1.280     -20.904
      2245.996       1.274     -20.880
      2246.496       1.269     -20.856
      2246.996       1.264     -20.831
      2247.496       1.259     -20.807
      2247.996       1.253     -20.783
      2248.496       1.248     -20.759
      2248.996       1.243     -20.735
      2249.496       1.237     -20.711
      2249.996       1.232     -20.687
      2250.496       1.227     -20.663
      2250.996       1.221     -20.639
      2251.496       1.215     -20.615
      2251.996       1.209     -20.591
      2252.496       1.203     -20.567
      2252.996       1.197     -20.543
      2253.496       1.191     -20.518
      2253.996       1.185     -20.494
      2254.496       1.179     -20.470
      2254.996       1.173     -20.446
      2255.496       1.171     -20.422
      2255.996       1.172     -20.398
      2256.496       1.173     -20.374
      2256.996       1.175     -20.350
      2257.496       1.176     -20.326
      2257.996       1.177     -20.302
      2258.496       1.178     -20.277
      2258.996       1.179     -20.253
      2259.496       1.180     -20.229
      2259.996       1.181     -20.205
      2260.496       1.182     -20.181
      2260.996       1.183     -20.157
      2261.496       1.184     -20.133
      2261.996       1.185     -20.109
      2262.496       1.196     -20.085
      2262.996       1.212     -20.061
      2263.496       1.228     -20.037
      2263.996       1.244     -20.012
      2264.496       1.260     -19.988
      2264.996       1.276     -19.964
      2265.496       1.291     -19.940
      2265.996       1.307     -19.916
      2266.496       1.317     -19.892
      2266.996       1.326     -19.780
      2267.496       1.336     -19.661
      2267.996       1.346     -19.542
      2268.496       1.356     -19.423
      2268.996       1.366     -19.304
      2269.496       1.376     -19.186
      2269.996       1.386     -19.067
      2270.496       1.396     -18.948
      2270.996       1.406     -18.829
      2271.496       1.415     -18.710
      2271.996       1.425     -18.592
      2272.496       1.435     -18.473
      2272.996       1.445     -18.354
      2273.496       1.455     -18.235
      2273.996       1.444     -18.116
      2274.496       1.432     -17.998
      2274.996       1.419     -17.879
      2275.496       1.407     -17.760
      2275.996       1.394     -17.641
      2276.496       1.382     -17.522
      2276.996       1.369     -17.404
      2277.496       1.357     -17.285
      2277.996       1.344     -17.557
      2278.496       1.332     -17.961
      2278.996       1.319     -18.364
      2279.496       1.307     -18.767
      2279.996       1.294     -19.170
      2280.496       1.282     -19.573
      2280.996       1.270     -19.659
      2281.496       1.257     -19.105
      2281.996       1.244     -18.551
      2282.496       1.232     -17.997
      2282.996       1.220     -17.443
      2283.496       1.214     -16.889
      2283.996       1.210     -16.335
      2284.496       1.207     -15.782
      2284.996       1.204     -16.169
      2285.496       1.200     -16.788
      2285.996       1.197     -17.406
      2286.496       1.193     -18.023
      2286.996       1.190     -18.642
      2287.496       1.339     -19.260
      2287.996       1.659     -19.878
      2288.496       1.679     -20.496
      2288.996       1.621     -20.855
      2289.496       1.562     -20.853
      2289.996       1.504     -20.851
      2290.496       1.446     -20.849
      2290.996       1.387     -20.848
      2291.496       1.329     -20.846
      2291.996       1.271     -20.845
      2292.496       1.237     -20.843
      2292.996       1.252     -20.841
      2293.496       1.268     -20.839
      2293.996       1.283     -20.838
      2294.496       1.299     -20.836
      2294.996       1.314     -20.834
      2295.496       1.330     -20.833
      2295.996       1.345     -20.683
      2296.496       1.360     -20.342
      2296.996       1.376     -20.001
      2297.496       1.391     -19.660
      2297.996       1.407     -19.319
      2298.496       1.408     -18.978
      2298.996       1.408     -18.637
      2299.496       1.409     -18.296
      2299.996       1.410     -17.955
      2300.496       1.411     -17.614
      2300.996       1.411     -17.273
      2301.496       1.412     -17.203
      2301.996       1.413     -17.240
      2302.496       1.413     -17.277
      2302.996       1.414     -17.315
      2303.496       1.415     -17.352
      2303.996       1.415     -17.389
      2304.496       1.416     -17.426
      2304.996       1.417     -17.463
      2305.496       1.417     -17.501
      2305.996       1.418     -17.538
      2306.496       1.419     -17.575
      2306.996       1.419     -17.612
      2307.496       1.420     -17.650
      2307.996       1.421     -17.687
      2308.496       1.422     -17.724
      2308.996       1.422     -17.761
      2309.496       1.423     -17.799
      2309.996       1.424     -17.836
      2310.496       1.424     -17.873
      2310.996       1.425     -17.910
      2311.496       1.425     -17.947
      2311.996       1.424     -17.985
      2312.496       1.423     -18.022
      2312.996       1.421     -18.059
      2313.496       1.420     -18.096
      2313.996       1.419     -18.134
      2314.496       1.418     -18.171
      2314.996       1.416     -18.772
      2315.496       1.415     -19.374
      2315.996       1.414     -19.618
      2316.496       1.413     -19.361
      2316.996       1.411     -19.104
      2317.496       1.410     -18.847
      2317.996       1.409     -18.590
      2318.496       1.407     -18.333
      2318.996       1.406     -18.076
      2319.496       1.405     -17.820
      2319.996       1.404     -17.563
      2320.496       1.402     -17.306
      2320.996       1.401     -17.049
      2321.496       1.400     -16.792
      2321.996       1.399     -16.535
      2322.496       1.397     -16.278
      2322.996       1.396     -16.021
      2323.496       1.395     -15.764
      2323.996       1.393     -15.507
      2324.496       1.392     -15.250
      2324.996       1.391     -15.022
      2325.496       1.390     -15.069
      2325.996       1.388     -15.115
      2326.496       1.387     -15.162
      2326.996       1.386     -15.208
      2327.496       1.385     -15.254
      2327.996       1.383     -15.300
      2328.496       1.382     -15.347
      2328.996       1.381     -15.393
      2329.496       1.379     -15.440
      2329.996       1.378     -15.486
      2330.496       1.377     -15.532
      2330.996       1.375     -15.579
      2331.496       1.372     -15.625
      2331.996       1.370     -15.671
      2332.496       1.368     -15.718
      2332.996       1.366     -15.764
      2333.496       1.364     -15.810
      2333.996       1.361     -15.857
      2334.496       1.359     -15.903
      2334.996       1.357     -15.950
      2335.496       1.355     -15.996
