~Version Information
 VERS.                 2.0: 
 WRAP.                  NO: 
 END.                PETRA:IHS Markit
~Well Information Block
#MNEM.UNIT       Data Type    Information
#---------    -------------   ---------------------------------
 STRT.F           2031.9959:
 STOP.F          10833.9783:
 STEP.F              0.5000:
 NULL.              -999.25:
 COMP.                           : COMPANY
 FLD.       PURT WEST            : FIELD
 LOC.                            : LOCATION
 DATE.      24-JUN-2024          : DATE
 WELL.                           : Well Name
 LABL.      42001313820000                   : Well Label
 APIN.      42001313820000       : API Number
 UWI.       42001313820000       : Unique Well Number
 NUMB.      1                    : Well Number
 OPER.      MARSHALL EXPL CO INC : Operator Name
 LEAS.      BROOKSHIRE           : Lease Name
~Parameter Block
#MNEM.UNIT           VALUE            Description
#---------    --------------------   ---------------------------------
 EKB.F                   626.0 : KB Elevation
~Curve Information Block
#MNEM.UNIT      API CODE      Curve Description
#---------    -------------   ---------------------------------
 DEPT.F                   00 000 00 00: Depth (MD)
 RES.OHM.M                00 001 00 00: Medium Resistivity
 SP.MV                    00 002 00 00: Spontaneous Potential
~A        DEPT         RES          SP
# ...
      6666.996       4.394     -33.020
      6667.496       4.598     -33.143
      6667.996       4.802     -33.267
      6668.496       5.452     -33.391
      6668.996       6.367     -33.514
      6669.496       6.926     -33.638
      6669.996       8.027     -33.761
      6670.496       9.352     -33.885
      6670.996      10.249     -34.008
      6671.496      10.887     -34.132
      6671.996      11.525     -34.255
      6672.496      12.164     -34.379
      6672.996      12.802     -34.503
      6673.496      13.440     -34.626
      6673.996      14.078     -34.750
      6674.496      14.873     -35.393
      6674.996      13.609     -36.198
      6675.496      12.470     -37.010
      6675.996      11.674     -37.223
      6676.496      10.907     -37.224
      6676.996      10.432     -37.225
      6677.496      10.150     -37.226
      6677.996       9.724     -37.227
      6678.496       9.457     -37.228
      6678.996       9.337     -37.230
      6679.496       9.336     -37.231
      6679.996      10.063     -37.232
      6680.496      10.452     -37.233
      6680.996      10.603     -37.234
      6681.496      10.102     -37.235
      6681.996       9.100     -37.236
      6682.496       8.931     -37.238
      6682.996       8.765     -37.239
      6683.496       8.733     -37.240
      6683.996       8.932     -37.241
      6684.496       9.718     -37.242
      6684.996      10.719     -37.243
      6685.496      11.149     -37.544
      6685.996      11.492     -37.855
      6686.496      11.938     -37.856
      6686.996      14.422     -37.858
      6687.496      14.071     -37.859
      6687.996      12.294     -37.493
      6688.496      10.517     -36.645
      6688.996       8.739     -36.646
      6689.496       6.962     -36.647
      6689.996       5.185     -36.648
      6690.496       3.990     -36.649
      6690.996       3.528     -36.650
      6691.496       3.066     -36.651
      6691.996       2.604     -36.653
      6692.496       2.142     -36.654
      6692.996       1.679     -36.655
      6693.496       1.217     -36.656
      6693.996       1.487     -36.657
      6694.496       2.075     -37.057
      6694.996       2.662     -37.266
      6695.496       3.250     -37.267
      6695.996      21.137     -37.268
      6696.496      14.747     -37.269
      6696.996       8.358     -37.270
      6697.496       3.302     -36.665
      6697.996       2.915     -36.666
      6698.496       2.529     -36.667
      6698.996       2.142     -36.669
      6699.496       2.179     -36.670
      6699.996       2.585     -36.671
      6700.496       2.992     -36.672
      6700.996       3.478     -36.673
      6701.496       4.469     -36.674
      6701.996       5.460     -36.675
      6702.496       6.450     -36.676
      6702.996       7.736     -36.968
      6703.496      11.509     -37.285
      6703.996      15.283     -37.890
      6704.496      19.056     -37.834
      6704.996      18.708     -37.779
      6705.496      17.568     -37.724
      6705.996      16.428     -37.669
      6706.496      15.288     -37.614
      6706.996      14.148     -37.559
      6707.496      13.904     -37.503
      6707.996      14.002     -37.448
      6708.496      14.651     -37.393
      6708.996      16.591     -37.338
      6709.496      17.874     -37.283
      6709.996      19.398     -37.227
      6710.496      14.525     -37.172
      6710.996      12.871     -37.117
      6711.496      12.166     -37.062
      6711.996      12.166     -37.007
      6712.496      19.853     -36.952
      6712.996      15.584     -36.896
      6713.496      14.059     -36.841
      6713.996      10.361     -36.786
      6714.496       8.735     -36.731
      6714.996       9.729     -36.995
      6715.496      11.463     -37.556
      6715.996      13.198     -38.118
      6716.496      14.933     -38.679
      6716.996      15.665     -39.240
      6717.496      15.752     -39.802
      6717.996      16.052     -40.363
      6718.496      16.635     -40.924
      6718.996      17.442     -41.486
      6719.496      18.221     -42.047
      6719.996      20.282     -42.608
      6720.496      23.983     -43.170
      6720.996      27.684     -44.476
      6721.496      27.971     -44.637
      6721.996      26.559     -44.638
      6722.496      25.147     -44.639
      6722.996      23.735     -44.640
      6723.496      22.323     -44.641
      6723.996      20.911     -44.642
      6724.496      19.499     -44.643
      6724.996      18.087     -44.645
      6725.496      16.674     -44.646
      6725.996      15.262     -44.551
      6726.496      14.756     -44.038
      6726.996      14.942     -44.039
      6727.496      15.658     -43.434
      6727.996      15.217     -43.435
      6728.496      14.477     -43.436
      6728.996      13.947     -43.437
      6729.496      13.229     -43.438
      6729.996      12.713     -43.440
      6730.496      12.482     -43.441
      6730.996      12.481     -43.442
      6731.496      12.481     -43.443
      6731.996      12.480     -43.444
      6732.496      12.714     -43.445
      6732.996      13.163     -43.446
      6733.496      13.163     -43.448
      6733.996      12.839     -43.055
      6734.496      12.758     -42.231
      6734.996      12.646     -42.127
      6735.496      12.646     -41.719
      6735.996      12.645     -41.624
      6736.496      12.645     -41.625
      6736.996      12.645     -41.626
      6737.496      12.644     -41.017
      6737.996      12.936     -41.019
      6738.496      13.336     -41.020
      6738.996      13.710     -41.021
      6739.496      13.973     -41.022
      6739.996      13.895     -41.023
      6740.496      13.228     -41.095
      6740.996      12.862     -41.635
      6741.496      12.811     -42.246
      6741.996      12.811     -42.247
      6742.496      12.811     -42.537
      6742.996      12.934     -42.859
      6743.496      13.435     -42.860
      6743.996      13.730     -42.862
      6744.496      14.496     -42.863
      6744.996      14.806     -42.864
      6745.496      13.895     -42.865
      6745.996      13.387     -42.866
      6746.496      12.873     -42.867
      6746.996      12.697     -42.868
      6747.496      12.637     -42.870
      6747.996      13.058     -42.871
      6748.496      13.844     -42.872
      6748.996      15.026     -42.873
      6749.496      15.026     -42.874
      6749.996      13.696     -42.875
      6750.496      12.871     -42.876
      6750.996      12.479     -42.877
      6751.496      12.246     -42.879
      6751.996      12.139     -42.880
      6752.496      12.139     -42.881
      6752.996      12.138     -42.882
      6753.496      12.138     -42.883
      6753.996      13.407     -42.884
      6754.496      16.631     -42.466
      6754.996      19.855     -42.277
      6755.496      23.079     -42.278
      6755.996      20.811     -41.449
      6756.496      18.104     -41.061
      6756.996      15.397     -41.062
      6757.496      13.705     -41.063
      6757.996      15.344     -41.064
      6758.496      16.982     -40.455
      6758.996      18.621     -40.456
      6759.496      20.260     -40.458
      6759.996      15.993     -40.459
      6760.496      14.044     -40.460
      6760.996      13.068     -40.461
      6761.496      12.092     -40.161
      6761.996      11.116     -39.857
      6762.496      10.139     -39.858
      6762.996      10.249     -39.859
      6763.496      11.353     -39.860
      6763.996      12.457     -39.805
      6764.496      13.562     -39.448
      6764.996      14.666     -39.090
      6765.496      13.439     -38.733
      6765.996      11.144     -38.375
      6766.496       8.849     -38.018
      6766.996       7.809     -37.660
      6767.496       7.340     -37.303
      6767.996       7.607     -36.946
      6768.496       8.535     -36.588
      6768.996       9.463     -36.231
      6769.496      11.904     -35.873
