~Version Information
 VERS.                 2.0: 
 WRAP.                  NO: 
 END.                PETRA:IHS Markit
~Well Information Block
#MNEM.UNIT       Data Type    Information
#---------    -------------   ---------------------------------
 STRT.F           2232.9955:
 STOP.F          11856.9763:
 STEP.F              0.5000:
 NULL.              -999.25:
 COMP.                           : COMPANY
 FLD.       PLUM JELLY           : FIELD
 LOC.                            : LOCATION
 DATE.      24-JUN-2024          : DATE
 WELL.                           : Well Name
 LABL.      42001313930000                   : Well Label
 APIN.      42001313930000       : API Number
 UWI.       42001313930000       : Unique Well Number
 NUMB.      1                    : Well Number
 OPER.      BOIS D ARC INC       : Operator Name
 LEAS.      SACK TRUST GAS UNIT  : Lease Name
~Parameter Block
#MNEM.UNIT           VALUE            Description
#---------    --------------------   ---------------------------------
 EKB.F                   496.0 : KB Elevation
~Curve Information Block
#MNEM.UNIT      API CODE      Curve Description
#---------    -------------   ---------------------------------
 DEPT.F                   00 000 00 00: Depth (MD)
 RES.OHM.M                00 001 00 00: Medium Resistivity
 SP.MV                    00 002 00 00: Spontaneous Potential
~A        DEPT         RES          SP
# ...
      4086.996       3.000       7.050
      4087.496       3.014       7.078
      4087.996       3.027       7.105
      4088.496       3.041       7.133
      4088.996       3.054       7.161
      4089.496       3.068       7.188
      4089.996       3.082       7.216
      4090.496       3.095       7.244
      4090.996       3.109       7.271
      4091.496       3.122       7.299
      4091.996       3.136       7.326
      4092.496       3.150       7.354
      4092.996       3.163       7.382
      4093.496       3.177       7.409
      4093.996       3.190       7.437
      4094.496       3.156       7.465
      4094.996       3.122       7.492
      4095.496       3.088       7.520
      4095.996       3.054       7.548
      4096.496       3.020       7.575
      4096.996       2.986       7.603
      4097.496       2.952       7.631
      4097.996       2.918       7.658
      4098.496       2.884       7.686
      4098.996       2.854       7.713
      4099.496       2.828       7.741
      4099.996       2.803       7.769
      4100.496       2.777       7.796
      4100.996       2.752       7.824
      4101.496       2.727       7.852
      4101.996       2.701       7.879
      4102.496       2.676       7.907
      4102.996       2.650       7.935
      4103.496       2.625       7.962
      4103.996       2.599       7.990
      4104.496       2.574       8.018
      4104.996       2.591       8.045
      4105.496       2.612       8.073
      4105.996       2.634       8.097
      4106.496       2.655       7.946
      4106.996       2.659       7.794
      4107.496       2.644       7.643
      4107.996       2.630       7.492
      4108.496       2.615       7.341
      4108.996       2.600       7.190
      4109.496       2.586       7.039
      4109.996       2.575       6.888
      4110.496       2.605       6.737
      4110.996       2.635       6.586
      4111.496       2.665       6.854
      4111.996       2.695       7.216
      4112.496       2.725       7.579
      4112.996       2.755       7.941
      4113.496       2.785       8.303
      4113.996       3.051       8.666
      4114.496       3.307       9.028
      4114.996       3.181       9.391
      4115.496       3.055       9.753
      4115.996       2.929      10.116
      4116.496       2.803      10.232
      4116.996       2.677      10.258
      4117.496       2.551      10.285
      4117.996       2.425      10.311
      4118.496       2.299      10.338
      4118.996       2.256      10.364
      4119.496       2.226      10.391
      4119.996       2.196      10.417
      4120.496       2.165      10.444
      4120.996       2.135      10.470
      4121.496       2.105      10.497
      4121.996       2.075      10.523
      4122.496       2.044      10.550
      4122.996       2.014      10.576
      4123.496       1.984      10.602
      4123.996       1.954      10.629
      4124.496       2.043      10.655
      4124.996       2.121      10.682
      4125.496       2.091      10.708
      4125.996       2.062      10.735
      4126.496       2.032      10.761
      4126.996       2.002      10.755
      4127.496       1.973      10.739
      4127.996       1.963      10.724
      4128.496       1.992      10.708
      4128.996       2.021      10.692
      4129.496       2.003      10.677
      4129.996       1.977      10.661
      4130.496       1.951      10.645
      4130.996       1.925      10.630
      4131.496       1.906      10.614
      4131.996       1.903      10.598
      4132.496       1.900      10.582
      4132.996       1.897      10.567
      4133.496       1.894      10.551
      4133.996       1.890      10.535
      4134.496       1.887      10.520
      4134.996       1.891      10.504
      4135.496       1.906      10.488
      4135.996       1.922      10.472
      4136.496       1.938      10.457
      4136.996       1.954      10.441
      4137.496       1.955      10.425
      4137.996       1.955      10.409
      4138.496       1.955      10.394
      4138.996       1.954      10.378
      4139.496       1.943      10.362
      4139.996       1.932      10.347
      4140.496       1.921      10.331
      4140.996       1.911      10.315
      4141.496       1.900      10.300
      4141.996       1.889      10.284
      4142.496       1.878      10.268
      4142.996       1.866      10.252
      4143.496       1.854      10.237
      4143.996       1.843      10.221
      4144.496       1.851      10.205
      4144.996       1.861      10.190
      4145.496       1.871      10.174
      4145.996       1.882      10.158
      4146.496       1.880      10.142
      4146.996       1.865      10.127
      4147.496       1.850      10.111
      4147.996       1.835      10.095
      4148.496       1.821      10.080
      4148.996       1.842      10.064
      4149.496       1.863      10.048
      4149.996       1.884      10.032
      4150.496       1.898      10.017
      4150.996       1.910      10.001
      4151.496       1.923       9.985
      4151.996       1.935       9.970
      4152.496       1.947       9.954
      4152.996       1.956       9.938
      4153.496       1.947       9.922
      4153.996       1.938       9.907
      4154.496       1.929       9.891
      4154.996       1.920       9.875
      4155.496       1.911       9.860
      4155.996       1.902       9.844
      4156.496       1.893       9.828
      4156.996       1.889       9.830
      4157.496       1.880       9.832
      4157.996       1.866       9.833
      4158.496       1.866       9.835
      4158.996       1.866       9.836
      4159.496       1.866       9.838
      4159.996       1.844       9.840
      4160.496       1.844       9.842
      4160.996       1.836       9.843
      4161.496       1.822       9.845
      4161.996       1.811       9.847
      4162.496       1.802       9.848
      4162.996       1.823       9.850
      4163.496       1.828       9.852
      4163.996       1.845       9.853
      4164.496       1.845       9.855
      4164.996       1.845       9.857
      4165.496       1.834       9.858
      4165.996       1.823       9.860
      4166.496       1.811       9.862
      4166.996       1.800       9.863
      4167.496       1.788       9.865
      4167.996       1.800       9.867
      4168.496       1.884       9.868
      4168.996       1.934       9.870
      4169.496       1.928       9.872
      4169.996       1.922       9.873
      4170.496       1.916       9.875
      4170.996       1.910       9.877
      4171.496       1.904       9.878
      4171.996       1.898       9.880
      4172.496       1.893       9.882
      4172.996       1.909       9.883
      4173.496       1.934       9.885
      4173.996       1.958       9.887
      4174.496       1.983       9.889
      4174.996       2.008       9.890
      4175.496       2.032       9.892
      4175.996       2.057       9.893
      4176.496       2.081       9.895
      4176.996       2.106       9.897
      4177.496       2.131       9.899
      4177.996       2.155       9.900
      4178.496       2.180       9.890
      4178.996       2.190       9.808
      4179.496       2.196       9.726
      4179.996       2.203       9.644
      4180.496       2.209       9.562
      4180.996       2.215       9.480
      4181.496       2.221       9.398
      4181.996       2.227       9.316
      4182.496       2.233       9.234
      4182.996       2.239       9.152
      4183.496       2.233       9.070
      4183.996       2.224       8.988
      4184.496       2.216       8.906
      4184.996       2.208       8.824
      4185.496       2.200       8.742
      4185.996       2.192       8.660
      4186.496       2.184       8.578
      4186.996       2.175       8.496
      4187.496       2.167       8.414
      4187.996       2.159       8.332
      4188.496       2.151       8.249
      4188.996       2.143       8.168
      4189.496       2.148       8.085
