~Version Information
 VERS.                 2.0: 
 WRAP.                  NO: 
 END.                PETRA:IHS Markit
~Well Information Block
#MNEM.UNIT       Data Type    Information
#---------    -------------   ---------------------------------
 STRT.F           1965.9961:
 STOP.F          11003.9780:
 STEP.F              0.5000:
 NULL.              -999.25:
 COMP.                           : COMPANY
 FLD.       WILDCAT              : FIELD
 LOC.                            : LOCATION
 DATE.      24-JUN-2024          : DATE
 WELL.                           : Well Name
 LABL.      42001312650000                   : Well Label
 APIN.      42001312650000       : API Number
 UWI.       42001312650000       : Unique Well Number
 NUMB.      1                    : Well Number
 OPER.      MAY PETROLEUM INC    : Operator Name
 LEAS.      COOK R R             : Lease Name
~Parameter Block
#MNEM.UNIT           VALUE            Description
#---------    --------------------   ---------------------------------
 EKB.F                   595.0 : KB Elevation
~Curve Information Block
#MNEM.UNIT      API CODE      Curve Description
#---------    -------------   ---------------------------------
 DEPT.F                   00 000 00 00: Depth (MD)
 RES.OHM.M                00 001 00 00: Medium Resistivity
 SP.MV                    00 002 00 00: Spontaneous Potential
~A        DEPT         RES          SP
# ...
      2583.996       1.276     -16.892
      2584.496       1.284     -16.892
      2584.996       1.286     -16.891
      2585.496       1.286     -16.891
      2585.996       1.286     -16.890
      2586.496       1.273     -16.890
      2586.996       1.251     -16.890
      2587.496       1.229     -16.889
      2587.996       1.207     -16.889
      2588.496       1.203     -16.888
      2588.996       1.203     -16.888
      2589.496       1.203     -16.887
      2589.996       1.204     -16.887
      2590.496       1.204     -16.887
      2590.996       1.204     -16.886
      2591.496       1.204     -16.886
      2591.996       1.193     -16.885
      2592.496       1.154     -16.885
      2592.996       1.114     -16.884
      2593.496       1.069     -16.884
      2593.996       1.040     -16.884
      2594.496       1.008     -16.883
      2594.996       1.000     -16.883
      2595.496       0.997     -16.882
      2595.996       1.012     -16.882
      2596.496       1.034     -16.881
      2596.996       1.054     -16.881
      2597.496       1.088     -16.881
      2597.996       1.105     -16.880
      2598.496       1.125     -16.880
      2598.996       1.133     -16.879
      2599.496       1.151     -16.879
      2599.996       1.152     -16.878
      2600.496       1.152     -16.878
      2600.996       1.152     -16.878
      2601.496       1.152     -16.877
      2601.996       1.152     -16.877
      2602.496       1.152     -16.876
      2602.996       1.152     -16.876
      2603.496       1.154     -16.875
      2603.996       1.172     -16.875
      2604.496       1.189     -16.875
      2604.996       1.206     -16.874
      2605.496       1.224     -16.874
      2605.996       1.241     -16.873
      2606.496       1.258     -16.873
      2606.996       1.276     -16.872
      2607.496       1.293     -16.872
      2607.996       1.310     -16.871
      2608.496       1.327     -16.871
      2608.996       1.325     -16.871
      2609.496       1.319     -16.870
      2609.996       1.313     -16.870
      2610.496       1.306     -16.869
      2610.996       1.300     -16.869
      2611.496       1.294     -16.868
      2611.996       1.287     -16.868
      2612.496       1.281     -16.867
      2612.996       1.275     -16.867
      2613.496       1.268     -16.867
      2613.996       1.262     -16.866
      2614.496       1.256     -16.866
      2614.996       1.249     -16.865
      2615.496       1.243     -16.865
      2615.996       1.237     -16.864
      2616.496       1.230     -16.864
      2616.996       1.224     -16.864
      2617.496       1.218     -16.863
      2617.996       1.214     -16.863
      2618.496       1.211     -16.862
      2618.996       1.207     -16.862
      2619.496       1.208     -16.861
      2619.996       1.220     -16.861
      2620.496       1.242     -16.861
      2620.996       1.245     -16.860
      2621.496       1.245     -16.860
      2621.996       1.245     -16.859
      2622.496       1.245     -16.859
      2622.996       1.245     -16.858
      2623.496       1.245     -16.858
      2623.996       1.218     -16.858
      2624.496       1.207     -16.857
      2624.996       1.198     -16.857
      2625.496       1.192     -16.856
      2625.996       1.199     -16.856
      2626.496       1.206     -16.855
      2626.996       1.214     -16.855
      2627.496       1.221     -16.855
      2627.996       1.229     -16.854
      2628.496       1.236     -16.854
      2628.996       1.244     -16.853
      2629.496       1.251     -16.853
      2629.996       1.259     -16.852
      2630.496       1.266     -16.852
      2630.996       1.273     -16.852
      2631.496       1.269     -16.851
      2631.996       1.264     -16.851
      2632.496       1.260     -16.850
      2632.996       1.256     -16.850
      2633.496       1.252     -16.849
      2633.996       1.247     -16.849
      2634.496       1.243     -16.848
      2634.996       1.238     -16.848
      2635.496       1.234     -16.848
      2635.996       1.230     -16.847
      2636.496       1.225     -16.847
      2636.996       1.221     -16.846
      2637.496       1.217     -16.846
      2637.996       1.212     -16.845
      2638.496       1.208     -16.845
      2638.996       1.204     -16.845
      2639.496       1.199     -16.844
      2639.996       1.195     -16.844
      2640.496       1.190     -16.843
      2640.996       1.186     -16.843
      2641.496       1.182     -16.842
      2641.996       1.177     -16.842
      2642.496       1.173     -16.841
      2642.996       1.169     -16.841
      2643.496       1.164     -16.841
      2643.996       1.160     -16.840
      2644.496       1.156     -16.840
      2644.996       1.153     -16.839
      2645.496       1.153     -16.839
      2645.996       1.153     -16.838
      2646.496       1.153     -16.838
      2646.996       1.153     -16.838
      2647.496       1.153     -16.837
      2647.996       1.153     -16.837
      2648.496       1.153     -16.836
      2648.996       1.153     -16.836
      2649.496       1.153     -16.835
      2649.996       1.153     -16.835
      2650.496       1.159     -16.835
      2650.996       1.164     -16.834
      2651.496       1.170     -16.834
      2651.996       1.175     -16.833
      2652.496       1.181     -16.833
      2652.996       1.187     -16.832
      2653.496       1.193     -16.832
      2653.996       1.198     -16.831
      2654.496       1.204     -16.831
      2654.996       1.210     -16.831
      2655.496       1.215     -16.830
      2655.996       1.219     -16.830
      2656.496       1.219     -16.829
      2656.996       1.219     -16.829
      2657.496       1.219     -16.828
      2657.996       1.219     -16.828
      2658.496       1.219     -16.828
      2658.996       1.219     -16.827
      2659.496       1.219     -16.827
      2659.996       1.219     -16.826
      2660.496       1.219     -16.826
      2660.996       1.219     -16.825
      2661.496       1.219     -16.825
      2661.996       1.219     -17.019
      2662.496       1.219     -17.398
      2662.996       1.219     -17.671
      2663.496       1.219     -17.662
      2663.996       1.228     -17.653
      2664.496       1.233     -17.643
      2664.996       1.232     -17.634
      2665.496       1.230     -17.625
      2665.996       1.229     -17.616
      2666.496       1.227     -17.607
      2666.996       1.226     -17.597
      2667.496       1.224     -17.588
      2667.996       1.223     -17.579
      2668.496       1.221     -17.570
      2668.996       1.220     -17.560
      2669.496       1.218     -17.551
      2669.996       1.216     -17.542
      2670.496       1.215     -17.533
      2670.996       1.213     -17.523
      2671.496       1.212     -17.514
      2671.996       1.210     -17.505
      2672.496       1.209     -17.496
      2672.996       1.207     -17.487
      2673.496       1.205     -17.477
      2673.996       1.203     -17.468
      2674.496       1.201     -17.459
      2674.996       1.199     -17.450
      2675.496       1.197     -17.441
      2675.996       1.195     -17.431
      2676.496       1.192     -17.422
      2676.996       1.190     -17.413
      2677.496       1.188     -17.404
      2677.996       1.186     -17.394
      2678.496       1.184     -17.385
      2678.996       1.182     -17.376
      2679.496       1.181     -17.367
      2679.996       1.199     -17.357
      2680.496       1.217     -17.348
      2680.996       1.235     -17.339
      2681.496       1.252     -17.330
      2681.996       1.270     -17.321
      2682.496       1.288     -17.311
      2682.996       1.306     -17.302
      2683.496       1.323     -17.293
      2683.996       1.341     -17.284
      2684.496       1.359     -17.274
      2684.996       1.345     -17.265
      2685.496       1.322     -17.256
      2685.996       1.298     -17.247
      2686.496       1.275     -17.238
