~Version Information
 VERS.                 2.0: 
 WRAP.                  NO: 
 END.                PETRA:IHS Markit
~Well Information Block
#MNEM.UNIT       Data Type    Information
#---------    -------------   ---------------------------------
 STRT.F           2232.9955:
 STOP.F          11856.9763:
 STEP.F              0.5000:
 NULL.              -999.25:
 COMP.                           : COMPANY
 FLD.       PLUM JELLY           : FIELD
 LOC.                            : LOCATION
 DATE.      24-JUN-2024          : DATE
 WELL.                           : Well Name
 LABL.      42001313930000                   : Well Label
 APIN.      42001313930000       : API Number
 UWI.       42001313930000       : Unique Well Number
 NUMB.      1                    : Well Number
 OPER.      BOIS D ARC INC       : Operator Name
 LEAS.      SACK TRUST GAS UNIT  : Lease Name
~Parameter Block
#MNEM.UNIT           VALUE            Description
#---------    --------------------   ---------------------------------
 EKB.F                   496.0 : KB Elevation
~Curve Information Block
#MNEM.UNIT      API CODE      Curve Description
#---------    -------------   ---------------------------------
 DEPT.F                   00 000 00 00: Depth (MD)
 RES.OHM.M                00 001 00 00: Medium Resistivity
 SP.MV                    00 002 00 00: Spontaneous Potential
~A        DEPT         RES          SP
# ...
      3468.996       1.233       9.602
      3469.496       1.235       9.604
      3469.996       1.238       9.606
      3470.496       1.240       9.607
      3470.996       1.242       9.609
      3471.496       1.245       9.611
      3471.996       1.244       9.613
      3472.496       1.241       9.614
      3472.996       1.239       9.616
      3473.496       1.236       9.617
      3473.996       1.234       9.619
      3474.496       1.232       9.621
      3474.996       1.229       9.623
      3475.496       1.227       9.624
      3475.996       1.224       9.626
      3476.496       1.222       9.628
      3476.996       1.219       9.629
      3477.496       1.217       9.631
      3477.996       1.214       9.633
      3478.496       1.212       9.634
      3478.996       1.210       9.636
      3479.496       1.207       9.638
      3479.996       1.205       9.639
      3480.496       1.202       9.641
      3480.996       1.207       9.643
      3481.496       1.212       9.644
      3481.996       1.218       9.646
      3482.496       1.223       9.648
      3482.996       1.228       9.649
      3483.496       1.233       9.651
      3483.996       1.238       9.653
      3484.496       1.243       9.654
      3484.996       1.249       9.656
      3485.496       1.254       9.658
      3485.996       1.259       9.659
      3486.496       1.264       9.661
      3486.996       1.269       9.663
      3487.496       1.274       9.664
      3487.996       1.277       9.666
      3488.496       1.275       9.668
      3488.996       1.273       9.669
      3489.496       1.271       9.671
      3489.996       1.269       9.673
      3490.496       1.267       9.675
      3490.996       1.265       9.676
      3491.496       1.263       9.678
      3491.996       1.266       9.680
      3492.496       1.270       9.681
      3492.996       1.273       9.683
      3493.496       1.277       9.685
      3493.996       1.281       9.689
      3494.496       1.285       9.700
      3494.996       1.289       9.710
      3495.496       1.293       9.722
      3495.996       1.297       9.732
      3496.496       1.301       9.743
      3496.996       1.305       9.754
      3497.496       1.309       9.765
      3497.996       1.310       9.776
      3498.496       1.310       9.787
      3498.996       1.310       9.798
      3499.496       1.310       9.809
      3499.996       1.310       9.820
      3500.496       1.310       9.831
      3500.996       1.323       9.842
      3501.496       1.336       9.853
      3501.996       1.348       9.864
      3502.496       1.361       9.875
      3502.996       1.374       9.886
      3503.496       1.367       9.897
      3503.996       1.359       9.908
      3504.496       1.350       9.919
      3504.996       1.342       9.930
      3505.496       1.334       9.941
      3505.996       1.325       9.952
      3506.496       1.317       9.963
      3506.996       1.309       9.974
      3507.496       1.300       9.985
      3507.996       1.297       9.996
      3508.496       1.303      10.007
      3508.996       1.309      10.018
      3509.496       1.315      10.029
      3509.996       1.321      10.040
      3510.496       1.326      10.050
      3510.996       1.332      10.062
      3511.496       1.338      10.072
      3511.996       1.342      10.084
      3512.496       1.335      10.094
      3512.996       1.329      10.105
      3513.496       1.322      10.116
      3513.996       1.315      10.127
      3514.496       1.309      10.138
      3514.996       1.302      10.149
      3515.496       1.298      10.160
      3515.996       1.313      10.171
      3516.496       1.329      10.182
      3516.996       1.344      10.193
      3517.496       1.360      10.204
      3517.996       1.375      10.215
      3518.496       1.391      10.226
      3518.996       1.406      10.237
      3519.496       1.422      10.248
      3519.996       1.437      10.259
      3520.496       1.453      10.270
      3520.996       1.455      10.281
      3521.496       1.436      10.292
      3521.996       1.417      10.303
      3522.496       1.398      10.313
      3522.996       1.379      10.323
      3523.496       1.361      10.333
      3523.996       1.342      10.343
      3524.496       1.323      10.353
      3524.996       1.304      10.363
      3525.496       1.286      10.373
      3525.996       1.278      10.383
      3526.496       1.274      10.393
      3526.996       1.270      10.404
      3527.496       1.266      10.414
      3527.996       1.262      10.424
      3528.496       1.258      10.434
      3528.996       1.254      10.444
      3529.496       1.250      10.454
      3529.996       1.246      10.464
      3530.496       1.242      10.474
      3530.996       1.238      10.484
      3531.496       1.234      10.495
      3531.996       1.230      10.505
      3532.496       1.225      10.515
      3532.996       1.222      10.525
      3533.496       1.220      10.535
      3533.996       1.218      10.545
      3534.496       1.216      10.555
      3534.996       1.214      10.565
      3535.496       1.212      10.575
      3535.996       1.210      10.585
      3536.496       1.209      10.596
      3536.996       1.199      10.606
      3537.496       1.183      10.616
      3537.996       1.166      10.626
      3538.496       1.150      10.636
      3538.996       1.133      10.646
      3539.496       1.117      10.656
      3539.996       1.100      10.666
      3540.496       1.083      10.677
      3540.996       1.067      10.687
      3541.496       1.050      10.697
      3541.996       1.034      10.707
      3542.496       1.017      10.717
      3542.996       1.001      10.727
      3543.496       0.987      10.737
      3543.996       1.043      10.747
      3544.496       1.098      10.757
      3544.996       1.154      10.767
      3545.496       1.209      10.777
      3545.996       1.265      10.788
      3546.496       1.321      10.798
      3546.996       1.376      10.808
      3547.496       1.398      10.818
      3547.996       1.401      10.828
      3548.496       1.403      10.838
      3548.996       1.406      10.848
      3549.496       1.409      10.858
      3549.996       1.411      10.868
      3550.496       1.414      10.879
      3550.996       1.416      10.889
      3551.496       1.419      10.899
      3551.996       1.422      10.909
      3552.496       1.424      10.919
      3552.996       1.427      10.941
      3553.496       1.429      10.969
      3553.996       1.428      10.997
      3554.496       1.416      11.025
      3554.996       1.405      11.053
      3555.496       1.393      11.080
      3555.996       1.382      11.108
      3556.496       1.370      11.136
      3556.996       1.359      11.164
      3557.496       1.347      11.191
      3557.996       1.336      11.219
      3558.496       1.324      11.247
      3558.996       1.313      11.275
      3559.496       1.301      11.303
      3559.996       1.290      11.330
      3560.496       1.278      11.358
      3560.996       1.269      11.386
      3561.496       1.266      11.414
      3561.996       1.264      11.441
      3562.496       1.261      11.469
      3562.996       1.258      11.497
      3563.496       1.255      11.525
      3563.996       1.253      11.553
      3564.496       1.250      11.580
      3564.996       1.247      11.608
      3565.496       1.244      11.636
      3565.996       1.242      11.664
      3566.496       1.239      11.692
      3566.996       1.238      11.719
      3567.496       1.236      11.747
      3567.996       1.235      11.775
      3568.496       1.233      11.803
      3568.996       1.232      11.831
      3569.496       1.230      11.858
      3569.996       1.229      11.886
      3570.496       1.227      11.914
      3570.996       1.226      11.942
      3571.496       1.222      11.969
