~Version Information
 VERS.                 2.0: 
 WRAP.                  NO: 
 END.                PETRA:IHS Markit
~Well Information Block
#MNEM.UNIT       Data Type    Information
#---------    -------------   ---------------------------------
 STRT.F           2232.9955:
 STOP.F          11856.9763:
 STEP.F              0.5000:
 NULL.              -999.25:
 COMP.                           : COMPANY
 FLD.       PLUM JELLY           : FIELD
 LOC.                            : LOCATION
 DATE.      24-JUN-2024          : DATE
 WELL.                           : Well Name
 LABL.      42001313930000                   : Well Label
 APIN.      42001313930000       : API Number
 UWI.       42001313930000       : Unique Well Number
 NUMB.      1                    : Well Number
 OPER.      BOIS D ARC INC       : Operator Name
 LEAS.      SACK TRUST GAS UNIT  : Lease Name
~Parameter Block
#MNEM.UNIT           VALUE            Description
#---------    --------------------   ---------------------------------
 EKB.F                   496.0 : KB Elevation
~Curve Information Block
#MNEM.UNIT      API CODE      Curve Description
#---------    -------------   ---------------------------------
 DEPT.F                   00 000 00 00: Depth (MD)
 RES.OHM.M                00 001 00 00: Medium Resistivity
 SP.MV                    00 002 00 00: Spontaneous Potential
~A        DEPT         RES          SP
# ...
      8515.996       5.174     -12.696
      8516.496       5.646     -12.608
      8516.996       5.527     -12.520
      8517.496       4.884     -12.432
      8517.996       4.242     -12.344
      8518.496       3.599     -12.256
      8518.996       3.473     -12.168
      8519.496       4.329     -12.080
      8519.996       4.533     -11.992
      8520.496       4.411     -11.905
      8520.996       4.289     -11.817
      8521.496       4.167     -11.729
      8521.996       4.981     -11.641
      8522.496       5.166     -11.553
      8522.996       4.919     -11.465
      8523.496       4.671     -11.502
      8523.996       4.424     -12.227
      8524.496       4.176     -12.953
      8524.996       3.929     -13.678
      8525.496       3.681     -14.404
      8525.996       3.434     -15.129
      8526.496       9.623     -15.854
      8526.996      17.754     -16.579
      8527.496      25.886     -17.305
      8527.996      34.018     -18.030
      8528.496      42.149     -18.756
      8528.996      50.281     -19.481
      8529.496      58.413     -20.206
      8529.996      58.848     -20.931
      8530.496      54.902     -21.139
      8530.996      50.956     -20.962
      8531.496      47.010     -20.784
      8531.996      43.065     -20.607
      8532.496      39.118     -20.429
      8532.996      35.173     -20.251
      8533.496      31.227     -20.074
      8533.996      27.281     -19.896
      8534.496      23.335     -19.718
      8534.996      19.389     -19.541
      8535.496      15.443     -19.363
      8535.996      14.340     -19.186
      8536.496      22.923     -19.008
      8536.996      31.505     -18.831
      8537.496      40.088     -18.653
      8537.996      48.671     -18.475
      8538.496      45.066     -18.298
      8538.996      41.193     -18.120
      8539.496      37.321     -18.010
      8539.996      33.448     -17.912
      8540.496      29.575     -17.814
      8540.996      25.702     -17.716
      8541.496      21.829     -17.618
      8541.996      17.956     -17.520
      8542.496      14.084     -17.422
      8542.996      11.464     -17.324
      8543.496      15.038     -17.226
      8543.996      18.612     -17.127
      8544.496      20.125     -17.029
      8544.996      18.493     -16.931
      8545.496      19.595     -16.833
      8545.996      20.697     -16.735
      8546.496      21.798     -16.637
      8546.996      20.347     -16.539
      8547.496      18.812     -16.441
      8547.996      17.277     -16.343
      8548.496      15.742     -16.245
      8548.996      14.207     -16.147
      8549.496      12.672     -16.049
      8549.996      11.137     -15.966
      8550.496       9.602     -15.920
      8550.996       8.067     -15.874
      8551.496       6.831     -15.828
      8551.996       6.060     -15.782
      8552.496       5.288     -15.736
      8552.996       4.517     -15.690
      8553.496       4.956     -15.644
      8553.996       5.005     -15.598
      8554.496       4.885     -15.552
      8554.996       4.764     -15.506
      8555.496       4.644     -15.460
      8555.996       4.554     -15.415
      8556.496       4.469     -15.369
      8556.996       5.740     -15.323
      8557.496       7.097     -15.277
      8557.996       8.453     -15.231
      8558.496       9.809     -15.185
      8558.996      11.166     -15.139
      8559.496      12.522     -15.093
      8559.996      13.879     -15.047
      8560.496      15.235     -15.001
      8560.996      16.591     -14.955
      8561.496      17.948     -14.909
      8561.996      19.304     -15.162
      8562.496      18.979     -15.491
      8562.996      18.149     -15.820
      8563.496      17.319     -16.149
      8563.996      16.489     -16.477
      8564.496      15.659     -16.806
      8564.996      14.829     -17.135
      8565.496      14.580     -17.464
      8565.996      16.415     -17.793
      8566.496      18.249     -18.122
      8566.996      20.084     -18.450
      8567.496      21.919     -18.779
      8567.996      23.754     -19.108
      8568.496      23.483     -19.437
      8568.996      22.756     -19.766
      8569.496      22.029     -20.095
      8569.996      21.301     -20.423
      8570.496      20.574     -20.601
      8570.996      19.847     -20.627
      8571.496      19.119     -20.654
      8571.996      18.392     -20.680
      8572.496      17.665     -20.706
      8572.996      18.443     -20.733
      8573.496      36.797     -20.759
      8573.996      36.929     -20.786
      8574.496      30.041     -20.813
      8574.996      23.153     -20.839
      8575.496      24.543     -20.866
      8575.996      28.090     -20.892
      8576.496      25.440     -20.919
      8576.996      22.791     -20.945
      8577.496      20.142     -20.971
      8577.996      17.493     -20.998
      8578.496      14.844     -21.024
      8578.996      13.594     -21.051
      8579.496      13.725     -21.069
      8579.996      13.856     -20.947
      8580.496      13.683     -20.826
      8580.996      13.503     -20.704
      8581.496      13.323     -20.582
      8581.996      13.143     -20.461
      8582.496      14.037     -20.339
      8582.996      16.038     -20.218
      8583.496      18.039     -20.096
      8583.996      17.724     -19.974
      8584.496      15.454     -19.852
      8584.996      13.185     -19.731
      8585.496      10.915     -19.609
      8585.996       9.543     -19.488
      8586.496      10.283     -19.366
      8586.996      11.024     -19.244
      8587.496      11.422     -19.122
      8587.996      10.807     -19.001
      8588.496      10.192     -18.879
      8588.996       9.578     -18.758
      8589.496       8.963     -18.636
      8589.996       8.348     -18.514
      8590.496       7.733     -18.392
      8590.996       7.118     -18.271
      8591.496       6.504     -18.149
      8591.996       5.995     -18.028
      8592.496       5.551     -17.893
      8592.996       5.107     -17.598
      8593.496       4.664     -17.302
      8593.996       4.220     -17.006
      8594.496       3.776     -16.711
      8594.996       3.332     -16.415
      8595.496       6.859     -16.119
      8595.996       8.399     -15.824
      8596.496       7.897     -15.528
      8596.996       7.394     -15.232
      8597.496       6.892     -14.937
      8597.996       6.389     -14.641
      8598.496       8.594     -14.345
      8598.996      11.034     -14.049
      8599.496      13.475     -13.754
      8599.996      15.817     -13.458
      8600.496      14.830     -13.162
      8600.996      13.843     -12.867
      8601.496      12.857     -12.749
      8601.996      11.870     -12.903
      8602.496      10.883     -13.056
      8602.996       9.896     -13.210
      8603.496       8.909     -13.364
      8603.996       7.922     -13.517
      8604.496       6.935     -13.670
      8604.996       5.948     -13.824
      8605.496       6.678     -13.977
      8605.996       7.620     -14.131
      8606.496       8.561     -14.284
      8606.996       9.503     -14.438
      8607.496      10.444     -14.591
      8607.996      11.386     -14.745
      8608.496      12.327     -15.014
      8608.996      13.269     -15.283
      8609.496      13.304     -15.552
      8609.996      12.485     -15.821
      8610.496      11.665     -16.090
      8610.996      10.846     -16.360
      8611.496      10.027     -16.629
      8611.996      32.924     -16.898
      8612.496      59.374     -17.167
      8612.996      73.217     -17.436
      8613.496      58.910     -17.705
      8613.996      44.604     -17.974
      8614.496      30.297     -18.243
      8614.996      20.358     -18.512
      8615.496      19.400     -18.782
      8615.996      18.442     -18.688
      8616.496      17.483     -18.398
      8616.996      16.525     -18.108
      8617.496      15.567     -17.819
      8617.996      14.608     -17.529
      8618.496      13.672     -17.239
