~Version Information
 VERS.                 2.0: 
 WRAP.                  NO: 
 END.                PETRA:IHS Markit
~Well Information Block
#MNEM.UNIT       Data Type    Information
#---------    -------------   ---------------------------------
 STRT.F           1965.9961:
 STOP.F          11003.9780:
 STEP.F              0.5000:
 NULL.              -999.25:
 COMP.                           : COMPANY
 FLD.       WILDCAT              : FIELD
 LOC.                            : LOCATION
 DATE.      24-JUN-2024          : DATE
 WELL.                           : Well Name
 LABL.      42001312650000                   : Well Label
 APIN.      42001312650000       : API Number
 UWI.       42001312650000       : Unique Well Number
 NUMB.      1                    : Well Number
 OPER.      MAY PETROLEUM INC    : Operator Name
 LEAS.      COOK R R             : Lease Name
~Parameter Block
#MNEM.UNIT           VALUE            Description
#---------    --------------------   ---------------------------------
 EKB.F                   595.0 : KB Elevation
~Curve Information Block
#MNEM.UNIT      API CODE      Curve Description
#---------    -------------   ---------------------------------
 DEPT.F                   00 000 00 00: Depth (MD)
 RES.OHM.M                00 001 00 00: Medium Resistivity
 SP.MV                    00 002 00 00: Spontaneous Potential
~A        DEPT         RES          SP
# ...
      3716.996       0.889     -17.108
      3717.496       0.888     -17.173
      3717.996       0.872     -17.238
      3718.496       0.860     -17.303
      3718.996       0.860     -17.368
      3719.496       0.860     -17.433
      3719.996       0.860     -17.498
      3720.496       0.860     -17.563
      3720.996       0.861     -17.628
      3721.496       0.861     -17.693
      3721.996       0.861     -17.758
      3722.496       0.861     -17.823
      3722.996       0.861     -17.887
      3723.496       0.861     -17.952
      3723.996       0.862     -18.017
      3724.496       0.870     -18.082
      3724.996       0.870     -18.147
      3725.496       0.876     -18.212
      3725.996       0.889     -18.277
      3726.496       0.897     -18.342
      3726.996       0.905     -18.407
      3727.496       0.910     -18.472
      3727.996       0.910     -18.537
      3728.496       0.910     -18.602
      3728.996       0.910     -18.667
      3729.496       0.910     -18.732
      3729.996       0.910     -18.797
      3730.496       0.910     -18.862
      3730.996       0.910     -18.850
      3731.496       0.910     -18.821
      3731.996       0.920     -18.792
      3732.496       0.931     -18.762
      3732.996       0.942     -18.733
      3733.496       0.953     -18.704
      3733.996       0.964     -18.675
      3734.496       0.975     -18.645
      3734.996       0.983     -18.616
      3735.496       0.983     -18.587
      3735.996       0.982     -18.558
      3736.496       0.982     -18.529
      3736.996       0.981     -18.499
      3737.496       0.981     -18.470
      3737.996       0.981     -18.443
      3738.496       0.980     -18.442
      3738.996       0.980     -18.442
      3739.496       0.979     -18.441
      3739.996       0.979     -18.441
      3740.496       0.979     -18.440
      3740.996       0.978     -18.440
      3741.496       0.978     -18.439
      3741.996       0.977     -18.439
      3742.496       0.977     -18.439
      3742.996       0.976     -18.438
      3743.496       0.976     -18.438
      3743.996       0.976     -18.437
      3744.496       0.975     -18.437
      3744.996       0.975     -18.436
      3745.496       0.974     -18.436
      3745.996       0.974     -18.436
      3746.496       0.974     -18.435
      3746.996       0.973     -18.435
      3747.496       0.972     -18.434
      3747.996       0.964     -18.434
      3748.496       0.958     -18.433
      3748.996       0.941     -18.433
      3749.496       0.933     -18.427
      3749.996       0.931     -18.421
      3750.496       0.910     -18.415
      3750.996       0.910     -18.409
      3751.496       0.910     -18.402
      3751.996       0.910     -18.396
      3752.496       0.914     -18.390
      3752.996       0.936     -18.384
      3753.496       0.973     -18.377
      3753.996       1.025     -18.371
      3754.496       1.064     -18.365
      3754.996       1.135     -18.358
      3755.496       1.207     -18.352
      3755.996       1.274     -18.346
      3756.496       1.478     -18.340
      3756.996       1.522     -18.334
      3757.496       1.706     -18.327
      3757.996       1.865     -18.321
      3758.496       2.023     -18.315
      3758.996       2.095     -18.308
      3759.496       1.946     -18.302
      3759.996       1.798     -18.296
      3760.496       1.656     -18.290
      3760.996       1.656     -18.284
      3761.496       1.669     -18.277
      3761.996       1.834     -18.271
      3762.496       1.954     -18.265
      3762.996       2.223     -18.259
      3763.496       2.305     -18.252
      3763.996       2.270     -18.246
      3764.496       2.235     -18.240
      3764.996       2.200     -18.233
      3765.496       2.164     -18.227
      3765.996       2.129     -18.221
      3766.496       2.093     -18.215
      3766.996       2.039     -18.209
      3767.496       1.995     -18.202
      3767.996       1.941     -18.196
      3768.496       1.879     -18.190
      3768.996       1.832     -18.183
      3769.496       1.810     -18.177
      3769.996       1.766     -18.171
      3770.496       1.718     -18.165
      3770.996       1.645     -18.159
      3771.496       1.621     -18.152
      3771.996       1.777     -18.146
      3772.496       1.844     -18.140
      3772.996       1.892     -18.134
      3773.496       1.927     -18.127
      3773.996       2.015     -18.121
      3774.496       1.843     -18.115
      3774.996       1.580     -18.108
      3775.496       1.568     -18.102
      3775.996       1.733     -18.096
      3776.496       1.932     -18.090
      3776.996       2.025     -18.084
      3777.496       2.110     -18.077
      3777.996       2.115     -18.071
      3778.496       2.115     -18.065
      3778.996       2.115     -18.059
      3779.496       2.115     -18.052
      3779.996       2.115     -18.046
      3780.496       2.091     -18.040
      3780.996       2.068     -18.034
      3781.496       2.050     -18.027
      3781.996       1.988     -18.021
      3782.496       1.936     -18.015
      3782.996       1.848     -18.009
      3783.496       1.837     -18.002
      3783.996       1.799     -17.996
      3784.496       1.736     -17.990
      3784.996       1.676     -17.984
      3785.496       1.632     -17.977
      3785.996       1.545     -18.166
      3786.496       1.440     -18.388
      3786.996       1.782     -18.611
      3787.496       1.875     -18.833
      3787.996       1.968     -19.056
      3788.496       2.062     -19.278
      3788.996       2.155     -19.501
      3789.496       2.248     -19.723
      3789.996       2.342     -19.945
      3790.496       1.812     -20.168
      3790.996       1.738     -20.390
      3791.496       1.902     -20.613
      3791.996       2.067     -20.835
      3792.496       2.231     -21.645
      3792.996       2.396     -21.799
      3793.496       2.561     -22.650
      3793.996       2.593     -23.075
      3794.496       2.501     -23.074
      3794.996       2.409     -23.074
      3795.496       2.317     -22.765
      3795.996       2.225     -22.337
      3796.496       2.133     -21.948
      3796.996       2.041     -21.256
      3797.496       1.949     -20.518
      3797.996       1.857     -20.267
      3798.496       1.765     -20.092
      3798.996       1.673     -20.091
      3799.496       1.581     -20.091
      3799.996       1.489     -20.091
      3800.496       1.397     -20.090
      3800.996       1.956     -20.090
      3801.496       2.675     -20.089
      3801.996       2.278     -20.270
      3802.496       1.949     -20.513
      3802.996       2.039     -20.940
      3803.496       2.129     -20.940
      3803.996       2.219     -21.364
      3804.496       2.309     -21.364
      3804.996       2.067     -21.363
      3805.496       1.978     -21.363
      3805.996       1.862     -21.362
      3806.496       1.769     -21.485
      3806.996       1.753     -21.770
      3807.496       1.976     -22.211
      3807.996       2.125     -22.210
      3808.496       2.311     -22.210
      3808.996       2.503     -22.347
      3809.496       2.569     -22.636
      3809.996       2.385     -23.061
      3810.496       2.200     -23.485
      3810.996       2.016     -22.752
      3811.496       1.822     -21.734
      3811.996       1.570     -21.357
      3812.496       1.436     -20.996
      3812.996       1.344     -20.079
      3813.496       1.366     -20.449
      3813.996       1.488     -21.294
      3814.496       1.725     -22.483
      3814.996       1.924     -23.708
      3815.496       2.082     -25.113
      3815.996       2.241     -26.058
      3816.496       2.399     -26.258
      3816.996       2.558     -26.458
      3817.496       2.716     -26.659
      3817.996       2.735     -26.859
      3818.496       2.698     -27.059
      3818.996       2.661     -27.259
      3819.496       2.624     -27.459
