~Version Information
 VERS.                 2.0: 
 WRAP.                  NO: 
 END.                PETRA:IHS Markit
~Well Information Block
#MNEM.UNIT       Data Type    Information
#---------    -------------   ---------------------------------
 STRT.F           2232.9955:
 STOP.F          11856.9763:
 STEP.F              0.5000:
 NULL.              -999.25:
 COMP.                           : COMPANY
 FLD.       PLUM JELLY           : FIELD
 LOC.                            : LOCATION
 DATE.      24-JUN-2024          : DATE
 WELL.                           : Well Name
 LABL.      42001313930000                   : Well Label
 APIN.      42001313930000       : API Number
 UWI.       42001313930000       : Unique Well Number
 NUMB.      1                    : Well Number
 OPER.      BOIS D ARC INC       : Operator Name
 LEAS.      SACK TRUST GAS UNIT  : Lease Name
~Parameter Block
#MNEM.UNIT           VALUE            Description
#---------    --------------------   ---------------------------------
 EKB.F                   496.0 : KB Elevation
~Curve Information Block
#MNEM.UNIT      API CODE      Curve Description
#---------    -------------   ---------------------------------
 DEPT.F                   00 000 00 00: Depth (MD)
 RES.OHM.M                00 001 00 00: Medium Resistivity
 SP.MV                    00 002 00 00: Spontaneous Potential
~A        DEPT         RES          SP
# ...
      7897.996      48.285     -29.261
      7898.496      42.745     -29.229
      7898.996      37.205     -29.197
      7899.496      31.664     -29.165
      7899.996      27.146     -29.133
      7900.496      31.781     -29.101
      7900.996      33.774     -29.069
      7901.496      30.975     -28.757
      7901.996      28.177     -28.416
      7902.496      25.378     -28.075
      7902.996      22.580     -27.734
      7903.496      19.782     -27.393
      7903.996      16.983     -27.052
      7904.496      14.185     -26.711
      7904.996      11.386     -26.370
      7905.496       8.588     -26.029
      7905.996      16.780     -25.688
      7906.496      35.911     -25.347
      7906.996      55.041     -25.006
      7907.496      74.172     -24.665
      7907.996      93.303     -24.324
      7908.496     112.433     -23.983
      7908.996     131.564     -23.642
      7909.496     150.695     -23.301
      7909.996     169.825     -22.960
      7910.496     171.362     -22.619
      7910.996     163.307     -22.278
      7911.496     155.252     -21.937
      7911.996     147.197     -21.775
      7912.496     139.142     -21.819
      7912.996     131.087     -21.863
      7913.496     123.032     -21.907
      7913.996     114.977     -21.950
      7914.496     106.922     -21.994
      7914.996      98.867     -22.038
      7915.496      90.812     -22.081
      7915.996      82.757     -22.125
      7916.496      74.702     -22.169
      7916.996      66.647     -22.212
      7917.496      58.592     -22.250
      7917.996      50.537     -21.835
      7918.496      42.482     -21.421
      7918.996      36.261     -21.006
      7919.496      40.121     -20.592
      7919.996      43.980     -20.177
      7920.496      47.839     -19.763
      7920.996      51.699     -19.348
      7921.496      55.558     -18.934
      7921.996      59.417     -18.520
      7922.496      63.277     -18.105
      7922.996      67.136     -17.691
      7923.496      70.537     -17.276
      7923.996      63.119     -16.862
      7924.496      55.701     -16.447
      7924.996      48.283     -16.033
      7925.496      40.865     -15.618
      7925.996      33.447     -15.204
      7926.496      26.029     -15.024
      7926.996      25.594     -15.210
      7927.496      28.940     -15.396
      7927.996      32.285     -15.582
      7928.496      35.631     -15.768
      7928.996      38.976     -15.954
      7929.496      42.322     -16.140
      7929.996      45.667     -16.327
      7930.496      49.013     -16.443
      7930.996      52.358     -15.854
      7931.496      55.704     -15.265
      7931.996      59.050     -14.676
      7932.496      62.395     -14.088
      7932.996      65.740     -13.499
      7933.496      56.388     -12.910
      7933.996      46.162     -12.321
      7934.496      35.936     -11.732
      7934.996      25.709     -11.143
      7935.496      17.930     -10.555
      7935.996      14.198      -9.966
      7936.496      10.466      -9.377
      7936.996       6.735      -8.788
      7937.496       4.018      -8.199
      7937.996       5.256      -7.648
      7938.496       6.494      -7.905
      7938.996       7.732      -8.162
      7939.496       8.969      -8.419
      7939.996      10.056      -8.676
      7940.496       9.534      -8.933
      7940.996       9.012      -9.190
      7941.496       8.490      -9.446
      7941.996       7.968      -9.703
      7942.496       7.447      -9.960
      7942.996       6.925     -10.217
      7943.496       6.403     -10.474
      7943.996       5.881     -10.731
      7944.496       6.740     -10.988
      7944.996       9.170     -11.245
      7945.496      11.599     -11.227
      7945.996      14.029     -11.204
      7946.496      16.459     -11.180
      7946.996      17.086     -11.156
      7947.496      15.530     -11.132
      7947.996      13.973     -11.109
      7948.496      12.417     -11.085
      7948.996      10.860     -11.061
      7949.496      10.979     -11.037
      7949.996      11.906     -11.013
      7950.496      12.832     -10.990
      7950.996      13.758     -10.966
      7951.496      14.684     -10.942
      7951.996      13.859     -10.918
      7952.496      12.629     -10.895
      7952.996      11.558     -10.871
      7953.496      11.693     -10.847
      7953.996      11.828     -10.823
      7954.496      11.963     -10.799
      7954.996      11.074     -10.776
      7955.496      10.145     -10.752
      7955.996       9.216     -10.728
      7956.496       8.287     -10.704
      7956.996       7.358     -11.069
      7957.496       6.428     -11.869
      7957.996       5.499     -12.670
      7958.496       4.570     -13.470
      7958.996       4.454     -14.271
      7959.496       4.661     -15.071
      7959.996       4.868     -15.871
      7960.496       5.075     -16.672
      7960.996       5.283     -17.545
      7961.496       5.490     -18.450
      7961.996       5.697     -19.355
      7962.496       5.904     -20.260
      7962.996       6.160     -21.165
      7963.496       7.886     -22.070
      7963.996       9.613     -22.976
      7964.496      11.339     -23.881
      7964.996      15.082     -24.786
      7965.496      20.010     -25.691
      7965.996      24.939     -25.137
      7966.496      29.868     -24.513
      7966.996      34.796     -23.889
      7967.496      39.725     -23.265
      7967.996      44.654     -22.641
      7968.496      38.654     -22.017
      7968.996      30.221     -21.393
      7969.496      21.789     -20.770
      7969.996      21.157     -20.146
      7970.496      22.837     -19.522
      7970.996      24.518     -18.898
      7971.496      23.416     -18.274
      7971.996      21.304     -17.650
      7972.496      19.192     -17.026
      7972.996      17.079     -16.402
      7973.496      14.967     -16.253
      7973.996      12.855     -16.145
      7974.496      10.743     -16.036
      7974.996       8.934     -15.927
      7975.496       9.464     -15.819
      7975.996       9.994     -15.710
      7976.496      10.481     -15.602
      7976.996       9.941     -15.493
      7977.496       9.401     -15.384
      7977.996       8.861     -15.276
      7978.496       8.322     -15.167
      7978.996       7.782     -15.059
      7979.496       7.242     -14.950
      7979.996       6.702     -14.842
      7980.496       6.162     -14.806
      7980.996       5.623     -14.913
      7981.496       5.083     -15.020
      7981.996       4.543     -15.127
      7982.496       4.051     -15.234
      7982.996       6.106     -15.341
      7983.496       8.162     -15.448
      7983.996      10.217     -15.556
      7984.496      12.272     -15.663
      7984.996      14.328     -15.770
      7985.496      16.383     -15.534
      7985.996      14.374     -15.203
      7986.496      11.878     -14.872
      7986.996       9.383     -14.541
      7987.496       6.887     -14.209
      7987.996       4.391     -13.878
      7988.496       2.967     -13.547
      7988.996       3.431     -13.216
      7989.496       3.896     -12.884
      7989.996       4.360     -12.553
      7990.496       4.825     -12.222
      7990.996       5.289     -11.891
      7991.496       5.754     -11.559
      7991.996       6.060     -11.228
      7992.496       5.781     -10.897
      7992.996       5.503     -10.570
      7993.496       5.224     -10.569
      7993.996       4.946     -10.567
      7994.496       4.667     -10.565
      7994.996       4.388     -10.563
      7995.496       4.110     -10.562
      7995.996       3.831     -10.560
      7996.496       3.553     -10.559
      7996.996       3.274     -10.557
      7997.496       2.995     -10.555
      7997.996       2.854     -10.553
      7998.496       3.033     -10.552
      7998.996       3.211     -10.550
      7999.496       3.389     -10.548
      7999.996       3.567     -10.547
      8000.496       3.745     -10.545
