~Version Information
 VERS.                 2.0: 
 WRAP.                  NO: 
 END.                PETRA:IHS Markit
~Well Information Block
#MNEM.UNIT       Data Type    Information
#---------    -------------   ---------------------------------
 STRT.F           2031.9959:
 STOP.F          10833.9783:
 STEP.F              0.5000:
 NULL.              -999.25:
 COMP.                           : COMPANY
 FLD.       PURT WEST            : FIELD
 LOC.                            : LOCATION
 DATE.      24-JUN-2024          : DATE
 WELL.                           : Well Name
 LABL.      42001313820000                   : Well Label
 APIN.      42001313820000       : API Number
 UWI.       42001313820000       : Unique Well Number
 NUMB.      1                    : Well Number
 OPER.      MARSHALL EXPL CO INC : Operator Name
 LEAS.      BROOKSHIRE           : Lease Name
~Parameter Block
#MNEM.UNIT           VALUE            Description
#---------    --------------------   ---------------------------------
 EKB.F                   626.0 : KB Elevation
~Curve Information Block
#MNEM.UNIT      API CODE      Curve Description
#---------    -------------   ---------------------------------
 DEPT.F                   00 000 00 00: Depth (MD)
 RES.OHM.M                00 001 00 00: Medium Resistivity
 SP.MV                    00 002 00 00: Spontaneous Potential
~A        DEPT         RES          SP
# ...
      3164.996       1.191     -15.323
      3165.496       1.154     -15.446
      3165.996       1.108     -15.570
      3166.496       1.059     -15.693
      3166.996       1.058     -15.817
      3167.496       1.058     -15.941
      3167.996       1.058     -16.064
      3168.496       1.058     -16.188
      3168.996       1.127     -16.311
      3169.496       1.285     -16.435
      3169.996       1.379     -16.559
      3170.496       1.754     -16.682
      3170.996       1.897     -16.806
      3171.496       2.399     -16.929
      3171.996       2.417     -17.053
      3172.496       2.153     -16.868
      3172.996       1.857     -16.459
      3173.496       1.673     -16.051
      3173.996       1.533     -15.642
      3174.496       1.381     -15.233
      3174.996       1.224     -14.825
      3175.496       1.083     -14.416
      3175.996       1.025     -14.007
      3176.496       0.944     -13.598
      3176.996       0.900     -13.460
      3177.496       0.855     -12.710
      3177.996       0.843     -11.890
      3178.496       0.880     -11.638
      3178.996       0.944     -11.029
      3179.496       0.990     -11.030
      3179.996       0.990     -11.031
      3180.496       0.983     -11.033
      3180.996       0.931     -11.034
      3181.496       0.895     -11.035
      3181.996       0.862     -11.036
      3182.496       0.842     -11.037
      3182.996       0.827     -11.653
      3183.496       0.821     -12.364
      3183.996       0.821     -12.771
      3184.496       0.821     -13.076
      3184.996       0.821     -13.349
      3185.496       0.827     -13.907
      3185.996       0.866     -14.091
      3186.496       0.906     -14.092
      3186.996       0.934     -14.093
      3187.496       0.989     -14.094
      3187.996       0.998     -14.095
      3188.496       1.016     -14.096
      3188.996       1.016     -14.097
      3189.496       1.016     -14.099
      3189.996       1.016     -14.100
      3190.496       1.020     -14.101
      3190.996       1.024     -13.817
      3191.496       1.028     -13.328
      3191.996       1.032     -13.056
      3192.496       1.036     -12.886
      3192.996       1.040     -12.887
      3193.496       1.043     -12.851
      3193.996       1.043     -12.580
      3194.496       1.043     -12.309
      3194.996       1.043     -12.151
      3195.496       1.043     -11.331
      3195.996       1.043     -11.068
      3196.496       1.043     -11.069
      3196.996       1.043     -11.070
      3197.496       1.043     -11.071
      3197.996       1.042     -11.072
      3198.496       1.038     -11.073
      3198.996       1.018     -11.075
      3199.496       1.002     -11.076
      3199.996       0.998     -11.077
      3200.496       0.988     -11.078
      3200.996       0.983     -11.079
      3201.496       0.975     -11.080
      3201.996       0.972     -11.081
      3202.496       0.962     -11.082
      3202.996       0.962     -11.084
      3203.496       0.962     -11.085
      3203.996       0.985     -11.086
      3204.496       1.046     -11.087
      3204.996       1.077     -11.088
      3205.496       1.136     -11.089
      3205.996       1.194     -11.090
      3206.496       1.222     -11.091
      3206.996       1.193     -11.093
      3207.496       1.150     -11.094
      3207.996       1.064     -11.095
      3208.496       1.034     -11.239
      3208.996       1.028     -11.648
      3209.496       1.028     -11.708
      3209.996       1.017     -11.709
      3210.496       1.014     -11.710
      3210.996       1.014     -11.711
      3211.496       1.057     -11.713
      3211.996       1.085     -11.714
      3212.496       1.113     -11.715
      3212.996       1.113     -11.716
      3213.496       1.113     -11.717
      3213.996       1.093     -11.787
      3214.496       1.044     -12.197
      3214.996       1.007     -12.330
      3215.496       0.976     -12.331
      3215.996       0.947     -12.691
      3216.496       0.921     -12.940
      3216.996       0.896     -12.941
      3217.496       0.887     -12.942
      3217.996       0.922     -12.944
      3218.496       0.982     -12.945
      3218.996       1.062     -12.946
      3219.496       1.142     -12.947
      3219.996       1.222     -12.948
      3220.496       1.302     -12.949
      3220.996       1.382     -12.950
      3221.496       1.462     -12.951
      3221.996       1.634     -12.953
      3222.496       1.822     -12.977
      3222.996       1.841     -13.565
      3223.496       1.896     -13.554
      3223.996       1.896     -13.534
      3224.496       1.894     -13.514
      3224.996       1.812     -13.493
      3225.496       1.778     -13.473
      3225.996       1.759     -13.452
      3226.496       1.735     -13.432
      3226.996       1.701     -13.411
      3227.496       1.633     -13.391
      3227.996       1.617     -13.371
      3228.496       1.589     -13.350
      3228.996       1.573     -13.330
      3229.496       1.571     -13.309
      3229.996       1.552     -13.289
      3230.496       1.534     -13.269
      3230.996       1.532     -13.248
      3231.496       1.532     -13.228
      3231.996       2.515     -13.207
      3232.496       2.402     -13.187
      3232.996       2.289     -13.166
      3233.496       2.177     -13.146
      3233.996       2.111     -13.126
      3234.496       2.028     -13.105
      3234.996       1.919     -13.085
      3235.496       1.841     -13.065
      3235.996       1.774     -13.044
      3236.496       1.664     -13.024
      3236.996       1.631     -13.003
      3237.496       1.586     -12.988
      3237.996       1.531     -12.989
      3238.496       1.491     -12.990
      3238.996       1.473     -12.991
      3239.496       1.471     -12.992
      3239.996       1.471     -12.993
      3240.496       1.468     -12.995
      3240.996       1.451     -12.996
      3241.496       1.451     -12.997
      3241.996       1.451     -12.998
      3242.496       1.451     -12.999
      3242.996       1.470     -12.979
      3243.496       1.470     -12.572
      3243.996       1.470     -12.396
      3244.496       1.470     -12.397
      3244.996       1.470     -12.398
      3245.496       1.470     -12.399
      3245.996       1.497     -12.400
      3246.496       1.530     -12.402
      3246.996       1.530     -12.403
      3247.496       1.530     -12.404
      3247.996       1.524     -12.405
      3248.496       1.442     -12.406
      3248.996       1.355     -12.407
      3249.496       1.339     -12.408
      3249.996       1.339     -12.410
      3250.496       1.450     -12.411
      3250.996       1.450     -12.412
      3251.496       1.450     -12.413
      3251.996       1.439     -12.414
      3252.496       1.393     -12.415
      3252.996       1.346     -12.416
      3253.496       1.309     -12.418
      3253.996       1.266     -12.419
      3254.496       1.242     -12.420
      3254.996       1.219     -12.421
      3255.496       1.187     -12.422
      3255.996       1.187     -12.423
      3256.496       1.219     -12.424
      3256.996       1.281     -12.425
      3257.496       1.305     -12.427
      3257.996       1.321     -12.428
      3258.496       1.337     -12.429
      3258.996       1.356     -12.430
      3259.496       1.356     -12.431
      3259.996       1.356     -12.432
      3260.496       1.356     -12.399
      3260.996       1.356     -11.578
      3261.496       1.356     -11.216
      3261.996       1.341     -10.607
      3262.496       1.319     -10.608
      3262.996       1.306     -10.610
      3263.496       1.268     -10.001
      3263.996       1.237     -10.002
      3264.496       1.192     -10.003
      3264.996       1.140     -10.614
      3265.496       1.140     -10.615
      3265.996       1.140     -10.617
      3266.496       1.190     -10.618
      3266.996       1.202     -11.229
      3267.496       1.219     -11.230
