~Version Information
 VERS.                 2.0: 
 WRAP.                  NO: 
 END.                PETRA:IHS Markit
~Well Information Block
#MNEM.UNIT       Data Type    Information
#---------    -------------   ---------------------------------
 STRT.F           2232.9955:
 STOP.F          11856.9763:
 STEP.F              0.5000:
 NULL.              -999.25:
 COMP.                           : COMPANY
 FLD.       PLUM JELLY           : FIELD
 LOC.                            : LOCATION
 DATE.      24-JUN-2024          : DATE
 WELL.                           : Well Name
 LABL.      42001313930000                   : Well Label
 APIN.      42001313930000       : API Number
 UWI.       42001313930000       : Unique Well Number
 NUMB.      1                    : Well Number
 OPER.      BOIS D ARC INC       : Operator Name
 LEAS.      SACK TRUST GAS UNIT  : Lease Name
~Parameter Block
#MNEM.UNIT           VALUE            Description
#---------    --------------------   ---------------------------------
 EKB.F                   496.0 : KB Elevation
~Curve Information Block
#MNEM.UNIT      API CODE      Curve Description
#---------    -------------   ---------------------------------
 DEPT.F                   00 000 00 00: Depth (MD)
 RES.OHM.M                00 001 00 00: Medium Resistivity
 SP.MV                    00 002 00 00: Spontaneous Potential
~A        DEPT         RES          SP
# ...
      9133.996      21.787     -10.574
      9134.496      22.137     -10.621
      9134.996      22.488     -10.667
      9135.496      22.250     -10.713
      9135.996      21.653     -10.760
      9136.496      21.055     -10.806
      9136.996      20.457     -10.853
      9137.496      10.285     -10.899
      9137.996       9.724     -10.945
      9138.496       9.163     -10.992
      9138.996       8.603     -11.038
      9139.496       8.042     -11.084
      9139.996       7.481     -11.131
      9140.496       6.920     -11.177
      9140.996       6.359     -11.223
      9141.496       5.798     -11.270
      9141.996       5.238     -11.316
      9142.496       4.677     -11.363
      9142.996       4.116     -11.360
      9143.496       3.555     -11.262
      9143.996       2.994     -11.164
      9144.496       2.677     -11.065
      9144.996       4.059     -10.967
      9145.496       5.442     -10.869
      9145.996       6.824     -10.771
      9146.496       8.206     -10.673
      9146.996       9.588     -10.575
      9147.496       8.931     -10.477
      9147.996       7.030     -10.379
      9148.496       5.129     -10.281
      9148.996       3.228     -10.183
      9149.496       2.394     -10.085
      9149.996       2.355      -9.986
      9150.496       2.317      -9.889
      9150.996       2.278      -9.790
      9151.496       2.240      -9.692
      9151.996       2.201      -9.594
      9152.496       2.185      -9.496
      9152.996       2.291      -9.398
      9153.496       2.397      -9.300
      9153.996       2.503      -9.202
      9154.496       2.609      -9.104
      9154.996       3.745      -9.006
      9155.496       8.948      -8.908
      9155.996      13.954      -8.810
      9156.496      12.215      -8.711
      9156.996      10.475      -8.613
      9157.496       8.736      -8.515
      9157.996       6.996      -8.417
      9158.496       5.257      -8.319
      9158.996       4.019      -8.221
      9159.496       5.687      -8.305
      9159.996       7.355      -8.389
      9160.496       9.023      -8.474
      9160.996      10.690      -8.558
      9161.496      11.984      -8.642
      9161.996      10.963      -8.726
      9162.496       9.942      -8.810
      9162.996       8.921      -8.895
      9163.496       7.900      -8.979
      9163.996       6.879      -9.063
      9164.496       5.858      -9.147
      9164.996       5.261      -9.232
      9165.496       5.884      -9.172
      9165.996       6.506      -9.095
      9166.496       7.129      -9.019
      9166.996       7.751      -8.943
      9167.496       8.373      -8.867
      9167.996       8.996      -8.791
      9168.496       9.618      -8.715
      9168.996      10.241      -9.127
      9169.496      10.863      -9.583
      9169.996      11.486     -10.038
      9170.496      12.108     -10.494
      9170.996      10.342     -10.949
      9171.496       7.649     -11.405
      9171.996       6.767     -11.860
      9172.496       8.897     -12.316
      9172.996      10.499     -12.771
      9173.496       9.780     -13.226
      9173.996       9.060     -13.682
      9174.496       8.341     -14.137
      9174.996       7.621     -14.593
      9175.496       6.902     -15.048
      9175.996       6.182     -15.415
      9176.496       5.463     -15.242
      9176.996       4.743     -15.069
      9177.496       4.024     -14.897
      9177.996       4.093     -14.724
      9178.496       4.569     -14.551
      9178.996       5.044     -14.379
      9179.496       5.519     -14.206
      9179.996       5.994     -14.033
      9180.496       6.469     -13.861
      9180.996       6.944     -13.688
      9181.496       7.420     -13.515
      9181.996      10.296     -13.343
      9182.496      13.707     -13.170
      9182.996      17.118     -12.997
      9183.496      20.529     -12.825
      9183.996      23.940     -12.652
      9184.496      26.021     -12.479
      9184.996      23.724     -12.306
      9185.496      21.999     -12.134
      9185.996      22.432     -11.961
      9186.496      22.866     -11.788
      9186.996      23.177     -11.616
      9187.496      21.852     -11.443
      9187.996      20.526     -11.270
      9188.496      19.201     -11.098
      9188.996      17.875     -10.925
      9189.496      16.550     -10.752
      9189.996      15.225     -10.579
      9190.496      13.899     -10.407
      9190.996      12.574     -10.234
      9191.496      11.248     -10.279
      9191.996       9.923     -10.393
      9192.496       8.598     -10.508
      9192.996       7.272     -10.623
      9193.496       8.066     -10.738
      9193.996       9.055     -10.853
      9194.496      10.044     -10.967
      9194.996      11.034     -11.082
      9195.496      12.023     -11.197
      9195.996      13.012     -11.312
      9196.496      14.002     -11.427
      9196.996      14.991     -11.541
      9197.496      15.981     -11.656
      9197.996      16.970     -11.771
      9198.496      17.959     -11.886
      9198.996      17.852     -12.001
      9199.496      16.241     -12.116
      9199.996      14.629     -12.230
      9200.496      13.018     -12.345
      9200.996      11.406     -12.460
      9201.496       9.794     -12.575
      9201.996       8.183     -12.690
      9202.496       6.571     -12.804
      9202.996       4.960     -12.919
      9203.496       3.348     -13.034
      9203.996       2.032     -13.149
      9204.496       2.063     -13.264
      9204.996       2.095     -13.312
      9205.496       2.126     -13.359
      9205.996       2.158     -13.406
      9206.496       2.189     -13.454
      9206.996       2.191     -13.501
      9207.496       2.164     -13.548
      9207.996       2.137     -13.596
      9208.496       2.110     -13.643
      9208.996       2.063     -13.690
      9209.496       2.005     -13.738
      9209.996       1.947     -13.785
      9210.496       1.889     -13.832
      9210.996       1.831     -13.880
      9211.496       1.774     -13.927
      9211.996       1.716     -13.974
      9212.496       1.658     -14.021
      9212.996       2.420     -14.069
      9213.496       3.272     -14.116
      9213.996       4.124     -14.164
      9214.496       4.977     -14.211
      9214.996       5.191     -14.258
      9215.496       4.848     -14.306
      9215.996       4.505     -14.353
      9216.496       4.163     -14.400
      9216.996       3.820     -14.447
      9217.496       3.478     -14.495
      9217.996       3.135     -14.542
      9218.496       2.793     -14.589
      9218.996       2.932     -14.637
      9219.496       3.611     -14.684
      9219.996       4.291     -14.731
      9220.496       4.971     -14.703
      9220.996       5.651     -14.306
      9221.496       6.331     -13.910
      9221.996       7.011     -13.514
      9222.496       7.691     -13.117
      9222.996       8.371     -12.721
      9223.496       9.050     -12.325
      9223.996       9.730     -11.928
      9224.496      10.410     -11.532
      9224.996      11.090     -11.136
      9225.496      11.770     -10.739
      9225.996      12.136     -10.343
      9226.496      10.926      -9.947
      9226.996       9.717      -9.550
      9227.496       8.508      -9.154
      9227.996       7.298      -9.065
      9228.496       6.089      -9.116
      9228.996       4.879      -9.167
      9229.496       4.722      -9.218
      9229.996       4.732      -9.269
      9230.496       4.742      -9.320
      9230.996       4.752      -9.371
      9231.496       4.762      -9.422
      9231.996       4.881      -9.473
      9232.496       5.611      -9.524
      9232.996       6.340      -9.575
      9233.496       7.069      -9.626
      9233.996       7.201      -9.677
      9234.496       6.940      -9.728
      9234.996       6.679      -9.779
      9235.496       6.418      -9.830
      9235.996       6.157      -9.881
      9236.496      16.949      -9.932
