~Version Information
 VERS.                 2.0: 
 WRAP.                  NO: 
 END.                PETRA:IHS Markit
~Well Information Block
#MNEM.UNIT       Data Type    Information
#---------    -------------   ---------------------------------
 STRT.F           2031.9959:
 STOP.F          10833.9783:
 STEP.F              0.5000:
 NULL.              -999.25:
 COMP.                           : COMPANY
 FLD.       PURT WEST            : FIELD
 LOC.                            : LOCATION
 DATE.      24-JUN-2024          : DATE
 WELL.                           : Well Name
 LABL.      42001313820000                   : Well Label
 APIN.      42001313820000       : API Number
 UWI.       42001313820000       : Unique Well Number
 NUMB.      1                    : Well Number
 OPER.      MARSHALL EXPL CO INC : Operator Name
 LEAS.      BROOKSHIRE           : Lease Name
~Parameter Block
#MNEM.UNIT           VALUE            Description
#---------    --------------------   ---------------------------------
 EKB.F                   626.0 : KB Elevation
~Curve Information Block
#MNEM.UNIT      API CODE      Curve Description
#---------    -------------   ---------------------------------
 DEPT.F                   00 000 00 00: Depth (MD)
 RES.OHM.M                00 001 00 00: Medium Resistivity
 SP.MV                    00 002 00 00: Spontaneous Potential
~A        DEPT         RES          SP
# ...
      7799.996     339.451     -38.516
      7800.496     403.072     -38.672
      7800.996     377.868     -38.829
      7801.496     336.722     -38.986
      7801.996     295.576     -39.143
      7802.496     254.430     -39.168
      7802.996     213.284     -39.169
      7803.496     172.138     -39.170
      7803.996     130.993     -39.171
      7804.496     115.613     -39.172
      7804.996     140.091     -39.173
      7805.496     164.569     -39.175
      7805.996     189.046     -39.176
      7806.496     213.524     -39.177
      7806.996     238.001     -39.178
      7807.496     262.479     -39.179
      7807.996     253.063     -39.180
      7808.496     218.280     -39.181
      7808.996     183.498     -39.182
      7809.496     148.715     -38.898
      7809.996     113.932     -38.575
      7810.496      79.149     -38.576
      7810.996      44.366     -38.577
      7811.496      31.898     -38.578
      7811.996      34.620     -38.580
      7812.496      37.341     -38.277
      7812.996      40.063     -37.972
      7813.496      42.784     -37.973
      7813.996      45.505     -37.974
      7814.496      48.227     -37.752
      7814.996      50.948     -37.367
      7815.496      52.323     -37.368
      7815.996      49.732     -37.288
      7816.496      47.141     -37.016
      7816.996      44.550     -36.707
      7817.496      41.959     -36.153
      7817.996      39.367     -36.154
      7818.496      36.776     -36.083
      7818.996      34.185     -35.550
      7819.496      31.594     -35.551
      7819.996      29.003     -34.895
      7820.496      26.412     -34.486
      7820.996      23.821     -33.816
      7821.496      21.230     -33.116
      7821.996      19.954     -32.788
      7822.496      23.055     -32.512
      7822.996      26.157     -31.758
      7823.496      29.258     -31.295
      7823.996      32.360     -31.108
      7824.496      35.461     -30.835
      7824.996      38.563     -30.079
      7825.496      42.103     -30.080
      7825.996      46.441     -29.380
      7826.496      49.147     -28.972
      7826.996      47.788     -28.257
      7827.496      43.998     -28.258
      7827.996      39.606     -28.259
      7828.496      35.255     -28.261
      7828.996      32.989     -28.262
      7829.496      30.486     -28.263
      7829.996      27.842     -27.928
      7830.496      26.114     -27.503
      7830.996      24.222     -27.078
      7831.496      22.137     -26.652
      7831.996      20.301     -26.227
      7832.496      17.965     -25.802
      7832.996      15.438     -25.376
      7833.496      12.911     -24.951
      7833.996      10.385     -24.526
      7834.496       7.858     -24.101
      7834.996       5.331     -23.675
      7835.496      10.044     -23.250
      7835.996       9.133     -22.825
      7836.496       8.223     -22.399
      7836.996       7.313     -21.974
      7837.496       6.402     -21.549
      7837.996       5.492     -21.124
      7838.496       4.582     -20.698
      7838.996       4.834     -20.451
      7839.496       6.128     -20.860
      7839.996       7.422     -21.268
      7840.496       8.716     -21.677
      7840.996      10.088     -22.086
      7841.496      11.538     -22.495
      7841.996      12.988     -22.904
      7842.496      14.437     -23.313
      7842.996      14.974     -23.722
      7843.496      14.091     -24.232
      7843.996      13.209     -25.047
      7844.496      12.326     -25.861
      7844.996      11.443     -26.469
      7845.496      10.561     -27.491
      7845.996       9.678     -27.690
      7846.496       8.795     -27.692
      7846.996       8.820     -27.693
      7847.496      10.016     -27.694
      7847.996      11.213     -27.695
      7848.496      12.409     -27.696
      7848.996      12.969     -27.697
      7849.496      12.156     -27.698
      7849.996      11.342     -27.700
      7850.496      10.529     -27.701
      7850.996       9.716     -27.702
      7851.496       8.902     -27.703
      7851.996       9.170     -27.704
      7852.496      10.398     -27.705
      7852.996      11.627     -27.706
      7853.496      12.855     -27.707
      7853.996      13.225     -27.709
      7854.496      12.358     -27.710
      7854.996      11.492     -27.711
      7855.496      10.625     -28.322
      7855.996       9.759     -28.323
      7856.496       8.892     -28.324
      7856.996       8.026     -28.325
      7857.496       7.159     -28.326
      7857.996       6.293     -28.327
      7858.496       5.426     -28.328
      7858.996       4.560     -28.330
      7859.496       6.068     -28.331
      7859.996       9.038     -28.332
      7860.496       8.335     -28.333
      7860.996       7.632     -28.334
      7861.496       6.929     -28.335
      7861.996       6.227     -28.920
      7862.496       5.524     -29.557
      7862.996       4.821     -31.156
      7863.496       5.494     -31.971
      7863.996       6.749     -33.995
      7864.496       8.004     -35.187
      7864.996       9.259     -36.231
      7865.496      10.514     -37.653
      7865.996      11.769     -38.467
      7866.496      13.024     -39.919
      7866.996      14.278     -43.127
      7867.496      15.533     -46.112
      7867.996      16.788     -47.731
      7868.496      17.147     -51.026
      7868.996      16.412     -53.386
      7869.496      15.675     -55.767
      7869.996      14.940     -54.345
      7870.496      14.204     -53.107
      7870.996      13.468     -51.586
      7871.496      12.732     -50.026
      7871.996      12.194     -48.793
      7872.496      12.194     -46.641
      7872.996      12.982     -44.985
      7873.496      13.747     -41.934
      7873.996      15.498     -39.904
      7874.496      15.724     -39.358
      7874.996      12.147     -38.813
      7875.496      10.571     -38.038
      7875.996       9.911     -37.217
      7876.496       8.882     -36.397
      7876.996       7.652     -35.576
      7877.496       7.237     -34.755
      7877.996       7.050     -33.935
      7878.496       6.918     -33.245
      7878.996       9.953     -32.293
      7879.496       9.035     -31.422
      7879.996       8.117     -31.423
      7880.496       7.199     -31.424
      7880.996       6.281     -31.425
      7881.496       5.363     -30.727
      7881.996       4.640     -30.319
      7882.496       4.825     -30.209
      7882.996       5.010     -29.402
      7883.496       4.988     -28.995
      7883.996       4.588     -28.986
      7884.496       4.207     -28.387
      7884.996       3.980     -28.389
      7885.496       3.618     -28.390
      7885.996       3.309     -28.391
      7886.496       3.222     -28.392
      7886.996       3.560     -28.393
      7887.496       8.335     -28.394
      7887.996      14.144     -28.395
      7888.496      19.953     -28.396
      7888.996      21.753     -28.466
      7889.496      18.827     -28.671
      7889.996      15.902     -28.876
      7890.496      12.976     -28.902
      7890.996      10.051     -28.588
      7891.496       7.126     -28.274
      7891.996       4.200     -27.960
      7892.496       2.948     -27.646
      7892.996       3.367     -27.332
      7893.496       3.786     -27.018
      7893.996       4.205     -26.704
      7894.496       4.624     -26.390
      7894.996       5.043     -26.076
      7895.496       5.463     -25.762
      7895.996       5.538     -25.448
      7896.496       5.400     -25.134
      7896.996       5.263     -24.820
      7897.496       5.125     -24.506
      7897.996       4.987     -24.192
      7898.496       4.849     -23.878
      7898.996       4.712     -23.564
      7899.496       4.574     -23.250
      7899.996       4.399     -22.941
      7900.496       4.212     -22.942
      7900.996       4.025     -22.943
      7901.496       3.838     -22.335
      7901.996       3.651     -22.095
      7902.496       3.464     -21.727
