~Version Information
 VERS.                 2.0: 
 WRAP.                  NO: 
 END.                PETRA:IHS Markit
~Well Information Block
#MNEM.UNIT       Data Type    Information
#---------    -------------   ---------------------------------
 STRT.F           1965.9961:
 STOP.F          11003.9780:
 STEP.F              0.5000:
 NULL.              -999.25:
 COMP.                           : COMPANY
 FLD.       WILDCAT              : FIELD
 LOC.                            : LOCATION
 DATE.      24-JUN-2024          : DATE
 WELL.                           : Well Name
 LABL.      42001312650000                   : Well Label
 APIN.      42001312650000       : API Number
 UWI.       42001312650000       : Unique Well Number
 NUMB.      1                    : Well Number
 OPER.      MAY PETROLEUM INC    : Operator Name
 LEAS.      COOK R R             : Lease Name
~Parameter Block
#MNEM.UNIT           VALUE            Description
#---------    --------------------   ---------------------------------
 EKB.F                   595.0 : KB Elevation
~Curve Information Block
#MNEM.UNIT      API CODE      Curve Description
#---------    -------------   ---------------------------------
 DEPT.F                   00 000 00 00: Depth (MD)
 RES.OHM.M                00 001 00 00: Medium Resistivity
 SP.MV                    00 002 00 00: Spontaneous Potential
~A        DEPT         RES          SP
# ...
      4952.996       3.137     -12.707
      4953.496       3.235     -13.000
      4953.996       3.633     -13.559
      4954.496       3.942     -13.558
      4954.996       4.169     -13.558
      4955.496       4.338     -13.480
      4955.996       4.286     -12.604
      4956.496       4.089     -12.314
      4956.996       3.947     -11.854
      4957.496       3.810     -11.854
      4957.996       3.599     -11.853
      4958.496       3.329     -11.366
      4958.996       3.282     -11.074
      4959.496       3.343     -10.575
      4959.996       3.588     -10.575
      4960.496       3.969     -10.574
      4960.996       3.825     -10.574
      4961.496       3.623     -10.573
      4961.996       3.503     -10.573
      4962.496       3.324     -10.572
      4962.996       3.160     -10.572
      4963.496       3.139     -10.572
      4963.996       3.245     -10.571
      4964.496       3.425     -10.571
      4964.996       3.609     -10.570
      4965.496       3.793     -10.202
      4965.996       3.667      -9.813
      4966.496       3.532      -9.425
      4966.996       3.396      -9.036
      4967.496       3.261      -8.647
      4967.996       3.125      -8.259
      4968.496       2.990      -7.870
      4968.996       2.880      -7.481
      4969.496       2.880      -7.093
      4969.996       2.890      -6.704
      4970.496       2.944      -6.316
      4970.996       3.247      -6.431
      4971.496       3.425      -6.553
      4971.996       3.763      -6.676
      4972.496       3.800      -6.799
      4972.996       3.800      -6.922
      4973.496       3.800      -7.044
      4973.996       3.684      -7.167
      4974.496       3.401      -7.290
      4974.996       3.118      -7.413
      4975.496       2.835      -7.535
      4975.996       2.854      -7.582
      4976.496       3.170      -7.581
      4976.996       3.486      -8.006
      4977.496       3.801      -8.005
      4977.996       4.117      -8.432
      4978.496       4.052      -8.432
      4978.996       3.939      -8.431
      4979.496       3.826      -8.431
      4979.996       3.713      -8.431
      4980.496       3.600      -8.851
      4980.996       3.572      -9.279
      4981.496       3.788      -9.847
      4981.996       4.004     -10.135
      4982.496       4.220     -10.701
      4982.996       4.436     -11.689
      4983.496       4.652     -12.316
      4983.996       4.745     -13.108
      4984.496       4.588     -12.255
      4984.996       4.433     -11.830
      4985.496       4.277     -11.405
      4985.996       4.121     -11.404
      4986.496       3.965     -11.404
      4986.996       3.809     -11.618
      4987.496       3.838     -12.007
      4987.996       4.108     -12.677
      4988.496       4.396     -12.677
      4988.996       4.477     -12.676
      4989.496       4.560     -12.676
      4989.996       4.589     -12.675
      4990.496       4.555     -12.675
      4990.996       4.496     -12.395
      4991.496       4.442     -11.958
      4991.996       4.378     -11.386
      4992.496       4.335     -11.094
      4992.996       4.258     -10.803
      4993.496       4.211     -10.512
      4993.996       3.978     -10.222
      4994.496       3.780      -9.348
      4994.996       3.816      -9.267
      4995.496       4.051      -9.267
      4995.996       4.182      -9.266
      4996.496       4.440      -9.266
      4996.996       4.440      -9.265
      4997.496       4.440      -9.265
      4997.996       4.440      -9.265
      4998.496       4.230      -9.264
      4998.996       4.141      -9.264
      4999.496       3.989      -9.263
      4999.996       3.847      -9.263
      5000.496       3.477      -9.191
      5000.996       3.287      -8.837
      5001.496       3.046      -8.646
      5001.996       3.046      -8.299
      5002.496       3.094      -7.984
      5002.996       3.280      -7.983
      5003.496       3.428      -7.983
      5003.996       3.575      -7.982
      5004.496       3.722      -7.982
      5004.996       3.869      -7.982
      5005.496       4.017      -7.981
      5005.996       4.143      -7.981
      5006.496       4.259      -7.980
      5006.996       4.376      -7.980
      5007.496       4.492      -7.979
      5007.996       4.608      -7.979
      5008.496       4.682      -7.979
      5008.996       4.635      -7.978
      5009.496       4.588      -7.978
      5009.996       4.542      -8.041
      5010.496       4.495      -8.131
      5010.996       4.448      -8.222
      5011.496       4.401      -8.312
      5011.996       4.354      -8.402
      5012.496       4.307      -8.493
      5012.996       4.260      -8.583
      5013.496       4.213      -8.674
      5013.996       4.292      -8.764
      5014.496       4.465      -8.855
      5014.996       4.521      -8.945
      5015.496       4.553      -9.036
      5015.996       4.592      -9.126
      5016.496       4.644      -9.216
      5016.996       4.644      -9.359
      5017.496       4.644      -9.531
      5017.996       4.483      -9.703
      5018.496       4.443      -9.875
      5018.996       4.292     -10.046
      5019.496       4.149     -10.218
      5019.996       4.196     -10.390
      5020.496       4.374     -10.562
      5020.996       4.552     -10.733
      5021.496       4.730     -10.905
      5021.996       4.715     -11.077
      5022.496       4.678     -11.249
      5022.996       4.642     -11.421
      5023.496       4.605     -11.592
      5023.996       4.568     -11.764
      5024.496       4.531     -11.839
      5024.996       4.495     -12.407
      5025.496       4.458     -13.072
      5025.996       4.421     -13.071
      5026.496       4.384     -13.071
      5026.996       4.348     -13.070
      5027.496       4.311     -13.070
      5027.996       4.274     -12.952
      5028.496       4.237     -12.661
      5028.996       4.219     -12.217
      5029.496       4.421     -12.216
      5029.996       4.697     -12.216
      5030.496       4.483     -11.634
      5030.996       4.297     -10.720
      5031.496       4.078      -9.663
      5031.996       3.886      -9.125
      5032.496       3.672      -8.834
      5032.996       3.639      -8.809
      5033.496       3.574      -8.809
      5033.996       3.578      -8.809
      5034.496       3.678      -9.490
      5034.996       4.963     -10.197
      5035.496       4.947     -10.904
      5035.996       4.870     -10.837
      5036.496       4.792     -10.736
      5036.996       4.715     -10.636
      5037.496       4.637     -10.534
      5037.996       4.560     -10.434
      5038.496       4.483     -10.333
      5038.996       4.445     -10.232
      5039.496       4.287     -10.131
      5039.996       4.068     -10.030
      5040.496       4.023      -9.929
      5040.996       4.023      -9.828
      5041.496       4.023      -9.727
      5041.996       4.308      -9.626
      5042.496       4.536      -9.525
      5042.996       4.603      -9.424
      5043.496       4.525      -9.323
      5043.996       4.447      -8.780
      5044.496       4.370      -8.374
      5044.996       4.292      -8.374
      5045.496       4.215      -7.946
      5045.996       4.137      -7.946
      5046.496       4.069      -7.946
      5046.996       4.069      -7.857
      5047.496       4.090      -7.520
      5047.996       4.415      -7.519
      5048.496       4.537      -7.519
      5048.996       4.701      -7.519
      5049.496       4.912      -7.518
      5049.996       4.912      -7.368
      5050.496       4.671      -7.092
      5050.996       4.449      -7.092
      5051.496       4.301      -7.091
      5051.996       4.301      -7.091
      5052.496       4.528      -7.091
      5052.996       4.653      -7.090
      5053.496       4.700      -7.090
      5053.996       4.700      -7.089
      5054.496       4.677      -7.089
      5054.996       4.397      -7.088
      5055.496       4.349      -7.088
