~Version Information
 VERS.                 2.0: 
 WRAP.                  NO: 
 END.                PETRA:IHS Markit
~Well Information Block
#MNEM.UNIT       Data Type    Information
#---------    -------------   ---------------------------------
 STRT.F           2031.9959:
 STOP.F          10833.9783:
 STEP.F              0.5000:
 NULL.              -999.25:
 COMP.                           : COMPANY
 FLD.       PURT WEST            : FIELD
 LOC.                            : LOCATION
 DATE.      24-JUN-2024          : DATE
 WELL.                           : Well Name
 LABL.      42001313820000                   : Well Label
 APIN.      42001313820000       : API Number
 UWI.       42001313820000       : Unique Well Number
 NUMB.      1                    : Well Number
 OPER.      MARSHALL EXPL CO INC : Operator Name
 LEAS.      BROOKSHIRE           : Lease Name
~Parameter Block
#MNEM.UNIT           VALUE            Description
#---------    --------------------   ---------------------------------
 EKB.F                   626.0 : KB Elevation
~Curve Information Block
#MNEM.UNIT      API CODE      Curve Description
#---------    -------------   ---------------------------------
 DEPT.F                   00 000 00 00: Depth (MD)
 RES.OHM.M                00 001 00 00: Medium Resistivity
 SP.MV                    00 002 00 00: Spontaneous Potential
~A        DEPT         RES          SP
# ...
      9550.996      11.558     -44.954
      9551.496      12.360     -45.198
      9551.996      13.219     -46.015
      9552.496      14.638     -46.177
      9552.996      12.672     -47.477
      9553.496      10.621     -47.750
      9553.996       8.560     -48.006
      9554.496       7.109     -48.617
      9554.996       5.658     -49.228
      9555.496       4.208     -49.839
      9555.996      10.711     -50.712
      9556.496      27.406     -51.057
      9556.996      24.827     -51.059
      9557.496      20.224     -51.060
      9557.996      15.621     -50.324
      9558.496      11.018     -49.039
      9558.996       7.301     -48.018
      9559.496       5.750     -47.497
      9559.996       4.200     -47.043
      9560.496       2.649     -46.195
      9560.996       1.657     -45.586
      9561.496       1.880     -45.587
      9561.996       2.103     -45.230
      9562.496       2.326     -44.980
      9562.996       2.549     -44.981
      9563.496       2.771     -44.372
      9563.996       2.953     -44.373
      9564.496       2.819     -44.375
      9564.996       2.686     -44.376
      9565.496       2.552     -44.377
      9565.996       2.418     -44.378
      9566.496       2.285     -44.379
      9566.996       2.151     -44.380
      9567.496       2.018     -44.382
      9567.996       1.884     -44.383
      9568.496       1.750     -44.384
      9568.996       1.720     -44.385
      9569.496       1.913     -44.386
      9569.996       2.013     -44.387
      9570.496       2.138     -44.388
      9570.996       2.411     -44.389
      9571.496       3.152     -44.391
      9571.996       3.739     -44.392
      9572.496       4.325     -44.393
      9572.996       4.912     -44.394
      9573.496       5.626     -44.110
      9573.996       7.006     -43.622
      9574.496      14.133     -43.351
      9574.996      22.458     -43.182
      9575.496      30.783     -42.666
      9575.996      39.108     -42.210
      9576.496      41.832     -41.966
      9576.996      34.978     -41.967
      9577.496      28.125     -41.218
      9577.996      21.271     -40.750
      9578.496      14.417     -40.186
      9578.996       7.563     -40.142
      9579.496       4.379     -40.144
      9579.996       3.866     -40.145
      9580.496      16.519     -40.146
      9580.996      29.171     -40.147
      9581.496      41.823     -40.148
      9581.996      54.475     -40.149
      9582.496      67.127     -40.150
      9582.996      79.780     -40.610
      9583.496      92.432     -41.223
      9583.996      97.824     -41.836
      9584.496     100.311     -42.294
      9584.996     101.292     -42.703
      9585.496      94.028     -43.112
      9585.996      82.201     -43.820
      9586.496      68.592     -44.093
      9586.996      61.675     -44.366
      9587.496      55.127     -44.746
      9587.996      48.579     -45.038
      9588.496      42.031     -45.483
      9588.996      35.483     -45.650
      9589.496      28.935     -45.651
      9589.996      22.387     -45.652
      9590.496      15.839     -45.653
      9590.996      14.962     -45.654
      9591.496      16.149     -45.655
      9591.996      17.336     -45.657
      9592.496      18.523     -45.658
      9592.996      19.710     -45.659
      9593.496      20.897     -47.222
      9593.996      22.084     -47.631
      9594.496      23.271     -48.040
      9594.996      22.318     -48.449
      9595.496      17.877     -48.857
      9595.996      13.435     -49.266
      9596.496       8.993     -49.675
      9596.996       4.551     -50.084
      9597.496       2.182     -50.493
      9597.996       2.061     -49.572
      9598.496       1.940     -48.476
      9598.996       1.819     -47.380
      9599.496       1.698     -46.284
      9599.996       1.577     -45.675
      9600.496       1.456     -45.676
      9600.996       1.335     -45.677
      9601.496       5.147     -45.678
      9601.996      12.321     -45.679
      9602.496      19.496     -45.680
      9602.996      26.670     -45.681
      9603.496      33.844     -46.284
      9603.996      41.019     -46.394
      9604.496      48.193     -46.801
      9604.996      44.395     -46.902
      9605.496      37.079     -46.903
      9605.996      29.764     -46.904
      9606.496      22.448     -47.515
      9606.996      15.133     -47.517
      9607.496       7.818     -47.518
      9607.996       1.940     -48.129
      9608.496       3.638     -48.130
      9608.996       4.583     -48.131
      9609.496       3.965     -48.132
      9609.996       3.347     -48.133
      9610.496       2.729     -48.134
      9610.996       2.111     -48.135
      9611.496       2.012     -48.136
      9611.996       2.012     -48.138
      9612.496       2.600     -48.139
      9612.996       3.185     -48.140
      9613.496       3.741     -48.141
      9613.996       4.298     -48.142
      9614.496      10.850     -48.143
      9614.996       2.508     -48.144
      9615.496       2.373     -47.536
      9615.996       2.239     -47.537
      9616.496       2.105     -47.538
      9616.996       1.971     -47.539
      9617.496       1.836     -47.540
      9617.996       1.702     -46.986
      9618.496       1.568     -46.933
      9618.996       1.434     -46.934
      9619.496       1.300     -46.935
      9619.996       1.302     -46.936
      9620.496       1.359     -46.937
      9620.996       1.417     -46.938
      9621.496       1.474     -46.940
      9621.996       1.531     -46.941
      9622.496       2.592     -46.942
      9622.996       8.591     -46.943
      9623.496      15.848     -46.944
      9623.996      23.106     -46.945
      9624.496      30.363     -46.946
      9624.996      37.620     -46.947
      9625.496      36.579     -46.949
      9625.996      30.679     -46.950
      9626.496      24.779     -46.951
      9626.996      18.878     -46.952
      9627.496      12.978     -46.953
      9627.996       7.077     -46.954
      9628.496       2.080     -46.955
      9628.996       2.186     -46.957
      9629.496       2.292     -46.958
      9629.996       2.398     -46.942
      9630.496       2.505     -46.768
      9630.996       2.611     -46.594
      9631.496       4.724     -46.420
      9631.996       5.523     -46.246
      9632.496       6.322     -46.072
      9632.996       7.122     -45.898
      9633.496       7.921     -45.724
      9633.996       8.720     -45.549
      9634.496       9.520     -45.375
      9634.996      14.512     -45.201
      9635.496      45.785     -45.027
      9635.996      77.059     -44.853
      9636.496     108.333     -44.679
      9636.996     111.550     -44.505
      9637.496      93.768     -44.331
      9637.996      75.986     -44.156
      9638.496      58.203     -43.982
      9638.996      40.421     -43.808
      9639.496      22.639     -43.634
      9639.996       7.158     -43.460
      9640.496       9.068     -43.356
      9640.996      10.979     -43.455
      9641.496      12.889     -43.554
      9641.996      14.799     -43.653
      9642.496      16.709     -43.752
      9642.996      18.564     -43.851
      9643.496      17.130     -43.950
      9643.996      15.696     -44.049
      9644.496      14.262     -44.148
      9644.996      12.828     -44.248
      9645.496      11.394     -44.347
      9645.996       9.960     -44.446
      9646.496       8.784     -44.545
      9646.996       7.924     -44.644
      9647.496       7.454     -44.743
      9647.996       6.986     -44.842
      9648.496       6.518     -44.941
      9648.996       6.231     -45.041
      9649.496       6.312     -45.140
      9649.996       7.842     -45.224
      9650.496      11.796     -45.300
      9650.996      13.479     -45.375
      9651.496      15.163     -45.451
      9651.996      16.418     -45.526
      9652.496      17.660     -45.602
      9652.996      18.902     -45.677
      9653.496      20.143     -45.753
