~Version Information
 VERS.                 2.0: 
 WRAP.                  NO: 
 END.                PETRA:IHS Markit
~Well Information Block
#MNEM.UNIT       Data Type    Information
#---------    -------------   ---------------------------------
 STRT.F           1965.9961:
 STOP.F          11003.9780:
 STEP.F              0.5000:
 NULL.              -999.25:
 COMP.                           : COMPANY
 FLD.       WILDCAT              : FIELD
 LOC.                            : LOCATION
 DATE.      24-JUN-2024          : DATE
 WELL.                           : Well Name
 LABL.      42001312650000                   : Well Label
 APIN.      42001312650000       : API Number
 UWI.       42001312650000       : Unique Well Number
 NUMB.      1                    : Well Number
 OPER.      MAY PETROLEUM INC    : Operator Name
 LEAS.      COOK R R             : Lease Name
~Parameter Block
#MNEM.UNIT           VALUE            Description
#---------    --------------------   ---------------------------------
 EKB.F                   595.0 : KB Elevation
~Curve Information Block
#MNEM.UNIT      API CODE      Curve Description
#---------    -------------   ---------------------------------
 DEPT.F                   00 000 00 00: Depth (MD)
 RES.OHM.M                00 001 00 00: Medium Resistivity
 SP.MV                    00 002 00 00: Spontaneous Potential
~A        DEPT         RES          SP
# ...
     10926.996       5.080     -27.096
     10927.496       5.285     -26.246
     10927.996       5.490     -25.819
     10928.496       5.696     -25.818
     10928.996       5.901     -26.621
     10929.496       6.106     -28.052
     10929.996       6.311     -28.860
     10930.496       6.517     -32.302
     10930.996       6.722     -35.260
     10931.496       6.927     -37.592
     10931.996       7.133     -38.710
     10932.496       7.338     -39.832
     10932.996       8.126     -43.766
     10933.496       9.287     -44.753
     10933.996      10.447     -46.823
     10934.496      10.066     -47.986
     10934.996       9.271     -48.552
     10935.496       8.476     -49.119
     10935.996       7.682     -50.108
     10936.496       6.887     -51.092
     10936.996       6.092     -51.661
     10937.496       5.298     -53.507
     10937.996       4.887     -55.241
     10938.496       4.820     -55.527
     10938.996       4.752     -56.445
     10939.496       4.685     -56.870
     10939.996       4.617     -57.294
     10940.496       4.550     -57.294
     10940.996       4.482     -56.356
     10941.496       4.415     -55.981
     10941.996       4.347     -55.607
     10942.496       4.279     -55.233
     10942.996       4.212     -54.858
     10943.496       4.245     -54.484
     10943.996       4.472     -54.109
     10944.496       4.935     -53.735
     10944.996       5.678     -52.403
     10945.496       5.897     -48.468
     10945.996       5.072     -44.533
     10946.496       4.680     -40.598
     10946.996       4.288     -38.776
     10947.496       3.896     -37.146
     10947.996       3.572     -35.516
     10948.496       4.152     -33.886
     10948.996       4.732     -32.256
     10949.496       5.311     -30.328
     10949.996       5.891     -29.631
     10950.496       6.471     -28.778
     10950.996       8.057     -28.140
     10951.496       9.690     -27.927
     10951.996      10.703     -27.075
     10952.496       9.710     -27.573
     10952.996       8.716     -29.061
     10953.496       7.723     -30.558
     10953.996       6.730     -31.127
     10954.496       5.736     -31.695
     10954.996       7.022     -32.680
     10955.496       8.592     -33.249
     10955.996      10.163     -34.236
     10956.496      11.733     -34.730
     10956.996      11.197     -34.730
     10957.496       8.678     -34.730
     10957.996       6.160     -34.729
     10958.496       5.039     -34.978
     10958.996       5.974     -35.545
     10959.496       6.909     -36.112
     10959.996       7.844     -36.679
     10960.496       8.779     -37.246
     10960.996       9.714     -38.119
     10961.496      10.349     -39.011
     10961.996       9.751     -39.902
     10962.496       9.152     -40.794
     10962.996       8.553     -41.685
     10963.496       7.955     -42.577
     10963.996       7.356     -43.468
     10964.496       6.757     -44.360
     10964.996       6.159     -45.251
     10965.496       5.560     -46.279
     10965.996       4.864     -49.531
     10966.496       4.488     -50.767
     10966.996       4.362     -51.740
     10967.496       4.830     -51.740
     10967.996       5.461     -51.739
     10968.496       5.993     -51.696
     10968.996       6.374     -50.902
     10969.496       7.786     -49.715
     10969.996       9.219     -46.771
     10970.496       9.506     -45.581
     10970.996       9.122     -42.203
     10971.496       8.503     -39.978
     10971.996       7.885     -35.877
     10972.496       7.266     -34.717
     10972.996       6.648     -34.333
     10973.496       6.029     -33.317
     10973.996       5.410     -33.014
     10974.496       4.903     -31.714
     10974.996       4.503     -31.220
     10975.496       3.965     -30.928
     10975.996       3.315     -29.526
     10976.496       3.072     -29.180
     10976.996       2.961     -25.878
     10977.496       2.770     -29.816
     10977.996       3.041     -30.934
     10978.496       3.518     -33.424
     10978.996       3.994     -34.509
     10979.496       4.470     -35.262
     10979.996       5.970     -36.878
     10980.496       8.553     -37.729
     10980.996      10.470     -38.297
     10981.496      11.768     -38.538
     10981.996      13.066     -38.537
     10982.496      14.365     -38.537
     10982.996      15.663     -38.355
     10983.496      16.961     -37.584
     10983.996      17.297     -35.999
     10984.496      13.272     -35.106
     10984.996       9.247     -32.839
     10985.496       5.222     -31.789
     10985.996       3.918     -28.747
     10986.496       3.405     -28.747
     10986.996       2.891     -28.746
     10987.496       2.749     -28.746
     10987.996       3.260     -28.745
     10988.496       3.771     -28.629
     10988.996       4.282     -27.257
     10989.496       4.502     -25.855
     10989.996       4.369     -24.253
     10990.496       4.237     -23.176
     10990.996       4.104     -22.098
     10991.496       3.971     -21.021
     10991.996       3.838     -19.943
     10992.496       3.706     -18.866
     10992.996       3.573     -17.788
     10993.496       3.440     -16.710
     10993.996       3.307     -15.720
     10994.496       3.175     -14.918
     10994.996       3.062     -14.116
     10995.496       3.062     -13.314
     10995.996       3.197     -12.511
     10996.496       3.452     -11.709
     10996.996       3.651     -10.907
     10997.496       4.392     -10.104
     10997.996       5.146      -9.545
     10998.496       5.901      -9.416
     10998.996       6.655      -9.286
     10999.496       7.063      -9.157
     10999.996       7.128      -9.028
     11000.496       7.193      -8.899
     11000.996       7.258      -8.770
     11001.496       7.284     -999.25
     11001.996       7.303     -999.25
     11002.496       7.322     -999.25
     11002.996       7.341     -999.25
     11003.496       7.349     -999.25
     11003.996       7.308     -999.25
