~Version Information
 VERS.                 2.0: 
 WRAP.                  NO: 
 END.                PETRA:IHS Markit
~Well Information Block
#MNEM.UNIT       Data Type    Information
#---------    -------------   ---------------------------------
 STRT.F           1965.9961:
 STOP.F          11003.9780:
 STEP.F              0.5000:
 NULL.              -999.25:
 COMP.                           : COMPANY
 FLD.       WILDCAT              : FIELD
 LOC.                            : LOCATION
 DATE.      24-JUN-2024          : DATE
 WELL.                           : Well Name
 LABL.      42001312650000                   : Well Label
 APIN.      42001312650000       : API Number
 UWI.       42001312650000       : Unique Well Number
 NUMB.      1                    : Well Number
 OPER.      MAY PETROLEUM INC    : Operator Name
 LEAS.      COOK R R             : Lease Name
~Parameter Block
#MNEM.UNIT           VALUE            Description
#---------    --------------------   ---------------------------------
 EKB.F                   595.0 : KB Elevation
~Curve Information Block
#MNEM.UNIT      API CODE      Curve Description
#---------    -------------   ---------------------------------
 DEPT.F                   00 000 00 00: Depth (MD)
 RES.OHM.M                00 001 00 00: Medium Resistivity
 SP.MV                    00 002 00 00: Spontaneous Potential
~A        DEPT         RES          SP
# ...
      3201.996       1.713     -25.715
      3202.496       1.714     -25.526
      3202.996       1.725     -25.181
      3203.496       1.736     -24.596
      3203.996       1.746     -24.011
      3204.496       1.757     -23.720
      3204.996       1.768     -23.586
      3205.496       1.778     -23.354
      3205.996       1.789     -23.160
      3206.496       1.800     -23.160
      3206.996       1.811     -23.159
      3207.496       1.821     -23.159
      3207.996       1.832     -23.158
      3208.496       1.843     -23.158
      3208.996       1.860     -23.157
      3209.496       1.877     -23.157
      3209.996       1.903     -23.157
      3210.496       1.970     -23.156
      3210.996       1.920     -23.156
      3211.496       1.797     -23.155
      3211.996       1.694     -23.155
      3212.496       1.600     -23.154
      3212.996       1.597     -23.154
      3213.496       1.656     -23.154
      3213.996       1.752     -23.153
      3214.496       1.897     -23.355
      3214.996       1.953     -23.577
      3215.496       1.971     -23.577
      3215.996       1.923     -23.576
      3216.496       1.854     -23.576
      3216.996       1.788     -23.575
      3217.496       1.708     -23.575
      3217.996       1.642     -23.575
      3218.496       1.585     -23.574
      3218.996       1.480     -23.574
      3219.496       1.414     -22.721
      3219.996       1.365     -22.548
      3220.496       1.327     -22.295
      3220.996       1.218     -21.870
      3221.496       1.145     -21.870
      3221.996       1.138     -21.502
      3222.496       1.242     -21.444
      3222.996       1.301     -21.443
      3223.496       1.455     -21.443
      3223.996       1.406     -21.443
      3224.496       1.356     -21.442
      3224.996       1.358     -21.442
      3225.496       1.484     -21.441
      3225.996       1.600     -21.441
      3226.496       1.685     -21.440
      3226.996       1.741     -21.440
      3227.496       1.798     -21.439
      3227.996       1.931     -21.439
      3228.496       1.963     -21.539
      3228.996       1.990     -21.825
      3229.496       1.993     -21.863
      3229.996       1.993     -21.973
      3230.496       1.962     -22.259
      3230.996       1.859     -22.286
      3231.496       1.845     -22.286
      3231.996       1.881     -22.285
      3232.496       1.947     -22.710
      3232.996       2.047     -22.709
      3233.496       2.112     -22.709
      3233.996       2.191     -22.709
      3234.496       2.250     -22.998
      3234.996       2.277     -23.560
      3235.496       2.277     -23.559
      3235.996       2.277     -23.559
      3236.496       2.224     -23.558
      3236.996       2.131     -23.558
      3237.496       2.079     -23.888
      3237.996       2.007     -24.037
      3238.496       1.871     -24.407
      3238.996       1.778     -24.406
      3239.496       1.765     -24.406
      3239.996       1.887     -24.405
      3240.496       1.988     -24.405
      3240.996       2.062     -24.404
      3241.496       2.062     -24.404
      3241.996       1.916     -24.404
      3242.496       1.818     -24.403
      3242.996       1.726     -23.470
      3243.496       1.637     -23.308
      3243.996       1.521     -23.145
      3244.496       1.429     -22.983
      3244.996       1.379     -22.820
      3245.496       1.289     -22.658
      3245.996       1.228     -22.495
      3246.496       1.201     -22.333
      3246.996       1.172     -22.170
      3247.496       1.139     -22.008
      3247.996       1.106     -21.845
      3248.496       1.087     -21.682
      3248.996       1.049     -21.520
      3249.496       1.026     -21.357
      3249.996       1.052     -21.195
      3250.496       1.164     -21.032
      3250.996       1.290     -20.870
      3251.496       1.580     -20.707
      3251.996       2.034     -20.566
      3252.496       1.883     -20.566
      3252.996       1.692     -20.565
      3253.496       1.500     -20.565
      3253.996       1.309     -20.564
      3254.496       1.118     -20.564
      3254.996       1.034     -20.564
      3255.496       1.027     -20.563
      3255.996       1.020     -20.563
      3256.496       1.013     -20.562
      3256.996       1.006     -20.562
      3257.496       1.004     -20.561
      3257.996       1.004     -20.561
      3258.496       1.004     -20.561
      3258.996       1.014     -20.560
      3259.496       1.033     -20.560
      3259.996       1.049     -20.559
      3260.496       1.071     -20.559
      3260.996       1.088     -20.558
      3261.496       1.099     -20.558
      3261.996       1.109     -20.558
      3262.496       1.109     -20.557
      3262.996       1.109     -20.557
      3263.496       1.109     -20.556
      3263.996       1.109     -20.556
      3264.496       1.109     -20.555
      3264.996       1.109     -20.555
      3265.496       1.109     -20.554
      3265.996       1.109     -20.554
      3266.496       1.109     -20.554
      3266.996       1.109     -20.553
      3267.496       1.109     -20.553
      3267.996       1.109     -20.552
      3268.496       1.109     -20.552
      3268.996       1.109     -20.551
      3269.496       1.109     -20.551
      3269.996       1.085     -20.550
      3270.496       1.079     -20.550
      3270.996       1.038     -20.550
      3271.496       1.038     -20.549
      3271.996       1.038     -20.549
      3272.496       1.038     -20.548
      3272.996       1.038     -20.548
      3273.496       1.038     -20.547
      3273.996       1.049     -20.547
      3274.496       1.068     -20.547
      3274.996       1.073     -20.546
      3275.496       1.073     -20.546
      3275.996       1.085     -20.545
      3276.496       1.085     -20.545
      3276.996       1.085     -20.544
      3277.496       1.085     -20.544
      3277.996       1.085     -20.544
      3278.496       1.085     -20.543
      3278.996       1.085     -20.543
      3279.496       1.085     -20.542
      3279.996       1.085     -20.542
      3280.496       1.085     -20.541
      3280.996       1.085     -20.541
      3281.496       1.094     -20.538
      3281.996       1.099     -20.508
      3282.496       1.122     -20.477
      3282.996       1.130     -20.447
      3283.496       1.135     -20.417
      3283.996       1.155     -20.387
      3284.496       1.177     -20.356
      3284.996       1.186     -20.326
      3285.496       1.234     -20.296
      3285.996       1.271     -20.265
      3286.496       1.282     -20.235
      3286.996       1.260     -20.205
      3287.496       1.225     -20.175
      3287.996       1.214     -20.144
      3288.496       1.213     -20.114
      3288.996       1.213     -20.084
      3289.496       1.213     -20.053
      3289.996       1.213     -20.023
      3290.496       1.213     -19.993
      3290.996       1.242     -19.963
      3291.496       1.332     -19.932
      3291.996       1.422     -19.902
      3292.496       1.512     -19.872
      3292.996       1.504     -19.841
      3293.496       1.471     -19.811
      3293.996       1.438     -19.781
      3294.496       1.404     -19.751
      3294.996       1.371     -19.720
      3295.496       1.338     -19.690
      3295.996       1.305     -19.660
      3296.496       1.282     -19.630
      3296.996       1.266     -19.599
      3297.496       1.254     -19.569
      3297.996       1.249     -19.539
      3298.496       1.240     -19.508
      3298.996       1.222     -19.478
      3299.496       1.207     -19.448
      3299.996       1.175     -19.418
      3300.496       1.117     -19.387
      3300.996       1.097     -19.357
      3301.496       1.041     -19.327
      3301.996       0.978     -19.296
      3302.496       0.943     -19.266
      3302.996       0.916     -19.251
      3303.496       0.909     -19.269
      3303.996       0.894     -19.287
      3304.496       0.889     -19.305
